,(0)linux time (ms),    (1)uptime  (ms),      (2)drive mode,(3)mpc step counter,(4)mpc origin latitude  (deg),(5)mpc origin longitude  (deg),(6)closest trajectory point index to robot,(7)mpc error x (W;E)  (m),(8)mpc error y (W;E)  (m),(9)abs mpc error (m),(10)input [x] for mhe (m),(11)input [y] for mhe (m),(12)input [speed] for mhe (m/s),(13)input [vyaw] for mhe (rad/s),(14)mhe output x  (m),(15)mhe output y  (m),(16)mhe output speed  (m/s),(17)mhe output yaw  (rad),(18)mpc reference heading (rad),(19)mpc turn rate command (rad/s),(20)turn rate command as PWM,(21)throttle command as PWM,(22)primary gps latitude (deg),(23)primary gps longitude (deg),(24)secondary gps latitude  (deg),(25)secondary gps longitude (deg),(26)accelerometer x (m/s^2),(27)accelerometer y (m/s^2),(28)accelerometer z (m/s^2),(29)gyro yaw rate (rad/s),(30)gyro pitch rate   (rad/s),(31)gyro roll rate (rad/s),      (32)yaw (rad),  (33)pitch   (rad),     (34)roll (rad),(35)sonar1 measurement (m),(36)ultrasonic sensor measurement (m),(37)primary gps time (s),(38)normalized turn rate command,(39)normalized throttle command,(40)speed calculation from encoder left (m/s),(41)speed calculation from encoder right (m/s),(42)front gimbal target angle (degrees from straight down),(43)left gimbal target angle  (degrees from straight down),(44)right gimbal target angle  (degrees from straight down),(45)front gimbal measured angle  (degrees from straight down),(46)left gimbal measured angle    (degrees from straight down),(47)right gimbal measured angle  (degrees from straight down),(48)internal temperature (C),(49)battery voltage (V),(50)primary gps type,(51)secondary gps type,    (52)MPC R value, (53)MPC Q[0] value,Unnamed: 54,weed_num,start
0,1530903732581,929581, RC,0,39.9586186,-88.445067899,0,-18035.810871344598,9438.9593082351,20356.4345259535,-18035.78353321,9436.7120662365,0.137674585,0.0,-18035.8006443299,9436.581985869201,0.3142664702,-7.8416738316,0.0,0.0,1500,1500,40.043484990500005,-88.2333279692,40.0436705,-88.233388,0.0,0.0,0.0,0.0,0.0,0.0,0.0,0.0,0.0,0.0,0.0,190206,0.0,0.0,0.11753381789999999,0.1313288808,90.0,90.0,90.0,96.00226593020001,95.36563873290001,95.74761199950001,43.8320007324,14.9724903107,20.170000076300003,0,2,25,1,129,10133
1,1530903732631,929631, RC,0,39.9586186,-88.445067899,0,-18035.8045105677,9438.9367057265,20356.4184098805,-18035.7802123354,9436.6872327028,0.10033599289999999,0.0,-18035.794283553,9436.5593833606,0.29657740120000003,-7.8253164130999995,0.0,0.0,1500,1500,40.0434847672,-88.23332800850001,40.0436705,-88.233388,0.0,0.0,0.0,0.0,0.0,0.0,0.0,0.0,0.0,0.0,0.0,190206,0.0,0.0,0.09601354599999999,0.1046584398,90.0,90.0,90.0,96.32057189940001,95.8749313354,95.36563873290001,43.8320007324,14.984960555999999,2.6800000668,0,2,25,1,152,10135
2,1530903732687,929687, RC,0,39.9586186,-88.445067899,0,-18035.7986371801,9438.9167768964,20356.4039653884,-18035.7842466921,9436.6850829336,0.0727458894,0.0,-18035.7884101654,9436.5394545305,0.2791661105,-7.811291754299999,0.0,0.0,1500,1500,40.0434847478,-88.2333279612,40.0436705,-88.233388,0.0,0.0,0.0,0.0,0.0,0.0,0.0,0.0,0.0,0.0,0.0,190206,0.0,0.0,0.0680555776,0.0774362087,90.0,90.0,90.0,96.6388778687,96.0659179688,95.1109924316,43.8320007324,14.984960555999999,2.6800000668,0,2,25,1,129,10137
3,1530903732747,929747, RC,0,39.9586186,-88.445067899,0,-18035.7986371801,9438.9167768964,20356.4039653884,-18035.7884987036,9436.7028741224,0.053800690899999996,0.0,-18035.7884101654,9436.5394545305,0.2791661105,-7.811291754299999,0.0,0.0,1500,1500,40.0434849078,-88.233327911,40.0436705,-88.233388,0.0,0.0,0.0,0.0,0.0,0.0,0.0,0.0,0.0,0.0,0.0,190206,0.0,0.0,0.0509497151,0.0566516668,90.0,90.0,90.0,96.19325256350001,96.00226593020001,95.42930603030001,44.3690032959,14.984960555999999,2.6800000668,0,2,25,1,109,10139
4,1530903732797,929797, RC,0,39.9586186,-88.445067899,0,-18035.7945995747,9438.9054191625,20356.3951216797,-18035.7884987036,9436.7028741224,0.0424887538,0.0,-18035.78437256,9436.528096796601,0.2603198518,-7.8021714410000005,0.0,0.0,1500,1500,40.0434849078,-88.233327911,40.0436705,-88.233388,0.0,0.0,0.0,0.0,0.0,0.0,0.0,0.0,0.0,0.0,0.0,190206,0.0,0.0,0.0408333465,0.04414415730000001,90.0,90.0,90.0,96.19325256350001,95.93859863280001,95.6839523315,43.8320007324,14.984960555999999,2.6800000668,0,2,25,1,118,10140
5,1530903732848,929848, RC,0,39.9586186,-88.445067899,0,-18035.7945995747,9438.9054191625,20356.3951216797,-18035.7913078916,9436.704319656601,0.035039424900000005,0.0,-18035.78437256,9436.528096796601,0.2603198518,-7.8021714410000005,0.0,0.0,1500,1500,40.0434849208,-88.233327878,40.0436705,-88.233388,0.0,0.0,0.0,0.0,0.0,0.0,0.0,0.0,0.0,0.0,0.0,190206,0.0,0.0,0.033843856299999996,0.0362349972,90.0,90.0,90.0,96.32057189940001,95.93859863280001,95.6839523315,43.8320007324,14.984960555999999,2.6800000668,0,2,25,1,124,10142
6,1530903732898,929898, RC,0,39.9586186,-88.445067899,0,-18035.7919322907,9438.8990335326,20356.3897975576,-18035.7913078916,9436.704319656601,0.0277740341,0.0,-18035.781705276,9436.5217111667,0.23855031289999998,-7.7934683688,0.0,0.0,1500,1500,40.0434849208,-88.233327878,40.0436705,-88.233388,0.0,0.0,0.0,0.0,0.0,0.0,0.0,0.0,0.0,0.0,0.0,190206,0.0,0.0,0.026854364199999998,0.028693703900000003,90.0,90.0,90.0,96.2569046021,95.93859863280001,95.62029266360001,44.3690032959,14.984960555999999,2.6800000668,0,2,25,1,129,10144
7,1530903732949,929949, RC,0,39.9586186,-88.445067899,0,-18035.7919322907,9438.8990335326,20356.3897975576,-18035.7913078916,9436.704319656601,0.0208765082,0.0,-18035.781705276,9436.5217111667,0.23855031289999998,-7.7934683688,0.0,0.0,1500,1500,40.0434849208,-88.233327878,40.0436705,-88.233388,0.0,0.0,0.0,0.0,0.0,0.0,0.0,0.0,0.0,0.0,0.0,190206,0.0,0.0,0.020232738899999998,0.0215202775,90.0,90.0,90.0,96.2569046021,95.8749313354,95.6839523315,44.3690032959,14.984960555999999,2.6800000668,0,2,25,1,122,10146
8,1530903732999,929999, RC,0,39.9586186,-88.445067899,0,-18035.7887812701,9438.894702010799,20356.384997298403,-18035.7880933666,9436.6975182338,0.017289795,0.0,-18035.7785542554,9436.5173796449,0.21519389670000003,-7.7809135952999995,0.0,0.0,1500,1500,40.0434848597,-88.2333279158,40.0436705,-88.233388,0.0,0.0,0.0,0.0,0.0,0.0,0.0,0.0,0.0,0.0,0.0,190206,0.0,0.0,0.0167379919,0.017841598,90.0,90.0,90.0,96.2569046021,95.93859863280001,95.62029266360001,44.3690032959,14.984960555999999,2.6800000668,0,2,25,1,120,10147
9,1530903733050,930050, RC,0,39.9586186,-88.445067899,0,-18035.7887812701,9438.894702010799,20356.384997298403,-18035.7880933666,9436.6975182338,0.0127834119,0.0,-18035.7785542554,9436.5173796449,0.21519389670000003,-7.7809135952999995,0.0,0.0,1500,1500,40.0434848597,-88.2333279158,40.0436705,-88.233388,0.0,0.0,0.0,0.0,0.0,0.0,0.0,0.0,0.0,0.0,0.0,190206,0.0,0.0,0.012323576999999999,0.013243246799999999,90.0,90.0,90.0,96.19325256350001,95.81127929690001,95.6839523315,43.8320007324,14.984960555999999,2.6800000668,0,2,25,1,119,10149
10,1530903733100,930100, RC,0,39.9586186,-88.445067899,0,-18035.7887812701,9438.894702010799,20356.384997298403,-18035.7880933666,9436.6975182338,0.0106681716,0.0,-18035.7785542554,9436.5173796449,0.21519389670000003,-7.7809135952999995,0.0,0.0,1500,1500,40.0434848597,-88.2333279158,40.0436705,-88.233388,0.0,0.0,0.0,0.0,0.0,0.0,0.0,0.0,0.0,0.0,0.0,190206,0.0,0.0,0.0103003038,0.0110360393,90.0,90.0,90.0,96.12958526610001,95.62029266360001,95.8749313354,43.8320007324,14.984960555999999,2.6800000668,0,2,25,1,129,10151
11,1530903733150,930150, RC,0,39.9586186,-88.445067899,0,-18035.7814117053,9438.8940963359,20356.378187012,-18035.7602316634,9436.7044123188,0.0078171939,0.0,-18035.771184690602,9436.51677397,0.1924441018,-7.7593915951,0.0,0.0,1500,1500,40.0434849217,-88.23332824280001,40.0436705,-88.233388,0.0,0.0,0.0,0.0,0.0,0.0,0.0,0.0,0.0,0.0,0.0,190207,0.0,0.0,0.0075412933,0.0080930954,90.0,90.0,90.0,96.0659179688,95.4929656982,96.0659179688,43.8320007324,14.984960555999999,2.6800000668,0,2,25,1,138,10152
12,1530903733201,930201, RC,0,39.9586186,-88.445067899,0,-18035.7733584951,9438.8946653196,20356.3713156839,-18035.7599509713,9436.7016880427,0.0064376895,0.0,-18035.763131480402,9436.5173429537,0.17057421679999998,-7.7317946364,0.0,0.0,1500,1500,40.043484897199995,-88.2333282462,40.0436705,-88.233388,0.0,0.0,0.0,0.0,0.0,0.0,0.0,0.0,0.0,0.0,0.0,190207,0.0,0.0,0.0062537556999999995,0.006621623399999999,90.0,90.0,90.0,96.0659179688,95.36563873290001,96.19325256350001,43.8320007324,14.984960555999999,2.6800000668,0,2,25,1,134,10154
13,1530903733251,930251, RC,0,39.9586186,-88.445067899,0,-18035.765454578,9438.8966652108,20356.3652401178,-18035.7605751971,9436.7020401602,0.0053340858,0.0,-18035.755227563302,9436.5193428449,0.148793037,-7.7037667451,0.0,0.0,1500,1500,40.0434849003,-88.2333282388,40.0436705,-88.233388,0.0,0.0,0.0,0.0,0.0,0.0,0.0,0.0,0.0,0.0,0.0,190207,0.0,0.0,0.0051501519,0.0055180197,90.0,90.0,90.0,96.00226593020001,95.174659729,96.32057189940001,43.8320007324,14.984960555999999,2.6800000668,0,2,25,1,126,10156
14,1530903733305,930305, RC,0,39.9586186,-88.445067899,0,-18035.765454578,9438.8966652108,20356.3652401178,-18035.7605751971,9436.7020401602,0.0039545809999999995,0.0,-18035.755227563302,9436.5193428449,0.148793037,-7.7037667451,0.0,0.0,1500,1500,40.0434849003,-88.2333282388,40.0436705,-88.233388,0.0,0.0,0.0,0.0,0.0,0.0,0.0,0.0,0.0,0.0,0.0,190207,0.0,0.0,0.0038626138000000003,0.0040465477,90.0,90.0,90.0,95.93859863280001,95.55662536620001,96.3842315674,44.3690032959,14.984960555999999,2.6800000668,0,2,25,1,119,10158
15,1530903733356,930356, RC,0,39.9586186,-88.445067899,0,-18035.765454578,9438.8966652108,20356.3652401178,-18035.7605751971,9436.7020401602,0.0030349109000000003,0.0,-18035.755227563302,9436.5193428449,0.148793037,-7.7037667451,0.0,0.0,1500,1500,40.0434849003,-88.2333282388,40.0436705,-88.233388,0.0,0.0,0.0,0.0,0.0,0.0,0.0,0.0,0.0,0.0,0.0,190207,0.0,0.0,0.0029429439000000003,0.0031268778000000004,90.0,90.0,90.0,95.93859863280001,95.42930603030001,96.44789123540001,44.3690032959,14.984960555999999,2.6800000668,0,2,25,1,126,10160
16,1530903733406,930406, RC,0,39.9586186,-88.445067899,0,-18035.758414635802,9438.899974818101,20356.360537328997,-18035.760290938,9436.702318148,0.002483109,0.0,-18035.748187621102,9436.5226524522,0.1304460047,-7.6773518123,0.0,0.0,1500,1500,40.0434849028,-88.23332824219999,40.0436648333,-88.2333911667,0.0,0.0,0.0,0.0,0.0,0.0,0.0,0.0,0.0,0.0,0.0,190207,0.0,0.0,0.0023911418,0.002575076,90.0,90.0,90.0,95.93859863280001,95.36563873290001,96.51155853270001,44.3690032959,14.984960555999999,2.6800000668,0,2,25,1,134,10162
17,1530903733457,930457, RC,0,39.9586186,-88.445067899,0,-18035.758414635802,9438.899974818101,20356.360537328997,-18035.760290938,9436.702318148,0.0018393398,0.0,-18035.748187621102,9436.5226524522,0.1304460047,-7.6773518123,0.0,0.0,1500,1500,40.0434849028,-88.23332824219999,40.0436648333,-88.2333911667,0.0,0.0,0.0,0.0,0.0,0.0,0.0,0.0,0.0,0.0,0.0,190207,0.0,0.0,0.0018393398,0.0018393398,90.0,90.0,90.0,95.8749313354,95.6839523315,96.51155853270001,44.3690032959,14.984960555999999,2.6800000668,0,2,25,1,142,10163
18,1530903733507,930507, RC,0,39.9586186,-88.445067899,0,-18035.7524978853,9438.9044992588,20356.3573929892,-18035.7605557182,9436.706487957701,0.0015634389000000002,0.0,-18035.7422708706,9436.5271768929,0.11562400099999999,-7.655311565800001,0.0,0.0,1500,1500,40.043484940300004,-88.233328239,40.0436648333,-88.2333911667,0.0,0.0,0.0,0.0,0.0,0.0,0.0,0.0,0.0,0.0,0.0,190207,0.0,0.0,0.0014714720000000001,0.0016554058999999999,90.0,90.0,90.0,95.8749313354,95.6839523315,96.5752182007,44.3690032959,14.984960555999999,2.6800000668,0,2,25,1,124,10165
19,1530903733557,930557, RC,0,39.9586186,-88.445067899,0,-18035.7524978853,9438.9044992588,20356.3573929892,-18035.7603848093,9436.7069512699,0.0011955709,0.0,-18035.7422708706,9436.5271768929,0.11562400099999999,-7.655311565800001,0.0,0.0,1500,1500,40.0434849445,-88.23332824100001,40.0436648333,-88.2333911667,0.0,0.0,0.0,0.0,0.0,0.0,0.0,0.0,0.0,0.0,0.0,190207,0.0,0.0,0.001103604,0.001287538,90.0,90.0,90.0,95.8749313354,95.62029266360001,96.5752182007,43.8320007324,14.984960555999999,2.6800000668,0,2,25,1,118,10167
20,1530903733608,930608, RC,0,39.9586186,-88.445067899,0,-18035.7481733919,9438.9099848573,20356.3561050658,-18035.7603848093,9436.7069512699,0.0009196699,0.0,-18035.7379463772,9436.5326624914,0.1034437929,-7.6351767123,0.0,0.0,1500,1500,40.0434849445,-88.23332824100001,40.0436648333,-88.2333911667,0.0,0.0,0.0,0.0,0.0,0.0,0.0,0.0,0.0,0.0,0.0,190207,0.0,0.0,0.0009196699,0.0009196699,90.0,90.0,90.0,95.81127929690001,95.55662536620001,96.5752182007,43.8320007324,15.002098083499998,2.6799998283,0,2,25,1,125,10169
21,1530903733658,930658, RC,0,39.9586186,-88.445067899,0,-18035.7481733919,9438.9099848573,20356.3561050658,-18035.7592490473,9436.706988334301,0.000643769,0.0,-18035.7379463772,9436.5326624914,0.1034437929,-7.6351767123,0.0,0.0,1500,1500,40.0434849448,-88.2333282543,40.0436648333,-88.2333911667,0.0,0.0,0.0,0.0,0.0,0.0,0.0,0.0,0.0,0.0,0.0,190207,0.0,0.0,0.000551802,0.0007357360000000001,90.0,90.0,90.0,95.81127929690001,95.4929656982,96.6388778687,43.8320007324,15.002098083499998,2.6799998283,0,2,25,1,130,10171
22,1530903733709,930709, RC,0,39.9586186,-88.445067899,0,-18035.7452920334,9438.917955795401,20356.3572481753,-18035.7592490473,9436.706988334301,0.000551802,0.0,-18035.7350650187,9436.5406334295,0.0875438956,-7.6169220611,0.0,0.0,1500,1500,40.0434849448,-88.2333282543,40.0436648333,-88.2333911667,0.0,0.0,0.0,0.0,0.0,0.0,0.0,0.0,0.0,0.0,0.0,190207,0.0,0.0,0.000551802,0.000551802,90.0,90.0,90.0,95.81127929690001,95.42930603030001,96.6388778687,43.8320007324,15.002098083499998,2.6799998283,0,2,25,1,131,10173
23,1530903733759,930759, RC,0,39.9586186,-88.445067899,0,-18035.7452920334,9438.917955795401,20356.3572481753,-18035.7583964637,9436.7076555041,0.00036786800000000004,0.0,-18035.7350650187,9436.5406334295,0.0875438956,-7.6169220611,0.0,0.0,1500,1500,40.0434849508,-88.2333282643,40.0436648333,-88.2333911667,0.0,0.0,0.0,0.0,0.0,0.0,0.0,0.0,0.0,0.0,0.0,190207,0.0,0.0,0.00036786800000000004,0.00036786800000000004,90.0,90.0,90.0,95.81127929690001,95.36563873290001,96.6388778687,43.8320007324,15.002098083499998,2.6799998283,0,2,25,1,122,10174
24,1530903733809,930809, RC,0,39.9586186,-88.445067899,0,-18035.7431757938,9438.9258940598,20356.359054033797,-18035.7583964637,9436.7076555041,0.00036786800000000004,0.0,-18035.7329487791,9436.5485716939,0.0708171955,-7.603100796900001,0.0,0.0,1500,1500,40.0434849508,-88.2333282643,40.0436648333,-88.2333911667,0.0,0.0,0.0,0.0,0.0,0.0,0.0,0.0,0.0,0.0,0.0,190207,0.0,0.0,0.00036786800000000004,0.00036786800000000004,90.0,90.0,90.0,95.74761199950001,95.36563873290001,96.70254516600001,43.8320007324,15.002098083499998,2.6799998283,0,2,25,1,124,10176
25,1530903733860,930860, RC,0,39.9586186,-88.445067899,0,-18035.7431757938,9438.9258940598,20356.359054033797,-18035.7583964637,9436.7076555041,0.00018393400000000002,0.0,-18035.7329487791,9436.5485716939,0.0708171955,-7.603100796900001,0.0,0.0,1500,1500,40.0434849508,-88.2333282643,40.0436648333,-88.2333911667,0.0,0.0,0.0,0.0,0.0,0.0,0.0,0.0,0.0,0.0,0.0,190207,0.0,0.0,0.00018393400000000002,0.00018393400000000002,90.0,90.0,90.0,95.74761199950001,95.93859863280001,96.70254516600001,43.8320007324,15.002098083499998,2.6799998283,0,2,25,1,128,10178
26,1530903733910,930910, RC,0,39.9586186,-88.445067899,0,-18035.7412853107,9438.932132616701,20356.3602717874,-18035.7581691218,9436.707822295799,0.00018393400000000002,0.0,-18035.731058296,9436.5548102508,0.0541826984,-7.594580725,0.0,0.0,1500,1500,40.0434849523,-88.233328267,40.0436648333,-88.2333911667,0.0,0.0,0.0,0.0,0.0,0.0,0.0,0.0,0.0,0.0,0.0,190207,0.0,0.0,0.00018393400000000002,0.00018393400000000002,90.0,90.0,90.0,95.74761199950001,95.93859863280001,96.70254516600001,43.8320007324,15.002098083499998,2.6799998283,0,2,25,1,122,10180
27,1530903733961,930961, RC,0,39.9586186,-88.445067899,0,-18035.7412853107,9438.932132616701,20356.3602717874,-18035.760924121,9436.7070809972,0.00018393400000000002,0.0,-18035.731058296,9436.5548102508,0.0541826984,-7.594580725,0.0,0.0,1500,1500,40.0434849457,-88.2333282347,40.0436648333,-88.2333911667,0.0,0.0,0.0,0.0,0.0,0.0,0.0,0.0,0.0,0.0,0.0,190207,0.0,0.0,0.00018393400000000002,0.00018393400000000002,90.0,90.0,90.0,95.74761199950001,95.8749313354,96.70254516600001,43.8320007324,15.002098083499998,2.6799998283,0,2,25,1,125,10182
28,1530903734011,931011, RC,0,39.9586186,-88.445067899,0,-18035.7403668575,9438.9346862213,20356.3606421051,-18035.760924121,9436.7070809972,9.196700000000001e-05,0.0,-18035.7301398428,9436.5573638554,0.0352429191,-7.5888783739,0.0,0.0,1500,1500,40.0434849457,-88.2333282347,40.0436648333,-88.2333911667,0.0,0.0,0.0,0.0,0.0,0.0,0.0,0.0,0.0,0.0,0.0,190207,0.0,0.0,0.00018393400000000002,0.0,90.0,90.0,90.0,95.74761199950001,95.81127929690001,96.76620483399999,44.3690032959,15.002098083499998,2.6799998283,0,2,25,1,129,10183
29,1530903734061,931061, RC,0,39.9586186,-88.445067899,0,-18035.7403668575,9438.9346862213,20356.3606421051,-18035.760924121,9436.7070809972,0.0,0.0,-18035.7301398428,9436.5573638554,0.0352429191,-7.5888783739,0.0,0.0,1500,1500,40.0434849457,-88.2333282347,40.0436648333,-88.2333911667,0.0,0.0,0.0,0.0,0.0,0.0,0.0,0.0,0.0,0.0,0.0,190207,0.0,0.0,0.0,0.0,90.0,90.0,90.0,95.74761199950001,95.81127929690001,96.76620483399999,44.3690032959,15.002098083499998,2.6799998283,0,2,25,1,130,10185
30,1530903734112,931112, RC,0,39.9586186,-88.445067899,0,-18035.7403668575,9438.9346862213,20356.3606421051,-18035.7600018341,9436.706673282,0.0,0.0,-18035.7301398428,9436.5573638554,0.0352429191,-7.5888783739,0.0,0.0,1500,1500,40.043484942,-88.23332824549999,40.0436648333,-88.2333911667,0.0,0.0,0.0,0.0,0.0,0.0,0.0,0.0,0.0,0.0,0.0,190208,0.0,0.0,0.0,0.0,90.0,90.0,90.0,95.6839523315,95.74761199950001,96.76620483399999,44.3690032959,15.002098083499998,2.6799998283,0,2,25,1,119,10187
31,1530903734162,931162, RC,0,39.9586186,-88.445067899,0,-18035.7395162917,9438.938620192701,20356.3617126266,-18035.7599318424,9436.7058393205,0.0,0.0,-18035.729289277,9436.5612978268,0.020970486200000003,-7.5851866359,0.0,0.0,1500,1500,40.0434849345,-88.23332824629999,40.0436648333,-88.2333911667,0.0,0.0,0.0,0.0,0.0,0.0,0.0,0.0,0.0,0.0,0.0,190208,0.0,0.0,0.0,0.0,90.0,90.0,90.0,95.6839523315,95.74761199950001,96.76620483399999,43.8320007324,15.002098083499998,2.6799998283,0,2,25,1,126,10189
32,1530903734213,931213, RC,0,39.9586186,-88.445067899,0,-18035.7385386929,9438.941887969399,20356.3623616931,-18035.7599318424,9436.7058393205,0.0,0.0,-18035.728311678202,9436.5645656035,0.0139513984,-7.5831341761,0.0,0.0,1500,1500,40.0434849345,-88.23332824629999,40.0436648333,-88.2333911667,0.0,0.0,0.0,0.0,0.0,0.0,0.0,0.0,0.0,0.0,0.0,190208,0.0,0.0,0.0,0.0,90.0,90.0,90.0,95.6839523315,95.6839523315,96.76620483399999,44.3690032959,15.002098083499998,2.6799998283,0,2,25,1,122,10191
33,1530903734263,931263, RC,0,39.9586186,-88.445067899,0,-18035.737307161202,9438.9446296891,20356.3625418507,-18035.7607552184,9436.705857853101,0.0,0.0,-18035.7270801465,9436.5673073232,0.0091056173,-7.5819525682,0.0,0.0,1500,1500,40.0434849347,-88.2333282367,40.0436648333,-88.2333911667,0.0,0.0,0.0,0.0,0.0,0.0,0.0,0.0,0.0,0.0,0.0,190208,0.0,0.0,0.0,0.0,90.0,90.0,90.0,95.6839523315,95.6839523315,96.76620483399999,44.3690032959,15.002098083499998,2.6799998283,0,2,25,1,124,10192
34,1530903734313,931313, RC,0,39.9586186,-88.445067899,0,-18035.737307161202,9438.9446296891,20356.3625418507,-18035.7607552184,9436.705857853101,0.0,0.0,-18035.7270801465,9436.5673073232,0.0091056173,-7.5819525682,0.0,0.0,1500,1500,40.0434849347,-88.2333282367,40.0436648333,-88.2333911667,0.0,0.0,0.0,0.0,0.0,0.0,0.0,0.0,0.0,0.0,0.0,190208,0.0,0.0,0.0,0.0,90.0,90.0,90.0,95.6839523315,95.62029266360001,96.76620483399999,43.8320007324,15.002098083499998,2.6799998283,0,2,25,1,127,10194
35,1530903734365,931365, RC,0,39.9586186,-88.445067899,0,-18035.737307161202,9438.9446296891,20356.3625418507,-18035.7611815301,9436.705505735601,0.0001,0.0,-18035.7270801465,9436.5673073232,0.0091056173,-7.5819525682,0.0,0.0,1500,1500,40.043484931500004,-88.2333282317,40.0436648333,-88.2333911667,0.0,0.0,0.0,0.0,0.0,0.0,0.0,0.0,0.0,0.0,0.0,190208,0.0,0.0,0.0,0.0,90.0,90.0,90.0,95.6839523315,95.62029266360001,96.76620483399999,43.8320007324,15.002098083499998,2.6799998283,0,2,25,1,129,10196
36,1530903734415,931415, RC,0,39.9586186,-88.445067899,0,-18035.7358448916,9438.945968420501,20356.3618670299,-18035.7611815301,9436.705505735601,0.0,0.0,-18035.7256178769,9436.5686460546,0.005116941,-7.581323456000001,0.0,0.0,1500,1500,40.043484931500004,-88.2333282317,40.0436631667,-88.2333943333,0.0,0.0,0.0,0.0,0.0,0.0,0.0,0.0,0.0,0.0,0.0,190208,0.0,0.0,0.0,0.0,90.0,90.0,90.0,95.6839523315,95.55662536620001,96.8298721313,43.8320007324,15.002098083499998,2.6799998283,0,2,25,1,126,10198
37,1530903734471,931471, RC,0,39.9586186,-88.445067899,0,-18035.7340587561,9438.9466294812,20356.3605910381,-18035.7603027347,9436.7043381885,0.0,0.0,-18035.723831741398,9436.5693071153,0.0028623715000000004,-7.5810284604,0.0,0.0,1500,1500,40.043484921,-88.23332824200001,40.0436631667,-88.2333943333,0.0,0.0,0.0,0.0,0.0,0.0,0.0,0.0,0.0,0.0,0.0,190208,0.0,0.0,0.0,0.0,90.0,90.0,90.0,95.6839523315,95.55662536620001,96.8298721313,43.8320007324,15.002098083499998,2.6799998283,0,2,25,1,132,10200
38,1530903734521,931521, RC,0,39.9586186,-88.445067899,0,-18035.7340587561,9438.9466294812,20356.3605910381,-18035.7603027347,9436.7043381885,0.0,0.0,-18035.723831741398,9436.5693071153,0.0028623715000000004,-7.5810284604,0.0,0.0,1500,1500,40.043484921,-88.23332824200001,40.0436631667,-88.2333943333,0.0,0.0,0.0,0.0,0.0,0.0,0.0,0.0,0.0,0.0,0.0,190208,0.0,0.0,0.0,0.0,90.0,90.0,90.0,95.6839523315,95.55662536620001,96.8298721313,43.293998718299996,15.002098083499998,2.6799998283,0,2,25,1,124,10202
39,1530903734572,931572, RC,0,39.9586186,-88.445067899,0,-18035.7324392507,9438.9474240107,20356.3595245682,-18035.760813521298,9436.7045791112,0.0,0.0,-18035.722212236,9436.5701016448,0.0016513021,-7.5808689639999995,0.0,0.0,1500,1500,40.043484923200005,-88.233328236,40.0436631667,-88.2333943333,0.0,0.0,0.0,0.0,0.0,0.0,0.0,0.0,0.0,0.0,0.0,190208,0.0,0.0,0.0,0.0,90.0,90.0,90.0,95.6839523315,95.4929656982,96.8298721313,43.293998718299996,15.002098083499998,2.6799998283,0,2,25,1,126,10203
40,1530903734622,931622, RC,0,39.9586186,-88.445067899,0,-18035.7324392507,9438.9474240107,20356.3595245682,-18035.760813521298,9436.7045791112,0.0,0.0,-18035.722212236,9436.5701016448,0.0016513021,-7.5808689639999995,0.0,0.0,1500,1500,40.043484923200005,-88.233328236,40.0436631667,-88.2333943333,0.0,0.0,0.0,0.0,0.0,0.0,0.0,0.0,0.0,0.0,0.0,190208,0.0,0.0,0.0,0.0,90.0,90.0,90.0,95.62029266360001,95.4929656982,96.8298721313,44.3690032959,15.0107803345,2.7999999523000003,0,2,25,1,126,10205
41,1530903734673,931673, RC,0,39.9586186,-88.445067899,0,-18035.7324392507,9438.9474240107,20356.3595245682,-18035.760813521298,9436.7045791112,0.0,0.0,-18035.722212236,9436.5701016448,0.0016513021,-7.5808689639999995,0.0,0.0,1500,1500,40.043484923200005,-88.233328236,40.0436631667,-88.2333943333,0.0,0.0,0.0,0.0,0.0,0.0,0.0,0.0,0.0,0.0,0.0,190208,0.0,0.0,0.0,0.0,90.0,90.0,90.0,95.62029266360001,95.4929656982,96.8298721313,44.3690032959,15.0107803345,2.7999999523000003,0,2,25,1,126,10207
42,1530903734723,931723, RC,0,39.9586186,-88.445067899,0,-18035.7324304649,9438.9476716957,20356.359631631898,-18035.7593923545,9436.705857853101,0.0,0.0,-18035.7222034502,9436.5703493298,0.0011068537,-7.5808703663,0.0,0.0,1500,1500,40.0434849347,-88.2333282527,40.0436631667,-88.2333943333,0.0,0.0,0.0,0.0,0.0,0.0,0.0,0.0,0.0,0.0,0.0,190208,0.0,0.0,0.0,0.0,90.0,90.0,90.0,95.62029266360001,95.42930603030001,96.8298721313,44.3690032959,15.0107803345,2.7999999523000003,0,2,25,1,128,10209
43,1530903734777,931777, RC,0,39.9586186,-88.445067899,0,-18035.7324352915,9438.9479771726,20356.3597775535,-18035.7596204008,9436.7050980211,0.0,0.0,-18035.7222082768,9436.570654806701,0.0007873958,-7.5808667084,0.0,0.0,1500,1500,40.0434849278,-88.23332825,40.0436631667,-88.2333943333,0.0,0.0,0.0,0.0,0.0,0.0,0.0,0.0,0.0,0.0,0.0,190208,0.0,0.0,0.0,0.0,90.0,90.0,90.0,95.62029266360001,95.42930603030001,96.8298721313,43.8320007324,15.0107803345,2.7999999523000003,0,2,25,1,125,10211
44,1530903734828,931828, RC,0,39.9586186,-88.445067899,0,-18035.7324352915,9438.9479771726,20356.3597775535,-18035.7599052312,9436.7043381885,0.0001,0.0,-18035.7222082768,9436.570654806701,0.0007873958,-7.5808667084,0.0,0.0,1500,1500,40.043484921,-88.2333282467,40.0436631667,-88.2333943333,0.0,0.0,0.0,0.0,0.0,0.0,0.0,0.0,0.0,0.0,0.0,190208,0.0,0.0,0.0,0.0,90.0,90.0,90.0,95.62029266360001,95.42930603030001,96.8298721313,43.8320007324,15.0107803345,2.7999999523000003,0,2,25,1,124,10213
45,1530903734879,931879, RC,0,39.9586186,-88.445067899,0,-18035.7324081308,9438.948175841899,20356.3598456091,-18035.7599052312,9436.7043381885,0.0,0.0,-18035.7221811161,9436.570853476,0.0005974223999999999,-7.5808576463,0.0,0.0,1500,1500,40.043484921,-88.2333282467,40.0436631667,-88.2333943333,0.0,0.0,0.0,0.0,0.0,0.0,0.0,0.0,0.0,0.0,0.0,190208,0.0,0.0,0.0,0.0,90.0,90.0,90.0,95.62029266360001,95.42930603030001,96.8298721313,43.293998718299996,15.0107803345,2.7999999523000003,0,2,25,1,121,10215
46,1530903734929,931929, RC,0,39.9586186,-88.445067899,0,-18035.7324081308,9438.948175841899,20356.3598456091,-18035.7594085977,9436.7041343316,0.0,0.0,-18035.7221811161,9436.570853476,0.0005974223999999999,-7.5808576463,0.0,0.0,1500,1500,40.0434849192,-88.2333282525,40.0436631667,-88.2333943333,0.0,0.0,0.0,0.0,0.0,0.0,0.0,0.0,0.0,0.0,0.0,190208,0.0,0.0,0.0,0.0,90.0,90.0,90.0,95.62029266360001,95.42930603030001,96.8298721313,43.293998718299996,15.0107803345,2.7999999523000003,0,2,25,1,114,10216
47,1530903734980,931980, RC,0,39.9586186,-88.445067899,0,-18035.7323533305,9438.9482923492,20356.359851078898,-18035.7594085977,9436.7041343316,0.0,0.0,-18035.722126315803,9436.570969983299,0.0005873302999999999,-7.580852720299999,0.0,0.0,1500,1500,40.0434849192,-88.2333282525,40.0436631667,-88.2333943333,0.0,0.0,0.0,0.0,0.0,0.0,0.0,0.0,0.0,0.0,0.0,190208,0.0,0.0,0.0,0.0,90.0,90.0,90.0,95.62029266360001,95.36563873290001,96.8298721313,43.8320007324,15.0107803345,2.7999999523000003,0,2,25,1,124,10218
48,1530903735030,932030, RC,0,39.9586186,-88.445067899,0,-18035.7323533305,9438.9482923492,20356.359851078898,-18035.7594085977,9436.7041343316,0.0,0.0,-18035.722126315803,9436.570969983299,0.0005873302999999999,-7.580852720299999,0.0,0.0,1500,1500,40.0434849192,-88.2333282525,40.0436631667,-88.2333943333,0.0,0.0,0.0,0.0,0.0,0.0,0.0,0.0,0.0,0.0,0.0,190208,0.0,0.0,0.0,0.0,90.0,90.0,90.0,95.62029266360001,95.93859863280001,96.8298721313,43.8320007324,15.0107803345,2.7999999523000003,0,2,25,1,130,10220
49,1530903735082,932082, RC,0,39.9586186,-88.445067899,0,-18035.7323533305,9438.9482923492,20356.359851078898,-18035.7594085977,9436.7041343316,0.0,0.0,-18035.722126315803,9436.570969983299,0.0005873302999999999,-7.580852720299999,0.0,0.0,1500,1500,40.0434849192,-88.2333282525,40.0436631667,-88.2333943333,0.0,0.0,0.0,0.0,0.0,0.0,0.0,0.0,0.0,0.0,0.0,190208,0.0,0.0,0.0,0.0,90.0,90.0,90.0,95.62029266360001,95.93859863280001,96.8298721313,43.8320007324,15.0107803345,2.7999999523000003,0,2,25,1,125,10222
50,1530903735133,932133, RC,0,39.9586186,-88.445067899,0,-18035.7323533305,9438.9482923492,20356.359851078898,-18035.760516739098,9436.70344863,0.0001,0.0,-18035.722126315803,9436.570969983299,0.0005873302999999999,-7.580852720299999,0.0,0.0,1500,1500,40.043484913,-88.23332823950001,40.0436631667,-88.2333943333,0.0,0.0,0.0,0.0,0.0,0.0,0.0,0.0,0.0,0.0,0.0,190209,0.0,0.0,0.0,0.0,90.0,90.0,90.0,95.62029266360001,95.93859863280001,96.8298721313,43.8320007324,15.0107803345,2.7999999523000003,0,2,25,1,126,10224
51,1530903735183,932183, RC,0,39.9586186,-88.445067899,0,-18035.7323543725,9438.9481163991,20356.3597704166,-18035.759095503,9436.7047829688,0.0001,0.0,-18035.7221273578,9436.5707940332,0.0005392364,-7.580845232000001,0.0,0.0,1500,1500,40.043484925,-88.23332825620001,40.0436631667,-88.2333943333,0.0,0.0,0.0,0.0,0.0,0.0,0.0,0.0,0.0,0.0,0.0,190209,0.0,0.0,0.0,0.0,90.0,90.0,90.0,95.62029266360001,95.8749313354,96.8298721313,43.8320007324,15.0107803345,2.7999999523000003,0,2,25,1,127,10225
52,1530903735234,932234, RC,0,39.9586186,-88.445067899,0,-18035.7322798432,9438.9480017692,20356.3596512314,-18035.7597784764,9436.7034856944,0.0001,0.0,-18035.7220528285,9436.5706794033,0.0004666325,-7.580850292899999,0.0,0.0,1500,1500,40.0434849133,-88.2333282482,40.0436631667,-88.2333943333,0.0,0.0,0.0,0.0,0.0,0.0,0.0,0.0,0.0,0.0,0.0,190209,0.0,0.0,0.0,0.0,90.0,90.0,90.0,95.62029266360001,95.8749313354,96.8298721313,43.8320007324,15.0107803345,2.7999999523000003,0,2,25,1,130,10227
53,1530903735284,932284, RC,0,39.9586186,-88.445067899,0,-18035.7323144357,9438.9477869764,20356.359582284098,-18035.7597784764,9436.7034856944,0.0,0.0,-18035.722087421,9436.5704646105,0.00045196980000000004,-7.580854664199999,0.0,0.0,1500,1500,40.0434849133,-88.2333282482,40.0436631667,-88.2333943333,0.0,0.0,0.0,0.0,0.0,0.0,0.0,0.0,0.0,0.0,0.0,190209,0.0,0.0,0.0,0.0,90.0,90.0,90.0,95.62029266360001,95.8749313354,96.8298721313,43.8320007324,15.0107803345,2.7999999523000003,0,2,25,1,132,10229
54,1530903735335,932335, RC,0,39.9586186,-88.445067899,0,-18035.7323144357,9438.9477869764,20356.359582284098,-18035.7594654939,9436.7040416688,0.0001,0.0,-18035.722087421,9436.5704646105,0.00045196980000000004,-7.580854664199999,0.0,0.0,1500,1500,40.0434849183,-88.2333282518,40.0436631667,-88.2333943333,0.0,0.0,0.0,0.0,0.0,0.0,0.0,0.0,0.0,0.0,0.0,190209,0.0,0.0,0.0,0.0,90.0,90.0,90.0,95.62029266360001,95.8749313354,96.8298721313,43.8320007324,15.0107803345,2.7999999523000003,0,2,25,1,128,10231
55,1530903735385,932385, RC,0,39.9586186,-88.445067899,0,-18035.7323848384,9438.947570247901,20356.359544167,-18035.7594654939,9436.7040416688,0.0,0.0,-18035.7221578237,9436.570247882,0.00041934510000000004,-7.5808678612,0.0,0.0,1500,1500,40.0434849183,-88.2333282518,40.0436631667,-88.2333943333,0.0,0.0,0.0,0.0,0.0,0.0,0.0,0.0,0.0,0.0,0.0,190209,0.0,0.0,0.0,0.0,90.0,90.0,90.0,95.62029266360001,95.8749313354,96.8298721313,43.8320007324,15.0107803345,2.7999999523000003,0,2,25,1,116,10233
56,1530903735435,932435, RC,0,39.9586186,-88.445067899,0,-18035.7323848384,9438.947570247901,20356.359544167,-18035.7594654939,9436.7040416688,0.0,0.0,-18035.7221578237,9436.570247882,0.00041934510000000004,-7.5808678612,0.0,0.0,1500,1500,40.0434849183,-88.2333282518,40.0436585,-88.2333938333,0.0,0.0,0.0,0.0,0.0,0.0,0.0,0.0,0.0,0.0,0.0,190209,0.0,0.0,0.0,0.0,90.0,90.0,90.0,95.74761199950001,95.8749313354,96.8298721313,43.8320007324,15.0107803345,2.7999999523000003,0,2,25,1,123,10234
57,1530903735486,932486, RC,0,39.9586186,-88.445067899,0,-18035.7323848384,9438.947570247901,20356.359544167,-18035.760176596203,9436.7029667852,0.0,0.0,-18035.7221578237,9436.570247882,0.00041934510000000004,-7.5808678612,0.0,0.0,1500,1500,40.0434849087,-88.2333282435,40.0436585,-88.2333938333,0.0,0.0,0.0,0.0,0.0,0.0,0.0,0.0,0.0,0.0,0.0,190209,0.0,0.0,0.0,0.0,90.0,90.0,90.0,95.8749313354,95.8749313354,96.8298721313,43.8320007324,15.0107803345,2.7999999523000003,0,2,25,1,135,10236
58,1530903735539,932539, RC,0,39.9586186,-88.445067899,0,-18035.7325122415,9438.947270220699,20356.3595179278,-18035.760176596203,9436.7029667852,0.0,0.0,-18035.7222852268,9436.5699478548,0.0004065148,-7.5808773153999995,0.0,0.0,1500,1500,40.0434849087,-88.2333282435,40.0436585,-88.2333938333,0.0,0.0,0.0,0.0,0.0,0.0,0.0,0.0,0.0,0.0,0.0,190209,0.0,0.0,0.0,0.0,90.0,90.0,90.0,95.8749313354,95.8749313354,96.8298721313,43.8320007324,15.0107803345,2.7999999523000003,0,2,25,1,128,10238
59,1530903735589,932589, RC,0,39.9586186,-88.445067899,0,-18035.7325122415,9438.947270220699,20356.3595179278,-18035.7586555237,9436.7046903067,0.0,0.0,-18035.7222852268,9436.5699478548,0.0004065148,-7.5808773153999995,0.0,0.0,1500,1500,40.0434849242,-88.23332826129999,40.0436585,-88.2333938333,0.0,0.0,0.0,0.0,0.0,0.0,0.0,0.0,0.0,0.0,0.0,190209,0.0,0.0,0.0,0.0,90.0,90.0,90.0,95.8749313354,95.8749313354,96.8298721313,43.8320007324,15.0107803345,2.7999999523000003,0,2,25,1,125,10240
60,1530903735640,932640, RC,0,39.9586186,-88.445067899,0,-18035.7323761553,9438.947140071601,20356.3593370073,-18035.7574782699,9436.7038007467,0.0001,0.0,-18035.7221491406,9436.5698177057,0.0003395567,-7.5808836226,0.0,0.0,1500,1500,40.0434849162,-88.23332827520001,40.0436585,-88.2333938333,0.0,0.0,0.0,0.0,0.0,0.0,0.0,0.0,0.0,0.0,0.0,190209,0.0,0.0,0.0,0.0,90.0,90.0,90.0,95.8749313354,95.8749313354,96.8298721313,43.8320007324,15.0244731903,2.6300001144,0,2,25,1,126,10242
61,1530903735690,932690, RC,0,39.9586186,-88.445067899,0,-18035.7322206243,9438.9469653849,20356.3591182071,-18035.7574782699,9436.7038007467,0.0,0.0,-18035.7219936096,9436.569643019,0.0003220416,-7.5808981728,0.0,0.0,1500,1500,40.0434849162,-88.23332827520001,40.0436585,-88.2333938333,0.0,0.0,0.0,0.0,0.0,0.0,0.0,0.0,0.0,0.0,0.0,190209,0.0,0.0,0.0,0.0,90.0,90.0,90.0,95.8749313354,95.8749313354,96.8298721313,43.8320007324,15.0244731903,2.6300001144,0,2,25,1,128,10244
62,1530903735741,932741, RC,0,39.9586186,-88.445067899,0,-18035.7322206243,9438.9469653849,20356.3591182071,-18035.7574782699,9436.7038007467,0.0,0.0,-18035.7219936096,9436.569643019,0.0003220416,-7.5808981728,0.0,0.0,1500,1500,40.0434849162,-88.23332827520001,40.0436585,-88.2333938333,0.0,0.0,0.0,0.0,0.0,0.0,0.0,0.0,0.0,0.0,0.0,190209,0.0,0.0,0.0,0.0,90.0,90.0,90.0,95.8749313354,95.8749313354,96.8298721313,43.293998718299996,15.0244731903,2.6300001144,0,2,25,1,121,10245
63,1530903735791,932791, RC,0,39.9586186,-88.445067899,0,-18035.7322206243,9438.9469653849,20356.3591182071,-18035.7593395074,9436.7025405382,0.0,0.0,-18035.7219936096,9436.569643019,0.0003220416,-7.5808981728,0.0,0.0,1500,1500,40.0434849048,-88.2333282533,40.0436585,-88.2333938333,0.0,0.0,0.0,0.0,0.0,0.0,0.0,0.0,0.0,0.0,0.0,190209,0.0,0.0,0.0,0.0,90.0,90.0,90.0,95.8749313354,95.8749313354,96.8298721313,43.293998718299996,15.0244731903,2.6300001144,0,2,25,1,129,10247
64,1530903735842,932842, RC,0,39.9586186,-88.445067899,0,-18035.7321822547,9438.9467540816,20356.3589862334,-18035.7593395074,9436.7025405382,0.0,0.0,-18035.72195524,9436.5694317157,0.00033962069999999997,-7.5808973746,0.0,0.0,1500,1500,40.0434849048,-88.2333282533,40.0436585,-88.2333938333,0.0,0.0,0.0,0.0,0.0,0.0,0.0,0.0,0.0,0.0,0.0,190209,0.0,0.0,0.0,0.0,90.0,90.0,90.0,95.8749313354,96.00226593020001,96.8298721313,44.3690032959,15.0244731903,2.6300001144,0,2,25,1,133,10249
65,1530903735892,932892, RC,0,39.9586186,-88.445067899,0,-18035.7320918949,9438.9465987902,20356.3588341682,-18035.7592818638,9436.7032633043,0.0,0.0,-18035.7218648802,9436.569276424301,0.000316021,-7.5808937203,0.0,0.0,1500,1500,40.0434849113,-88.233328254,40.0436585,-88.2333938333,0.0,0.0,0.0,0.0,0.0,0.0,0.0,0.0,0.0,0.0,0.0,190209,0.0,0.0,0.0,0.0,90.0,90.0,90.0,95.8749313354,96.32057189940001,96.8298721313,44.3690032959,15.0244731903,2.6300001144,0,2,25,1,122,10251
66,1530903735943,932943, RC,0,39.9586186,-88.445067899,0,-18035.7320918949,9438.9465987902,20356.3588341682,-18035.7592818638,9436.7032633043,0.0,0.0,-18035.7218648802,9436.569276424301,0.000316021,-7.5808937203,0.0,0.0,1500,1500,40.0434849113,-88.233328254,40.0436585,-88.2333938333,0.0,0.0,0.0,0.0,0.0,0.0,0.0,0.0,0.0,0.0,0.0,190209,0.0,0.0,0.0,0.0,90.0,90.0,90.0,95.8749313354,96.32057189940001,96.8298721313,43.8320007324,15.0244731903,2.6300001144,0,2,25,1,124,10253
67,1530903735993,932993, RC,0,39.9586186,-88.445067899,0,-18035.732012648,9438.946419756,20356.35868094,-18035.7599073223,9436.7025776026,0.0,0.0,-18035.7217856333,9436.56909739,0.0003029193,-7.5808822953999995,0.0,0.0,1500,1500,40.0434849052,-88.2333282467,40.0436585,-88.2333938333,0.0,0.0,0.0,0.0,0.0,0.0,0.0,0.0,0.0,0.0,0.0,190209,0.0,0.0,0.0,0.0,90.0,90.0,90.0,95.8749313354,96.32057189940001,96.8298721313,43.8320007324,15.0244731903,2.6300001144,0,2,25,1,137,10254
68,1530903736044,933044, RC,0,39.9586186,-88.445067899,0,-18035.732012648,9438.946419756,20356.35868094,-18035.7599073223,9436.7025776026,0.0,0.0,-18035.7217856333,9436.56909739,0.0003029193,-7.5808822953999995,0.0,0.0,1500,1500,40.0434849052,-88.2333282467,40.0436585,-88.2333938333,0.0,0.0,0.0,0.0,0.0,0.0,0.0,0.0,0.0,0.0,0.0,190209,0.0,0.0,0.0,0.0,90.0,90.0,90.0,95.8749313354,96.32057189940001,96.8298721313,43.8320007324,15.0244731903,2.6300001144,0,2,25,1,129,10256
69,1530903736095,933095, RC,0,39.9586186,-88.445067899,0,-18035.732012648,9438.946419756,20356.35868094,-18035.760277709498,9436.701502718399,0.0,0.0,-18035.7217856333,9436.56909739,0.0003029193,-7.5808822953999995,0.0,0.0,1500,1500,40.0434848955,-88.23332824229999,40.0436585,-88.2333938333,0.0,0.0,0.0,0.0,0.0,0.0,0.0,0.0,0.0,0.0,0.0,190210,0.0,0.0,0.0,0.0,90.0,90.0,90.0,95.8749313354,96.32057189940001,96.8298721313,43.8320007324,15.0244731903,2.6300001144,0,2,25,1,119,10258
70,1530903736145,933145, RC,0,39.9586186,-88.445067899,0,-18035.732006571103,9438.9462288814,20356.3585870501,-18035.760277709498,9436.701502718399,0.0,0.0,-18035.7217795564,9436.5689065155,0.00035061339999999997,-7.5808703571,0.0,0.0,1500,1500,40.0434848955,-88.23332824229999,40.0436585,-88.2333938333,0.0,0.0,0.0,0.0,0.0,0.0,0.0,0.0,0.0,0.0,0.0,190210,0.0,0.0,0.0,0.0,90.0,90.0,90.0,95.8749313354,96.32057189940001,96.8298721313,43.8320007324,15.0244731903,2.6300001144,0,2,25,1,131,10260
71,1530903736196,933196, RC,0,39.9586186,-88.445067899,0,-18035.731962113998,9438.9460254162,20356.3584533172,-18035.760150006998,9436.7014471207,0.0,0.0,-18035.721735099298,9436.5687030503,0.00037793239999999996,-7.5808578934,0.0,0.0,1500,1500,40.043484895,-88.23332824379999,40.0436585,-88.2333938333,0.0,0.0,0.0,0.0,0.0,0.0,0.0,0.0,0.0,0.0,0.0,190210,0.0,0.0,0.0,0.0,90.0,90.0,90.0,95.8749313354,96.32057189940001,96.8298721313,43.8320007324,15.0244731903,2.6300001144,0,2,25,1,129,10262
72,1530903736246,933246, RC,0,39.9586186,-88.445067899,0,-18035.731962113998,9438.9460254162,20356.3584533172,-18035.7582197035,9436.7010950032,0.0001,0.0,-18035.721735099298,9436.5687030503,0.00037793239999999996,-7.5808578934,0.0,0.0,1500,1500,40.0434848918,-88.2333282665,40.0436585,-88.2333938333,0.0,0.0,0.0,0.0,0.0,0.0,0.0,0.0,0.0,0.0,0.0,190210,0.0,0.0,0.0,0.0,90.0,90.0,90.0,95.8749313354,96.32057189940001,96.8298721313,43.8320007324,15.0244731903,2.6300001144,0,2,25,1,136,10263
73,1530903736297,933297, RC,0,39.9586186,-88.445067899,0,-18035.7318883513,9438.9457242106,20356.3582482988,-18035.7582197035,9436.7010950032,0.0,0.0,-18035.7216613366,9436.5684018447,0.0003896245,-7.5808663222,0.0,0.0,1500,1500,40.0434848918,-88.2333282665,40.0436585,-88.2333938333,0.0,0.0,0.0,0.0,0.0,0.0,0.0,0.0,0.0,0.0,0.0,190210,0.0,0.0,0.0,0.0,90.0,90.0,90.0,95.8749313354,96.32057189940001,96.8298721313,43.8320007324,15.0244731903,2.6300001144,0,2,25,1,124,10265
74,1530903736347,933347, RC,0,39.9586186,-88.445067899,0,-18035.7318883513,9438.9457242106,20356.3582482988,-18035.7582197035,9436.7010950032,0.0,0.0,-18035.7216613366,9436.5684018447,0.0003896245,-7.5808663222,0.0,0.0,1500,1500,40.0434848918,-88.2333282665,40.0436585,-88.2333938333,0.0,0.0,0.0,0.0,0.0,0.0,0.0,0.0,0.0,0.0,0.0,190210,0.0,0.0,0.0,0.0,90.0,90.0,90.0,95.8749313354,96.32057189940001,96.8298721313,42.7559967041,15.0244731903,2.6300001144,0,2,25,1,134,10267
75,1530903736398,933398, RC,0,39.9586186,-88.445067899,0,-18035.73191287,9438.9454882985,20356.3581606334,-18035.7600082176,9436.7012988608,0.0,0.0,-18035.7216858553,9436.5681659326,0.0003843231,-7.580862305,0.0,0.0,1500,1500,40.0434848937,-88.23332824549999,40.0436491667,-88.2333921667,0.0,0.0,0.0,0.0,0.0,0.0,0.0,0.0,0.0,0.0,0.0,190210,0.0,0.0,0.0,0.0,90.0,90.0,90.0,95.8749313354,96.32057189940001,96.8298721313,42.7559967041,15.0244731903,2.6300001144,0,2,25,1,125,10269
76,1530903736448,933448, RC,0,39.9586186,-88.445067899,0,-18035.73191287,9438.9454882985,20356.3581606334,-18035.7600082176,9436.7012988608,0.0,0.0,-18035.7216858553,9436.5681659326,0.0003843231,-7.580862305,0.0,0.0,1500,1500,40.0434848937,-88.23332824549999,40.0436491667,-88.2333921667,0.0,0.0,0.0,0.0,0.0,0.0,0.0,0.0,0.0,0.0,0.0,190210,0.0,0.0,0.0,0.0,90.0,90.0,90.0,95.8749313354,96.32057189940001,96.8298721313,44.3690032959,15.0244731903,2.6300001144,0,2,25,1,116,10271
77,1530903736498,933498, RC,0,39.9586186,-88.445067899,0,-18035.73191287,9438.9454882985,20356.3581606334,-18035.7587850982,9436.7031706414,0.0,0.0,-18035.7216858553,9436.5681659326,0.0003843231,-7.580862305,0.0,0.0,1500,1500,40.0434849105,-88.23332825979999,40.0436491667,-88.2333921667,0.0,0.0,0.0,0.0,0.0,0.0,0.0,0.0,0.0,0.0,0.0,190210,0.0,0.0,0.0,0.0,90.0,90.0,90.0,95.8749313354,96.32057189940001,96.8298721313,44.3690032959,15.0244731903,2.6300001144,0,2,25,1,114,10272
78,1530903736549,933549, RC,0,39.9586186,-88.445067899,0,-18035.7318463376,9438.9454271176,20356.3580733171,-18035.7587850982,9436.7031706414,0.0,0.0,-18035.7216193229,9436.568104751701,0.0003433489,-7.5808666367,0.0,0.0,1500,1500,40.0434849105,-88.23332825979999,40.0436491667,-88.2333921667,0.0,0.0,0.0,0.0,0.0,0.0,0.0,0.0,0.0,0.0,0.0,190210,0.0,0.0,0.0,0.0,90.0,90.0,90.0,95.8749313354,96.19325256350001,96.8298721313,43.8320007324,15.0244731903,2.6300001144,0,2,25,1,117,10274
79,1530903736599,933599, RC,0,39.9586186,-88.445067899,0,-18035.7318540846,9438.9453722295,20356.3580547301,-18035.7594808357,9436.70307798,0.0,0.0,-18035.7216270699,9436.5680498636,0.000304791,-7.580868478099999,0.0,0.0,1500,1500,40.0434849097,-88.2333282517,40.0436491667,-88.2333921667,0.0,0.0,0.0,0.0,0.0,0.0,0.0,0.0,0.0,0.0,0.0,190210,0.0,0.0,0.0,0.0,90.0,90.0,90.0,95.8749313354,96.19325256350001,96.8298721313,43.8320007324,15.0244731903,2.6300001144,0,2,25,1,127,10276
80,1530903736650,933650, RC,0,39.9586186,-88.445067899,0,-18035.7318540846,9438.9453722295,20356.3580547301,-18035.7594808357,9436.70307798,0.0,0.0,-18035.7216270699,9436.5680498636,0.000304791,-7.580868478099999,0.0,0.0,1500,1500,40.0434849097,-88.2333282517,40.0436491667,-88.2333921667,0.0,0.0,0.0,0.0,0.0,0.0,0.0,0.0,0.0,0.0,0.0,190210,0.0,0.0,0.0,0.0,90.0,90.0,90.0,95.8749313354,96.19325256350001,96.8298721313,44.3690032959,15.033207893399998,2.7999999523000003,0,2,25,1,120,10278
81,1530903736702,933702, RC,0,39.9586186,-88.445067899,0,-18035.73177629,9438.9452788644,20356.3579425121,-18035.7592834046,9436.7019660299,0.0,0.0,-18035.721549275302,9436.5679564985,0.0003076645,-7.580862701699999,0.0,0.0,1500,1500,40.0434848997,-88.233328254,40.0436491667,-88.2333921667,0.0,0.0,0.0,0.0,0.0,0.0,0.0,0.0,0.0,0.0,0.0,190210,0.0,0.0,0.0,0.0,90.0,90.0,90.0,95.8749313354,96.19325256350001,96.8298721313,44.3690032959,15.033207893399998,2.7999999523000003,0,2,25,1,131,10280
82,1530903736752,933752, RC,0,39.9586186,-88.445067899,0,-18035.73177629,9438.9452788644,20356.3579425121,-18035.7582762234,9436.7013173927,0.0,0.0,-18035.721549275302,9436.5679564985,0.0003076645,-7.580862701699999,0.0,0.0,1500,1500,40.0434848938,-88.2333282658,40.0436491667,-88.2333921667,0.0,0.0,0.0,0.0,0.0,0.0,0.0,0.0,0.0,0.0,0.0,190210,0.0,0.0,0.0,0.0,90.0,90.0,90.0,95.8749313354,96.19325256350001,96.8298721313,44.3690032959,15.033207893399998,2.7999999523000003,0,2,25,1,142,10282
83,1530903736803,933803, RC,0,39.9586186,-88.445067899,0,-18035.7317261865,9438.945064363399,20356.3577986594,-18035.7582762234,9436.7013173927,0.0,0.0,-18035.7214991718,9436.5677419975,0.0003000062,-7.5808711925,0.0,0.0,1500,1500,40.0434848938,-88.2333282658,40.0436491667,-88.2333921667,0.0,0.0,0.0,0.0,0.0,0.0,0.0,0.0,0.0,0.0,0.0,190210,0.0,0.0,0.0,0.0,90.0,90.0,90.0,95.8749313354,96.12958526610001,96.8298721313,44.3690032959,15.033207893399998,2.7999999523000003,0,2,25,1,142,10283
84,1530903736853,933853, RC,0,39.9586186,-88.445067899,0,-18035.7317261865,9438.945064363399,20356.3577986594,-18035.758758441898,9436.701706576,0.0,0.0,-18035.7214991718,9436.5677419975,0.0003000062,-7.5808711925,0.0,0.0,1500,1500,40.0434848973,-88.23332826020001,40.0436491667,-88.2333921667,0.0,0.0,0.0,0.0,0.0,0.0,0.0,0.0,0.0,0.0,0.0,190210,0.0,0.0,0.0,0.0,90.0,90.0,90.0,95.8749313354,96.00226593020001,96.8298721313,44.3690032959,15.033207893399998,2.7999999523000003,0,2,25,1,138,10285
85,1530903736904,933904, RC,0,39.9586186,-88.445067899,0,-18035.7316624517,9438.9449534371,20356.3576907554,-18035.758758441898,9436.701706576,0.0,0.0,-18035.721435437,9436.5676310712,0.0002990352,-7.5808715224,0.0,0.0,1500,1500,40.0434848973,-88.23332826020001,40.0436491667,-88.2333921667,0.0,0.0,0.0,0.0,0.0,0.0,0.0,0.0,0.0,0.0,0.0,190210,0.0,0.0,0.0,0.0,90.0,90.0,90.0,95.8749313354,96.00226593020001,96.8298721313,43.8320007324,15.033207893399998,2.7999999523000003,0,2,25,1,142,10287
86,1530903736954,933954, RC,0,39.9586186,-88.445067899,0,-18035.7316624517,9438.9449534371,20356.3576907554,-18035.758758441898,9436.701706576,0.0,0.0,-18035.721435437,9436.5676310712,0.0002990352,-7.5808715224,0.0,0.0,1500,1500,40.0434848973,-88.23332826020001,40.0436491667,-88.2333921667,0.0,0.0,0.0,0.0,0.0,0.0,0.0,0.0,0.0,0.0,0.0,190210,0.0,0.0,0.0,0.0,90.0,90.0,90.0,95.8749313354,96.00226593020001,96.8298721313,43.8320007324,15.033207893399998,2.7999999523000003,0,2,25,1,138,10289
87,1530903737005,934005, RC,0,39.9586186,-88.445067899,0,-18035.731688625,9438.9447489023,20356.3576191052,-18035.7598811095,9436.7007428865,0.0,0.0,-18035.7214616103,9436.5674265364,0.0002936279,-7.5808661565,0.0,0.0,1500,1500,40.0434848887,-88.233328247,40.0436491667,-88.2333921667,0.0,0.0,0.0,0.0,0.0,0.0,0.0,0.0,0.0,0.0,0.0,190210,0.0,0.0,0.0,0.0,90.0,90.0,90.0,95.8749313354,96.00226593020001,96.8298721313,43.8320007324,15.033207893399998,2.7999999523000003,0,2,25,1,132,10291
88,1530903737055,934055, RC,0,39.9586186,-88.445067899,0,-18035.731688625,9438.9447489023,20356.3576191052,-18035.7598811095,9436.7007428865,0.0,0.0,-18035.7214616103,9436.5674265364,0.0002936279,-7.5808661565,0.0,0.0,1500,1500,40.0434848887,-88.233328247,40.0436491667,-88.2333921667,0.0,0.0,0.0,0.0,0.0,0.0,0.0,0.0,0.0,0.0,0.0,190210,0.0,0.0,0.0,0.0,90.0,90.0,90.0,95.8749313354,96.00226593020001,96.8298721313,44.3690032959,15.033207893399998,2.7999999523000003,0,2,25,1,132,10292
89,1530903737105,934105, RC,0,39.9586186,-88.445067899,0,-18035.731688625,9438.9447489023,20356.3576191052,-18035.7598811095,9436.7007428865,0.0,0.0,-18035.7214616103,9436.5674265364,0.0002936279,-7.5808661565,0.0,0.0,1500,1500,40.0434848887,-88.233328247,40.0436491667,-88.2333921667,0.0,0.0,0.0,0.0,0.0,0.0,0.0,0.0,0.0,0.0,0.0,190210,0.0,0.0,0.0,0.0,90.0,90.0,90.0,95.8749313354,96.00226593020001,96.8298721313,44.3690032959,15.033207893399998,2.7999999523000003,0,2,25,1,137,10294
90,1530903737156,934156, RC,0,39.9586186,-88.445067899,0,-18035.7316251701,9438.9446406431,20356.357512686,-18035.7591706917,9436.7012432631,0.0,0.0,-18035.7213981554,9436.567318277199,0.00029579680000000003,-7.5808612729,0.0,0.0,1500,1500,40.0434848932,-88.23332825530001,40.0436491667,-88.2333921667,0.0,0.0,0.0,0.0,0.0,0.0,0.0,0.0,0.0,0.0,0.0,190211,0.0,0.0,0.0,0.0,90.0,90.0,90.0,95.8749313354,96.00226593020001,96.8298721313,44.3690032959,15.033207893399998,2.7999999523000003,0,2,25,1,141,10296
91,1530903737206,934206, RC,0,39.9586186,-88.445067899,0,-18035.7316333895,9438.9443107402,20356.3573669973,-18035.7587895226,9436.6994456121,0.0,0.0,-18035.7214063748,9436.566988374301,0.0003027607,-7.5808665989,0.0,0.0,1500,1500,40.043484877,-88.23332825979999,40.0436491667,-88.2333921667,0.0,0.0,0.0,0.0,0.0,0.0,0.0,0.0,0.0,0.0,0.0,190211,0.0,0.0,0.0,0.0,90.0,90.0,90.0,95.8749313354,96.00226593020001,96.8298721313,44.3690032959,15.033207893399998,2.7999999523000003,0,2,25,1,140,10298
92,1530903737257,934257, RC,0,39.9586186,-88.445067899,0,-18035.7317157069,9438.943997876899,20356.3572948602,-18035.758832661002,9436.6989822999,0.0,0.0,-18035.7214886922,9436.566675511,0.00034218620000000003,-7.580876860499999,0.0,0.0,1500,1500,40.0434848728,-88.23332825930001,40.0436491667,-88.2333921667,0.0,0.0,0.0,0.0,0.0,0.0,0.0,0.0,0.0,0.0,0.0,190211,0.0,0.0,0.0,0.0,90.0,90.0,90.0,95.8749313354,96.00226593020001,96.8298721313,43.8320007324,15.033207893399998,2.7999999523000003,0,2,25,1,141,10299
93,1530903737316,934316, RC,0,39.9586186,-88.445067899,0,-18035.7317157069,9438.943997876899,20356.3572948602,-18035.758832661002,9436.6989822999,0.0,0.0,-18035.7214886922,9436.566675511,0.00034218620000000003,-7.580876860499999,0.0,0.0,1500,1500,40.0434848728,-88.23332825930001,40.0436491667,-88.2333921667,0.0,0.0,0.0,0.0,0.0,0.0,0.0,0.0,0.0,0.0,0.0,190211,0.0,0.0,0.0,0.0,90.0,90.0,90.0,95.8749313354,96.00226593020001,96.8298721313,43.8320007324,15.033207893399998,2.7999999523000003,0,2,25,1,140,10301
94,1530903737366,934366, RC,0,39.9586186,-88.445067899,0,-18035.7317157069,9438.943997876899,20356.3572948602,-18035.7586133957,9436.7043011241,0.0001,0.0,-18035.7214886922,9436.566675511,0.00034218620000000003,-7.580876860499999,0.0,0.0,1500,1500,40.0434849207,-88.2333282618,40.0436491667,-88.2333921667,0.0,0.0,0.0,0.0,0.0,0.0,0.0,0.0,0.0,0.0,0.0,190211,0.0,0.0,0.0,0.0,90.0,90.0,90.0,95.8749313354,96.00226593020001,96.8298721313,43.8320007324,15.033207893399998,2.7999999523000003,0,2,25,1,133,10303
95,1530903737416,934416, RC,0,39.9586186,-88.445067899,0,-18035.7316792002,9438.9441377156,20356.357327356498,-18035.7586133957,9436.7043011241,0.0,0.0,-18035.721452185502,9436.566815349699,0.0002387955,-7.5808859355,0.0,0.0,1500,1500,40.0434849207,-88.2333282618,40.0436481667,-88.2333915,0.0,0.0,0.0,0.0,0.0,0.0,0.0,0.0,0.0,0.0,0.0,190211,0.0,0.0,0.0,0.0,90.0,90.0,90.0,95.8749313354,96.00226593020001,96.8298721313,43.8320007324,15.033207893399998,2.7999999523000003,0,2,25,1,141,10305
96,1530903737467,934467, RC,0,39.9586186,-88.445067899,0,-18035.7316792002,9438.9441377156,20356.357327356498,-18035.7586995876,9436.70344863,0.0,0.0,-18035.721452185502,9436.566815349699,0.0002387955,-7.5808859355,0.0,0.0,1500,1500,40.043484913,-88.2333282608,40.0436481667,-88.2333915,0.0,0.0,0.0,0.0,0.0,0.0,0.0,0.0,0.0,0.0,0.0,190211,0.0,0.0,0.0,0.0,90.0,90.0,90.0,95.8749313354,96.00226593020001,96.8298721313,43.8320007324,15.033207893399998,2.7999999523000003,0,2,25,1,145,10307
97,1530903737517,934517, RC,0,39.9586186,-88.445067899,0,-18035.731651184098,9438.9441773673,20356.3573209201,-18035.7586995876,9436.70344863,0.0,0.0,-18035.7214241694,9436.5668550014,0.00014169819999999998,-7.5808935314,0.0,0.0,1500,1500,40.043484913,-88.2333282608,40.0436481667,-88.2333915,0.0,0.0,0.0,0.0,0.0,0.0,0.0,0.0,0.0,0.0,0.0,190211,0.0,0.0,0.0,0.0,90.0,90.0,90.0,95.8749313354,96.00226593020001,96.8298721313,43.8320007324,15.033207893399998,2.7999999523000003,0,2,25,1,142,10308
98,1530903737568,934568, RC,0,39.9586186,-88.445067899,0,-18035.7315164793,9438.9442290482,20356.3572255353,-18035.7576636401,9436.7031150444,0.0,0.0,-18035.7212894646,9436.5669066823,7.896739999999999e-05,-7.5809016643,0.0,0.0,1500,1500,40.04348491,-88.233328273,40.0436481667,-88.2333915,0.0,0.0,0.0,0.0,0.0,0.0,0.0,0.0,0.0,0.0,0.0,190211,0.0,0.0,0.0,0.0,90.0,90.0,90.0,95.8749313354,96.00226593020001,96.8298721313,43.8320007324,15.033207893399998,2.7999999523000003,0,2,25,1,135,10310
99,1530903737619,934619, RC,0,39.9586186,-88.445067899,0,-18035.7315164793,9438.9442290482,20356.3572255353,-18035.7576636401,9436.7031150444,0.0,0.0,-18035.7212894646,9436.5669066823,7.896739999999999e-05,-7.5809016643,0.0,0.0,1500,1500,40.04348491,-88.233328273,40.0436481667,-88.2333915,0.0,0.0,0.0,0.0,0.0,0.0,0.0,0.0,0.0,0.0,0.0,190211,0.0,0.0,0.0,0.0,90.0,90.0,90.0,95.8749313354,96.00226593020001,96.8298721313,43.293998718299996,15.0502414703,2.75,0,2,25,1,142,10312
100,1530903737669,934669, RC,0,39.9586186,-88.445067899,0,-18035.7314525144,9438.9442195689,20356.3571644671,-18035.759269913,9436.7013729911,0.0,0.0,-18035.7212254997,9436.566897203,8.42233e-05,-7.5808920676,0.0,0.0,1500,1500,40.0434848943,-88.2333282542,40.0436481667,-88.2333915,0.0,0.0,0.0,0.0,0.0,0.0,0.0,0.0,0.0,0.0,0.0,190211,0.0,0.0,0.0,0.0,90.0,90.0,90.0,95.8749313354,96.00226593020001,96.8298721313,43.293998718299996,15.0502414703,2.75,0,2,25,1,131,10314
101,1530903737730,934730, RC,0,39.9586186,-88.445067899,0,-18035.7314525144,9438.9442195689,20356.3571644671,-18035.759269913,9436.7013729911,0.0,0.0,-18035.7212254997,9436.566897203,8.42233e-05,-7.5808920676,0.0,0.0,1500,1500,40.0434848943,-88.2333282542,40.0436481667,-88.2333915,0.0,0.0,0.0,0.0,0.0,0.0,0.0,0.0,0.0,0.0,0.0,190211,0.0,0.0,0.0,0.0,90.0,90.0,90.0,95.8749313354,96.00226593020001,96.8298721313,43.8320007324,15.0502414703,2.75,0,2,25,1,145,10316
102,1530903737780,934780, RC,0,39.9586186,-88.445067899,0,-18035.7313486397,9438.944225699599,20356.3570752769,-18035.758503058998,9436.701576848,0.0,0.0,-18035.721121625,9436.5669033337,9.13776e-05,-7.580887385,0.0,0.0,1500,1500,40.0434848962,-88.2333282632,40.0436481667,-88.2333915,0.0,0.0,0.0,0.0,0.0,0.0,0.0,0.0,0.0,0.0,0.0,190211,0.0,0.0,0.0,0.0,90.0,90.0,90.0,95.8749313354,96.00226593020001,96.8298721313,43.8320007324,15.0502414703,2.75,0,2,25,1,147,10317
103,1530903737830,934830, RC,0,39.9586186,-88.445067899,0,-18035.7313486397,9438.944225699599,20356.3570752769,-18035.758503058998,9436.701576848,0.0,0.0,-18035.721121625,9436.5669033337,9.13776e-05,-7.580887385,0.0,0.0,1500,1500,40.0434848962,-88.2333282632,40.0436481667,-88.2333915,0.0,0.0,0.0,0.0,0.0,0.0,0.0,0.0,0.0,0.0,0.0,190211,0.0,0.0,0.0,0.0,90.0,90.0,90.0,95.8749313354,96.00226593020001,96.8298721313,43.8320007324,15.0502414703,2.75,0,2,25,1,139,10319
104,1530903737881,934881, RC,0,39.9586186,-88.445067899,0,-18035.7313486397,9438.944225699599,20356.3570752769,-18035.757636921,9436.701706576,0.0,0.0,-18035.721121625,9436.5669033337,9.13776e-05,-7.580887385,0.0,0.0,1500,1500,40.0434848973,-88.2333282733,40.0436481667,-88.2333915,0.0,0.0,0.0,0.0,0.0,0.0,0.0,0.0,0.0,0.0,0.0,190211,0.0,0.0,0.0,0.0,90.0,90.0,90.0,95.8749313354,96.00226593020001,96.8298721313,43.8320007324,15.0502414703,2.75,0,2,25,1,133,10321
105,1530903737931,934931, RC,0,39.9586186,-88.445067899,0,-18035.7313097767,9438.9442527101,20356.3570533685,-18035.757893249298,9436.7010394062,0.0001,0.0,-18035.721082762,9436.566930344201,0.00012934370000000002,-7.5808972932000005,0.0,0.0,1500,1500,40.043484891300004,-88.2333282703,40.0436481667,-88.2333915,0.0,0.0,0.0,0.0,0.0,0.0,0.0,0.0,0.0,0.0,0.0,190211,0.0,0.0,0.0,0.0,90.0,90.0,90.0,95.8749313354,96.00226593020001,96.8298721313,43.8320007324,15.0502414703,2.75,0,2,25,1,132,10322
106,1530903737982,934982, RC,0,39.9586186,-88.445067899,0,-18035.7311745572,9438.9442267237,20356.356921514598,-18035.757893249298,9436.7010394062,0.0,0.0,-18035.7209475425,9436.5669043578,0.0001633159,-7.580893924400001,0.0,0.0,1500,1500,40.043484891300004,-88.2333282703,40.0436481667,-88.2333915,0.0,0.0,0.0,0.0,0.0,0.0,0.0,0.0,0.0,0.0,0.0,190211,0.0,0.0,0.0,0.0,90.0,90.0,90.0,95.8749313354,96.00226593020001,96.8298721313,43.8320007324,15.0502414703,2.75,0,2,25,1,121,10324
107,1530903738032,935032, RC,0,39.9586186,-88.445067899,0,-18035.7311745572,9438.9442267237,20356.356921514598,-18035.757893249298,9436.7010394062,0.0,0.0,-18035.7209475425,9436.5669043578,0.0001633159,-7.580893924400001,0.0,0.0,1500,1500,40.043484891300004,-88.2333282703,40.0436481667,-88.2333915,0.0,0.0,0.0,0.0,0.0,0.0,0.0,0.0,0.0,0.0,0.0,190211,0.0,0.0,0.0,0.0,90.0,90.0,90.0,95.8749313354,96.00226593020001,96.8298721313,43.8320007324,15.0502414703,2.75,0,2,25,1,128,10326
108,1530903738083,935083, RC,0,39.9586186,-88.445067899,0,-18035.7311745572,9438.9442267237,20356.356921514598,-18035.7570260074,9436.7020957579,0.0001,0.0,-18035.7209475425,9436.5669043578,0.0001633159,-7.580893924400001,0.0,0.0,1500,1500,40.043484900799996,-88.23332828049999,40.0436481667,-88.2333915,0.0,0.0,0.0,0.0,0.0,0.0,0.0,0.0,0.0,0.0,0.0,190212,0.0,0.0,0.0,0.0,90.0,90.0,90.0,95.8749313354,96.00226593020001,96.8298721313,43.8320007324,15.0502414703,2.75,0,2,25,1,124,10328
109,1530903738133,935133, RC,0,39.9586186,-88.445067899,0,-18035.7310687445,9438.9441715135,20356.3568021644,-18035.7570260074,9436.7020957579,0.0,0.0,-18035.7208417298,9436.5668491476,0.00012142139999999999,-7.580905666900001,0.0,0.0,1500,1500,40.043484900799996,-88.23332828049999,40.0436481667,-88.2333915,0.0,0.0,0.0,0.0,0.0,0.0,0.0,0.0,0.0,0.0,0.0,190212,0.0,0.0,0.0,0.0,90.0,90.0,90.0,95.8749313354,96.00226593020001,96.8298721313,43.8320007324,15.0502414703,2.75,0,2,25,1,131,10329
110,1530903738183,935183, RC,0,39.9586186,-88.445067899,0,-18035.7310687445,9438.9441715135,20356.3568021644,-18035.7574108118,9436.7008355486,0.0,0.0,-18035.7208417298,9436.5668491476,0.00012142139999999999,-7.580905666900001,0.0,0.0,1500,1500,40.0434848895,-88.23332827600001,40.0436481667,-88.2333915,0.0,0.0,0.0,0.0,0.0,0.0,0.0,0.0,0.0,0.0,0.0,190212,0.0,0.0,0.0,0.0,90.0,90.0,90.0,95.8749313354,96.00226593020001,96.8298721313,43.8320007324,15.0502414703,2.75,0,2,25,1,122,10331
111,1530903738234,935234, RC,0,39.9586186,-88.445067899,0,-18035.7309410854,9438.944036692099,20356.3566265437,-18035.7574108118,9436.7008355486,0.0,0.0,-18035.7207140707,9436.5667143262,0.0001029009,-7.5809079223,0.0,0.0,1500,1500,40.0434848895,-88.23332827600001,40.0436481667,-88.2333915,0.0,0.0,0.0,0.0,0.0,0.0,0.0,0.0,0.0,0.0,0.0,190212,0.0,0.0,0.0,0.0,90.0,90.0,90.0,95.8749313354,96.00226593020001,96.8298721313,43.8320007324,15.0502414703,2.75,0,2,25,1,135,10333
112,1530903738284,935284, RC,0,39.9586186,-88.445067899,0,-18035.7309410854,9438.944036692099,20356.3566265437,-18035.7591993479,9436.7010208729,0.0,0.0,-18035.7207140707,9436.5667143262,0.0001029009,-7.5809079223,0.0,0.0,1500,1500,40.0434848912,-88.233328255,40.0436481667,-88.2333915,0.0,0.0,0.0,0.0,0.0,0.0,0.0,0.0,0.0,0.0,0.0,190212,0.0,0.0,0.0,0.0,90.0,90.0,90.0,95.8749313354,96.00226593020001,96.8298721313,43.8320007324,15.0502414703,2.75,0,2,25,1,135,10334
113,1530903738335,935335, RC,0,39.9586186,-88.445067899,0,-18035.7309363349,9438.9439809141,20356.3565964714,-18035.7591993479,9436.7010208729,0.0,0.0,-18035.7207093202,9436.5666585482,9.18572e-05,-7.580898358300001,0.0,0.0,1500,1500,40.0434848912,-88.233328255,40.0436481667,-88.2333915,0.0,0.0,0.0,0.0,0.0,0.0,0.0,0.0,0.0,0.0,0.0,190212,0.0,0.0,0.0,0.0,90.0,90.0,90.0,95.8749313354,96.00226593020001,96.8298721313,43.8320007324,15.0502414703,2.75,0,2,25,1,141,10336
114,1530903738385,935385, RC,0,39.9586186,-88.445067899,0,-18035.7309363349,9438.9439809141,20356.3565964714,-18035.7577095971,9436.700279574301,0.0,0.0,-18035.7207093202,9436.5666585482,9.18572e-05,-7.580898358300001,0.0,0.0,1500,1500,40.043484884499996,-88.2333282725,40.0436453333,-88.23339083329999,0.0,0.0,0.0,0.0,0.0,0.0,0.0,0.0,0.0,0.0,0.0,190212,0.0,0.0,0.0,0.0,90.0,90.0,90.0,95.8749313354,96.00226593020001,96.8298721313,43.8320007324,15.0502414703,2.75,0,2,25,1,132,10338
115,1530903738446,935446, RC,0,39.9586186,-88.445067899,0,-18035.7308973318,9438.9439018959,20356.3565252751,-18035.7577095971,9436.700279574301,0.0,0.0,-18035.7206703171,9436.56657953,0.00014028049999999999,-7.5809013619000005,0.0,0.0,1500,1500,40.043484884499996,-88.2333282725,40.0436453333,-88.23339083329999,0.0,0.0,0.0,0.0,0.0,0.0,0.0,0.0,0.0,0.0,0.0,190212,0.0,0.0,0.0,0.0,90.0,90.0,90.0,95.8749313354,96.00226593020001,96.8298721313,43.8320007324,15.0502414703,2.75,0,2,25,1,121,10340
116,1530903738496,935496, RC,0,39.9586186,-88.445067899,0,-18035.7307770998,9438.9442113444,20356.3565622362,-18035.7566521886,9436.70606171,0.0,0.0,-18035.7205500851,9436.5668889785,1.0923599999999998e-05,-7.580917352899999,0.0,0.0,1500,1500,40.0434849365,-88.2333282848,40.0436453333,-88.23339083329999,0.0,0.0,0.0,0.0,0.0,0.0,0.0,0.0,0.0,0.0,0.0,190212,0.0,0.0,0.0,0.0,90.0,90.0,90.0,95.8749313354,96.00226593020001,96.8298721313,43.8320007324,15.0502414703,2.75,0,2,25,1,133,10342
