,(0)linux time (ms),    (1)uptime  (ms),      (2)drive mode,(3)mpc step counter,(4)mpc origin latitude  (deg),(5)mpc origin longitude  (deg),(6)closest trajectory point index to robot,(7)mpc error x (W;E)  (m),(8)mpc error y (W;E)  (m),(9)abs mpc error (m),(10)input [x] for mhe (m),(11)input [y] for mhe (m),(12)input [speed] for mhe (m/s),(13)input [vyaw] for mhe (rad/s),(14)mhe output x  (m),(15)mhe output y  (m),(16)mhe output speed  (m/s),(17)mhe output yaw  (rad),(18)mpc reference heading (rad),(19)mpc turn rate command (rad/s),(20)turn rate command as PWM,(21)throttle command as PWM,(22)primary gps latitude (deg),(23)primary gps longitude (deg),(24)secondary gps latitude  (deg),(25)secondary gps longitude (deg),(26)accelerometer x (m/s^2),(27)accelerometer y (m/s^2),(28)accelerometer z (m/s^2),(29)gyro yaw rate (rad/s),(30)gyro pitch rate   (rad/s),(31)gyro roll rate (rad/s),      (32)yaw (rad),  (33)pitch   (rad),     (34)roll (rad),(35)sonar1 measurement (m),(36)ultrasonic sensor measurement (m),(37)primary gps time (s),(38)normalized turn rate command,(39)normalized throttle command,(40)speed calculation from encoder left (m/s),(41)speed calculation from encoder right (m/s),(42)front gimbal target angle (degrees from straight down),(43)left gimbal target angle  (degrees from straight down),(44)right gimbal target angle  (degrees from straight down),(45)front gimbal measured angle  (degrees from straight down),(46)left gimbal measured angle    (degrees from straight down),(47)right gimbal measured angle  (degrees from straight down),(48)internal temperature (C),(49)battery voltage (V),(50)primary gps type,(51)secondary gps type,    (52)MPC R value, (53)MPC Q[0] value,Unnamed: 54,weed_num,start
0,1530902049989,108989, RC,0,39.9586186,-88.445067899,0,-17854.6276236962,9425.7460630566,20189.908777062,-17854.4222438362,9423.3830377171,0.08470159769999999,0.0,-17854.6173966815,9423.3687406907,0.2574549829,15.743296598299999,0.0,0.0,1500,1500,40.0433651197,-88.235457333,40.04337,-88.2354321667,0.0,0.0,0.0,0.0,0.0,0.0,0.0,0.0,0.0,0.0,0.0,183401,0.0,0.0,0.0384422019,0.13096100089999999,90.0,90.0,90.0,95.174659729,94.9836730957,95.1109924316,25.540000915500002,15.5865688324,33.2099990845,0,2,25,1,65,281
1,1530902050039,109039, RC,0,39.9586186,-88.445067899,0,-17854.6281437286,9425.7496961529,20189.9109330713,-17854.4274258653,9423.382778261801,0.0675957426,0.0,-17854.617916713898,9423.372373786999,0.2310336988,15.7268531436,0.0,0.0,1500,1500,40.0433651173,-88.2354572722,40.04337,-88.2354321667,0.0,0.0,0.0,0.0,0.0,0.0,0.0,0.0,0.0,0.0,0.0,183401,0.0,0.0,0.0299812406,0.10521024470000001,90.0,90.0,90.0,95.04733276370001,94.9200057983,95.1109924316,25.540000915500002,15.5865688324,33.2099990845,0,2,25,1,54,283
2,1530902050090,109090, RC,0,39.9586186,-88.445067899,0,-17854.6281437286,9425.7496961529,20189.9109330713,-17854.4274258653,9423.382778261801,0.0516854525,0.0,-17854.617916713898,9423.372373786999,0.2310336988,15.7268531436,0.0,0.0,1500,1413,40.0433651173,-88.2354572722,40.04337,-88.2354321667,0.0,0.0,0.0,0.0,0.0,0.0,0.0,0.0,0.0,0.0,0.0,183401,0.0,-0.17393100260000002,0.022256012999999998,0.0811148882,90.0,90.0,90.0,95.04733276370001,94.9836730957,95.1109924316,24.4640007019,15.599667549100001,2.2999999523,0,2,25,1,62,285
3,1530902050140,109140, RC,0,39.9586186,-88.445067899,0,-17854.622565459398,9425.7541652404,20189.9080864317,-17854.4192732152,9423.3860585123,0.0089207981,0.0,-17854.6123384447,9423.376842874499,0.2021553468,15.7160697288,0.0,0.0,1500,1413,40.0433651468,-88.23545736780001,40.04337,-88.2354321667,0.0,0.0,0.0,0.0,0.0,0.0,0.0,0.0,0.0,0.0,0.0,183401,0.0,-0.17393100260000002,-0.0163701251,0.0342117213,90.0,90.0,90.0,94.85634613040001,94.9200057983,95.3019790649,24.4640007019,15.599667549100001,2.2999999523,0,2,25,1,61,287
4,1530902050191,109191, RC,0,39.9586186,-88.445067899,0,-17854.622565459398,9425.7541652404,20189.9080864317,-17854.4161268428,9423.3815921836,0.0455236621,0.0,-17854.6123384447,9423.376842874499,0.2021553468,15.7160697288,0.0,0.0,1500,1413,40.0433651067,-88.2354574048,40.04337,-88.2354321667,0.0,0.0,0.0,0.0,0.0,0.0,0.0,0.0,0.0,0.0,0.0,183401,0.0,-0.17393100260000002,-0.0645608306,-0.026486493599999997,90.0,90.0,90.0,94.729019165,94.9836730957,95.3019790649,25.540000915500002,15.599667549100001,2.2999999523,0,2,25,1,59,290
5,1530902050241,109241, RC,0,39.9586186,-88.445067899,0,-17854.61761667,9425.7567146195,20189.9049002391,-17854.4161268428,9423.3815921836,0.0729298294,0.0,-17854.6073896553,9423.3793922536,0.1836743816,15.7100141467,0.0,0.0,1500,1413,40.0433651067,-88.2354574048,40.04337,-88.2354321667,0.0,0.0,0.0,0.0,0.0,0.0,0.0,0.0,0.0,0.0,0.0,183401,0.0,-0.17393100260000002,-0.0910473317,-0.054812327,90.0,90.0,90.0,94.85634613040001,94.9836730957,95.3019790649,25.540000915500002,15.599667549100001,2.2999999523,0,2,25,1,55,292
6,1530902050292,109292, RC,0,39.9586186,-88.445067899,0,-17854.61761667,9425.7567146195,20189.9049002391,-17854.405812533798,9423.388097086,0.09500190619999999,0.0,-17854.6073896553,9423.3793922536,0.1836743816,15.7100141467,0.0,0.0,1500,1027,40.0433651652,-88.2354575258,40.04337,-88.2354321667,0.0,0.0,0.0,0.0,0.0,0.0,0.0,0.0,0.0,0.0,0.0,183401,0.0,-0.9455890059000001,-0.1105443314,-0.0794594809,90.0,90.0,90.0,95.1109924316,94.85634613040001,95.55662536620001,25.540000915500002,15.599667549100001,2.2999999523,0,2,25,1,52,294
7,1530902050342,109342, RC,0,39.9586186,-88.445067899,0,-17854.6136554668,9425.7587054808,20189.9023266565,-17854.405812533798,9423.388097086,0.1588270068,0.0,-17854.6034284521,9423.3813831149,0.17302393859999998,15.7043443886,0.0,0.0,1500,1027,40.0433651652,-88.2354575258,40.04337,-88.2354321667,0.0,0.0,0.0,0.0,0.0,0.0,0.0,0.0,0.0,0.0,0.0,183401,0.0,-0.9455890059000001,-0.1684835255,-0.14917047320000001,90.0,90.0,90.0,95.42930603030001,94.6016998291,96.12958526610001,25.540000915500002,15.599667549100001,2.2999999523,0,2,25,1,50,296
8,1530902050393,109393, RC,0,39.9586186,-88.445067899,0,-17854.6136554668,9425.7587054808,20189.9023266565,-17854.4002229473,9423.384835368199,0.2924550474,0.0,-17854.6034284521,9423.3813831149,0.17302393859999998,15.7043443886,0.0,0.0,1500,1000,40.0433651358,-88.2354575915,40.04337,-88.2354321667,0.0,0.0,0.0,0.0,0.0,0.0,0.0,0.0,0.0,0.0,0.0,183401,0.0,-1.0,-0.3152628839,-0.2696472108,90.0,90.0,90.0,95.6839523315,94.4107131958,96.3842315674,25.540000915500002,15.599667549100001,2.2999999523,0,2,25,1,60,299
9,1530902050443,109443, RC,0,39.9586186,-88.445067899,0,-17854.6145335855,9425.760335729201,20189.9038642964,-17854.4002229473,9423.384835368199,0.3853417039,0.0,-17854.6043065708,9423.3830133633,0.1773450493,15.6998816673,0.0,0.0,1500,1000,40.0433651358,-88.2354575915,40.04337,-88.2354321667,0.0,0.0,0.0,0.0,0.0,0.0,0.0,0.0,0.0,0.0,0.0,183401,0.0,-1.0,-0.3998725116,-0.37081092600000004,90.0,90.0,90.0,96.12958526610001,92.81916046139999,97.7847976685,25.540000915500002,15.599667549100001,2.2999999523,0,2,25,1,56,302
10,1530902050493,109493, RC,0,39.9586186,-88.445067899,0,-17854.6184305791,9425.7614802969,20189.9078448869,-17854.3943494719,9423.3815365852,0.5047148466,0.0,-17854.6082035644,9423.384157931,0.1921794643,15.696866058900001,0.0,0.0,1500,1000,40.0433651062,-88.23545766049999,40.04337,-88.2354321667,0.0,0.0,0.0,0.0,0.0,0.0,0.0,0.0,0.0,0.0,0.0,183401,0.0,-1.0,-0.5238440037,-0.48558574909999996,90.0,90.0,90.0,97.46648406979999,91.73690795899999,99.0580368042,25.540000915500002,15.599667549100001,2.2999999523,0,2,25,1,59,305
11,1530902050544,109544, RC,0,39.9586186,-88.445067899,0,-17854.6184305791,9425.7614802969,20189.9078448869,-17854.3943494719,9423.3815365852,0.584266305,0.0,-17854.6082035644,9423.384157931,0.1921794643,15.696866058900001,0.0,0.0,1500,1000,40.0433651062,-88.23545766049999,40.04337,-88.2354321667,0.0,0.0,0.0,0.0,0.0,0.0,0.0,0.0,0.0,0.0,0.0,183401,0.0,-1.0,-0.6110286713,-0.5575039386999999,90.0,90.0,90.0,97.46648406979999,92.9464874268,98.8033828735,25.540000915500002,15.599667549100001,2.2999999523,0,2,25,1,58,308
12,1530902050594,109594, RC,0,39.9586186,-88.445067899,0,-17854.6184305791,9425.7614802969,20189.9078448869,-17854.3943494719,9423.3815365852,0.6914998293000001,0.0,-17854.6082035644,9423.384157931,0.1921794643,15.696866058900001,0.0,0.0,1500,1000,40.0433651062,-88.23545766049999,40.04337,-88.2354321667,0.0,0.0,0.0,0.0,0.0,0.0,0.0,0.0,0.0,0.0,0.0,183401,0.0,-1.0,-0.7335287333,-0.6494709253000001,90.0,90.0,90.0,96.5752182007,97.53015136719999,95.3019790649,25.540000915500002,15.599667549100001,2.2999999523,0,2,25,1,24,311
13,1530902050645,109645, RC,0,39.9586186,-88.445067899,0,-17854.6184305791,9425.7614802969,20189.9078448869,-17854.3441426305,9423.3762733587,0.7460362911,0.0,-17854.6082035644,9423.384157931,0.1921794643,15.696866058900001,0.0,0.0,1500,1000,40.0433650588,-88.23545825,40.04337,-88.2354321667,0.0,0.0,0.0,0.0,0.0,0.0,0.0,0.0,0.0,0.0,0.0,183402,0.0,-1.0,-0.7947787642,-0.6972937584000001,90.0,90.0,90.0,95.1109924316,99.3763504028,93.328453064,25.540000915500002,15.599667549100001,2.2999999523,0,2,25,1,27,313
14,1530902050696,109696, RC,0,39.9586186,-88.445067899,0,-17854.6243831754,9425.7616918975,20189.9132077561,-17854.3441426305,9423.3762733587,0.829082489,0.0,-17854.6141561607,9423.3843695316,0.2231108963,15.6944585851,0.0,0.0,1500,1000,40.0433650588,-88.23545825,40.04337,-88.2354321667,0.0,0.0,0.0,0.0,0.0,0.0,0.0,0.0,0.0,0.0,0.0,183402,0.0,-1.0,-0.8689041734,-0.789260745,90.0,90.0,90.0,92.88282775879999,97.91212463379999,93.5194396973,25.540000915500002,15.599667549100001,2.2999999523,0,2,25,1,65,316
15,1530902050746,109746, RC,0,39.9586186,-88.445067899,0,-17854.6260467944,9425.766411258,20189.9168822081,-17854.2656986589,9423.4195467183,0.8849984406999999,0.0,-17854.6158197797,9423.3890888921,0.2537704079,15.682551475699999,0.0,0.0,1500,1000,40.043365448,-88.2354591703,40.04337,-88.2354321667,0.0,0.0,0.0,0.0,0.0,0.0,0.0,0.0,0.0,0.0,0.0,183402,0.0,-1.0,-0.9137840867,-0.8562127352,90.0,90.0,90.0,91.9279022217,91.9279022217,96.2569046021,25.0019989014,15.599667549100001,2.2999999523,0,2,25,1,63,318
16,1530902050797,109797, RC,0,39.9586186,-88.445067899,0,-17854.6215245217,9425.7748856612,20189.9168393303,-17854.165975165,9423.4257180365,0.9034837484,0.0,-17854.611297507,9423.3975632953,0.2877147096,15.661188653499998,0.0,0.0,1500,1500,40.0433655035,-88.235460341,40.04337,-88.2354321667,0.0,0.0,0.0,0.0,0.0,0.0,0.0,0.0,0.0,0.0,0.0,183402,0.0,0.0,-0.9152555466,-0.8917120099,90.0,90.0,90.0,96.2569046021,91.9915542603,96.5752182007,25.540000915500002,15.599667549100001,2.2999999523,0,2,25,1,49,320
17,1530902050847,109847, RC,0,39.9586186,-88.445067899,0,-17854.6215245217,9425.7748856612,20189.9168393303,-17854.165975165,9423.4257180365,0.7731665373000001,0.0,-17854.611297507,9423.3975632953,0.2877147096,15.661188653499998,0.0,0.0,1500,1500,40.0433655035,-88.235460341,40.04337,-88.2354321667,0.0,0.0,0.0,0.0,0.0,0.0,0.0,0.0,0.0,0.0,0.0,183402,0.0,0.0,-0.7807998061,-0.7655332684999999,90.0,90.0,90.0,100.8405685425,92.0552215576,96.76620483399999,25.540000915500002,15.599667549100001,2.2999999523,0,2,25,1,24,323
18,1530902050898,109898, RC,0,39.9586186,-88.445067899,0,-17854.6215245217,9425.7748856612,20189.9168393303,-17854.082940593402,9423.4371340487,0.6037633419,0.0,-17854.611297507,9423.3975632953,0.2877147096,15.661188653499998,0.0,0.0,1430,1500,40.0433656062,-88.2354613157,40.04337,-88.2354321667,0.0,0.0,0.0,0.0,0.0,0.0,0.0,0.0,0.0,0.0,0.0,183402,-0.13897901769999998,0.0,-0.6020159125,-0.6055107117,90.0,90.0,90.0,97.4028244019,94.2197265625,95.81127929690001,25.540000915500002,15.599667549100001,2.2999999523,0,2,25,1,22,325
19,1530902050948,109948, RC,0,39.9586186,-88.445067899,0,-17854.6066433879,9425.7879363386,20189.909772233703,-17854.082940593402,9423.4371340487,0.5133597851,0.0,-17854.596416373202,9423.410613972701,0.3075795997,15.6225465556,0.0,0.0,1430,1500,40.0433656062,-88.2354613157,40.0433646667,-88.2354323333,0.0,0.0,0.0,0.0,0.0,0.0,0.0,0.0,0.0,0.0,0.0,183402,-0.13897901769999998,0.0,-0.5310174227000001,-0.4957020879,90.0,90.0,90.0,91.67324829100001,97.53015136719999,94.85634613040001,25.540000915500002,15.599667549100001,2.2999999523,0,2,25,1,28,327
20,1530902050998,109998, RC,0,39.9586186,-88.445067899,0,-17854.6066433879,9425.7879363386,20189.909772233703,-17854.0194654477,9423.4514040643,0.4035511613,0.0,-17854.596416373202,9423.410613972701,0.3075795997,15.6225465556,0.0,0.0,1377,1500,40.0433657345,-88.2354620607,40.0433646667,-88.2354323333,0.0,0.0,0.0,0.0,0.0,0.0,0.0,0.0,0.0,0.0,0.0,183402,-0.24440896510000001,0.0,-0.4511900842,-0.3559122682,90.0,90.0,90.0,90.7183227539,97.84845733639999,94.3470458984,25.540000915500002,15.599667549100001,2.2999999523,0,2,25,1,40,330
21,1530902051049,110049, RC,0,39.9586186,-88.445067899,0,-17854.5809504024,9425.808187495799,20189.896505478602,-17854.0194654477,9423.4514040643,0.34735932950000004,0.0,-17854.5707233877,9423.4308651299,0.30832358190000003,15.5558868572,0.0,0.0,1377,1500,40.0433657345,-88.2354620607,40.0433646667,-88.2354323333,0.0,0.0,0.0,0.0,0.0,0.0,0.0,0.0,0.0,0.0,0.0,183402,-0.24440896510000001,0.0,-0.4217606187,-0.2729580402,90.0,90.0,90.0,95.62029266360001,97.33916473389999,95.1109924316,25.540000915500002,15.599667549100001,2.2999999523,0,2,25,1,46,332
22,1530902051099,110099, RC,0,39.9586186,-88.445067899,0,-17854.5809504024,9425.808187495799,20189.896505478602,-17854.0194654477,9423.4514040643,0.2827985287,0.0,-17854.5707233877,9423.4308651299,0.30832358190000003,15.5558868572,0.0,0.0,1361,1500,40.0433657345,-88.2354620607,40.0433646667,-88.2354323333,0.0,0.0,0.0,0.0,0.0,0.0,0.0,0.0,0.0,0.0,0.0,183402,-0.2773709893,0.0,-0.3903079331,-0.1752890944,90.0,90.0,90.0,98.23043060299999,93.77409362790002,96.6388778687,25.540000915500002,15.609701156600002,9.7800006866,0,2,25,1,31,334
23,1530902051150,110150, RC,0,39.9586186,-88.445067899,0,-17854.5809504024,9425.808187495799,20189.896505478602,-17854.0009243896,9423.463839362901,0.2387463152,0.0,-17854.5707233877,9423.4308651299,0.30832358190000003,15.5558868572,0.0,0.0,1361,1500,40.0433658463,-88.2354622782,40.0433646667,-88.2354323333,0.0,0.0,0.0,0.0,0.0,0.0,0.0,0.0,0.0,0.0,0.0,183402,-0.2773709893,0.0,-0.36179816719999996,-0.1156944782,90.0,90.0,90.0,96.19325256350001,93.1374740601,97.2118453979,24.4640007019,15.609701156600002,9.7800006866,0,2,25,1,51,337
24,1530902051200,110200, RC,0,39.9586186,-88.445067899,0,-17854.54816295,9425.8377794719,20189.8813257538,-17854.026309491102,9423.450273583001,0.1737256646,0.0,-17854.5379359353,9423.460457105999,0.3006058851,15.4484461855,0.0,0.0,1361,1500,40.043365724299996,-88.2354619803,40.0433646667,-88.2354323333,0.0,0.0,0.0,0.0,0.0,0.0,0.0,0.0,0.0,0.0,0.0,183402,-0.2773709893,0.0,-0.2987088263,-0.0487425067,90.0,90.0,90.0,95.174659729,92.5645141602,97.72113800049999,25.0019989014,15.609701156600002,9.7800006866,0,2,25,1,60,339
25,1530902051250,110250, RC,0,39.9586186,-88.445067899,0,-17854.5110099663,9425.8760863716,20189.8663542045,-17854.026309491102,9423.450273583001,0.13500754539999998,0.0,-17854.5007829516,9423.498764005699,0.2939749522,15.289703131700001,0.0,0.0,1361,1500,40.043365724299996,-88.2354619803,40.0433646667,-88.2354323333,0.0,0.0,0.0,0.0,0.0,0.0,0.0,0.0,0.0,0.0,0.0,183402,-0.2773709893,0.0,-0.253828913,-0.0161861908,90.0,90.0,90.0,95.4929656982,94.15606689450001,97.65747070309999,25.540000915500002,15.609701156600002,9.7800006866,0,2,25,1,40,341
26,1530902051301,110301, RC,0,39.9586186,-88.445067899,0,-17854.5110099663,9425.8760863716,20189.8663542045,-17854.035439879,9423.4364668789,0.08819635210000001,0.0,-17854.5007829516,9423.498764005699,0.2939749522,15.289703131700001,0.0,0.0,1337,1500,40.0433656002,-88.2354618733,40.0433646667,-88.2354323333,0.0,0.0,0.0,0.0,0.0,0.0,0.0,0.0,0.0,0.0,0.0,183402,-0.32542198899999997,0.0,-0.1909234822,0.014530785400000001,90.0,90.0,90.0,95.93859863280001,95.174659729,97.2118453979,25.540000915500002,15.609701156600002,9.7800006866,0,2,25,1,34,344
27,1530902051351,110351, RC,0,39.9586186,-88.445067899,0,-17854.4612626616,9425.923147463,20189.8443322816,-17854.035439879,9423.4364668789,0.0655724704,0.0,-17854.4510356469,9423.545825097099,0.2849499935,15.0696196435,0.0,0.0,1337,1500,40.0433656002,-88.2354618733,40.0433646667,-88.2354323333,0.0,0.0,0.0,0.0,0.0,0.0,0.0,0.0,0.0,0.0,0.0,183402,-0.32542198899999997,0.0,-0.1627815813,0.0316366479,90.0,90.0,90.0,96.2569046021,94.9200057983,96.70254516600001,25.540000915500002,15.609701156600002,9.7800006866,0,2,25,1,25,346
28,1530902051402,110402, RC,0,39.9586186,-88.445067899,0,-17854.4612626616,9425.923147463,20189.8443322816,-17854.035439879,9423.4364668789,0.038994014300000004,0.0,-17854.4510356469,9423.545825097099,0.2849499935,15.0696196435,0.0,0.0,1337,1500,40.0433656002,-88.2354618733,40.0433646667,-88.2354323333,0.0,0.0,0.0,0.0,0.0,0.0,0.0,0.0,0.0,0.0,0.0,183402,-0.32542198899999997,0.0,-0.1313288808,0.053340856,90.0,90.0,90.0,96.00226593020001,94.9200057983,95.55662536620001,25.540000915500002,15.609701156600002,9.7800006866,0,2,25,1,41,348
29,1530902051452,110452, RC,0,39.9586186,-88.445067899,0,-17854.392966256102,9425.9733010791,20189.8073508925,-17854.0438699769,9423.4266261283,0.0266704299,0.0,-17854.3827392414,9423.5959787132,0.2781269743,14.7845338599,0.0,0.0,1337,1500,40.0433655117,-88.23546177450001,40.0433646667,-88.2354323333,0.0,0.0,0.0,0.0,0.0,0.0,0.0,0.0,0.0,0.0,0.0,183402,-0.32542198899999997,0.0,-0.11551054570000001,0.062169685999999995,90.0,90.0,90.0,95.4929656982,94.85634613040001,95.62029266360001,25.540000915500002,15.609701156600002,9.7800006866,0,2,25,1,55,350
30,1530902051503,110503, RC,0,39.9586186,-88.445067899,0,-17854.392966256102,9425.9733010791,20189.8073508925,-17854.0471299416,9423.4310739252,0.0125075132,0.0,-17854.3827392414,9423.5959787132,0.2781269743,14.7845338599,0.0,0.0,1500,1500,40.0433655517,-88.23546173620001,40.0433646667,-88.2354323333,0.0,0.0,0.0,0.0,0.0,0.0,0.0,0.0,0.0,0.0,0.0,183402,0.0,0.0,-0.0934384689,0.0684234425,90.0,90.0,90.0,95.36563873290001,94.9200057983,95.74761199950001,25.540000915500002,15.609701156600002,9.7800006866,0,2,25,1,60,353
31,1530902051553,110553, RC,0,39.9586186,-88.445067899,0,-17854.3023169385,9426.016436272801,20189.7473258463,-17854.0471299416,9423.4310739252,0.0070814602,0.0,-17854.292089923798,9423.6391139069,0.28044674940000003,14.4417595941,0.0,0.0,1500,1500,40.0433655517,-88.23546173620001,40.0433646667,-88.2354323333,0.0,0.0,0.0,0.0,0.0,0.0,0.0,0.0,0.0,0.0,0.0,183402,0.0,0.0,-0.06897524740000001,0.054812327,90.0,90.0,90.0,95.174659729,94.9200057983,95.6839523315,25.540000915500002,15.609701156600002,9.7800006866,0,2,25,1,51,355
32,1530902051603,110603, RC,0,39.9586186,-88.445067899,0,-17854.3023169385,9426.016436272801,20189.7473258463,-17854.0471299416,9423.4310739252,0.0059778541,0.0,-17854.292089923798,9423.6391139069,0.28044674940000003,14.4417595941,0.0,0.0,1500,1500,40.0433655517,-88.23546173620001,40.0433646667,-88.2354323333,0.0,0.0,0.0,0.0,0.0,0.0,0.0,0.0,0.0,0.0,0.0,183402,0.0,0.0,-0.04414415730000001,0.0321884491,90.0,90.0,90.0,94.9836730957,94.9200057983,95.6839523315,25.540000915500002,15.609701156600002,9.7800006866,0,2,25,1,58,357
33,1530902051654,110654, RC,0,39.9586186,-88.445067899,0,-17854.193563265402,9426.0359542561,20189.660264736398,-17854.049846159498,9423.4270894405,0.0052421186,0.0,-17854.183336250702,9423.658631890201,0.2915708034,14.0711956113,0.0,0.0,1500,1500,40.0433655158,-88.23546170430001,40.0433646667,-88.2354323333,0.0,0.0,0.0,0.0,0.0,0.0,0.0,0.0,0.0,0.0,0.0,183403,0.0,0.0,-0.0336599201,0.0231756829,90.0,90.0,90.0,94.9836730957,94.9836730957,95.62029266360001,25.540000915500002,15.609701156600002,9.7800006866,0,2,25,1,47,360
34,1530902051704,110704, RC,0,39.9586186,-88.445067899,0,-17854.193563265402,9426.0359542561,20189.660264736398,-17854.0418779326,9423.4304808857,0.0050581847,0.0,-17854.183336250702,9423.658631890201,0.2915708034,14.0711956113,0.0,0.0,1500,1500,40.0433655463,-88.23546179780001,40.0433646667,-88.2354323333,0.0,0.0,0.0,0.0,0.0,0.0,0.0,0.0,0.0,0.0,0.0,183403,0.0,0.0,-0.025382891299999998,0.0152665218,90.0,90.0,90.0,95.04733276370001,94.9836730957,95.62029266360001,25.540000915500002,15.609701156600002,9.7800006866,0,2,25,1,51,362
35,1530902051755,110755, RC,0,39.9586186,-88.445067899,0,-17854.0856268423,9426.0226672692,20189.5586106901,-17854.0418779326,9423.4304808857,0.0036786795,0.0,-17854.0753998276,9423.6453449033,0.3060693443,13.717976263699999,0.0,0.0,1500,1500,40.0433655463,-88.23546179780001,40.0433646667,-88.2354323333,0.0,0.0,0.0,0.0,0.0,0.0,0.0,0.0,0.0,0.0,0.0,183403,0.0,0.0,-0.0198648702,0.0125075113,90.0,90.0,90.0,94.9836730957,94.9836730957,95.62029266360001,24.4640007019,15.609701156600002,9.7800006866,0,2,25,1,47,364
36,1530902051805,110805, RC,0,39.9586186,-88.445067899,0,-17854.0856268423,9426.0226672692,20189.5586106901,-17854.0488359626,9423.428998287,0.0025750757000000003,0.0,-17854.0753998276,9423.6453449033,0.3060693443,13.717976263699999,0.0,0.0,1500,1500,40.043365533,-88.2354617162,40.0433646667,-88.2354323333,0.0,0.0,0.0,0.0,0.0,0.0,0.0,0.0,0.0,0.0,0.0,183403,0.0,0.0,-0.014530785400000001,0.009380633900000001,90.0,90.0,90.0,94.9836730957,94.9836730957,95.55662536620001,24.4640007019,15.609701156600002,9.7800006866,0,2,25,1,39,367
37,1530902051856,110856, RC,0,39.9586186,-88.445067899,0,-17853.9973269853,9425.998969174201,20189.469461055,-17854.0488359626,9423.428998287,0.0020232741,0.0,-17853.9870999706,9423.6216468083,0.3130369523,13.4338768664,0.0,0.0,1446,1500,40.043365533,-88.2354617162,40.0433646667,-88.2354323333,0.0,0.0,0.0,0.0,0.0,0.0,0.0,0.0,0.0,0.0,0.0,183403,-0.1074910164,0.0,-0.0117717758,0.0077252276000000005,90.0,90.0,90.0,94.9836730957,94.9836730957,95.55662536620001,25.0019989014,15.609701156600002,9.7800006866,0,2,25,1,36,369
38,1530902051906,110906, RC,0,39.9586186,-88.445067899,0,-17853.9973269853,9425.998969174201,20189.469461055,-17854.038043264198,9423.4318522897,0.00183934,0.0,-17853.9870999706,9423.6216468083,0.3130369523,13.4338768664,0.0,0.0,1446,1500,40.043365558699996,-88.2354618428,40.0433646667,-88.2354323333,0.0,0.0,0.0,0.0,0.0,0.0,0.0,0.0,0.0,0.0,0.0,183403,-0.1074910164,0.0,-0.0106681716,0.006989491600000001,90.0,90.0,90.0,94.9836730957,94.9836730957,95.55662536620001,25.0019989014,15.609701156600002,9.7800006866,0,2,25,1,41,371
39,1530902051956,110956, RC,0,39.9586186,-88.445067899,0,-17853.9203877618,9425.973230097099,20189.3894050078,-17854.038043264198,9423.4318522897,0.0020232738,0.0,-17853.9101607471,9423.5959077312,0.3074601303,13.2180836455,0.0,0.0,1380,1500,40.043365558699996,-88.2354618428,40.0433636667,-88.2354341667,0.0,0.0,0.0,0.0,0.0,0.0,0.0,0.0,0.0,0.0,0.0,183403,-0.238409996,0.0,-0.0110360393,0.006989491600000001,90.0,90.0,90.0,94.9836730957,94.9836730957,95.55662536620001,25.540000915500002,15.609701156600002,9.7800006866,0,2,25,1,42,374
40,1530902052007,111007, RC,0,39.9586186,-88.445067899,0,-17853.8840678717,9425.9312116445,20189.3376690682,-17854.04879904,9423.4241798401,0.0014714720000000001,0.0,-17853.873840857,9423.553889278599,0.2888172127,13.073965768699999,0.0,0.0,1380,1500,40.0433654897,-88.2354617167,40.0433636667,-88.2354341667,0.0,0.0,0.0,0.0,0.0,0.0,0.0,0.0,0.0,0.0,0.0,183403,-0.238409996,0.0,-0.012139643500000002,0.0091966996,90.0,90.0,90.0,94.9200057983,94.9836730957,95.55662536620001,25.540000915500002,15.609701156600002,9.7800006866,0,2,25,1,48,376
41,1530902052057,111057, RC,0,39.9586186,-88.445067899,0,-17853.8840678717,9425.9312116445,20189.3376690682,-17854.04879904,9423.4241798401,0.0,0.0,-17853.873840857,9423.553889278599,0.2888172127,13.073965768699999,0.0,0.0,1351,1500,40.0433654897,-88.2354617167,40.0433636667,-88.2354341667,0.0,0.0,0.0,0.0,0.0,0.0,0.0,0.0,0.0,0.0,0.0,183403,-0.29715895649999996,0.0,-0.0182094648,0.0182094648,90.0,90.0,90.0,94.9200057983,94.9836730957,95.4929656982,24.4640007019,15.609701156600002,9.7800006866,0,2,25,1,44,378
42,1530902052108,111108, RC,0,39.9586186,-88.445067899,0,-17853.8840678717,9425.9312116445,20189.3376690682,-17854.0439114755,9423.4275527527,0.0030349102,0.0,-17853.873840857,9423.553889278599,0.2888172127,13.073965768699999,0.0,0.0,1351,1500,40.04336552,-88.235461774,40.0433636667,-88.2354341667,0.0,0.0,0.0,0.0,0.0,0.0,0.0,0.0,0.0,0.0,0.0,183403,-0.29715895649999996,0.0,-0.0187612679,0.0248310883,90.0,90.0,90.0,94.9836730957,95.3019790649,95.42930603030001,24.4640007019,15.5945005417,22.590000152600002,0,2,25,1,39,380
43,1530902052158,111158, RC,0,39.9586186,-88.445067899,0,-17853.8833522952,9425.9004804323,20189.322688599,-17854.0439114755,9423.4275527527,0.006161788499999999,0.0,-17853.8731252805,9423.5231580664,0.2617305674,12.995764398699999,0.0,0.0,1335,1500,40.04336552,-88.235461774,40.0433636667,-88.2354341667,0.0,0.0,0.0,0.0,0.0,0.0,0.0,0.0,0.0,0.0,0.0,183403,-0.3294659853,0.0,-0.021888144300000002,0.0342117213,90.0,90.0,90.0,94.7926864624,95.42930603030001,95.3019790649,25.540000915500002,15.5945005417,22.590000152600002,0,2,25,1,39,383
44,1530902052208,111208, RC,0,39.9586186,-88.445067899,0,-17853.885543687902,9425.8865719039,20189.318132951,-17854.0442786894,9423.4291650787,0.0127834119,0.0,-17853.875316673202,9423.509249538001,0.21254701550000002,12.9546714389,0.0,0.0,1335,1500,40.0433655345,-88.2354617697,40.0433636667,-88.2354341667,0.0,0.0,0.0,0.0,0.0,0.0,0.0,0.0,0.0,0.0,0.0,183403,-0.3294659853,0.0,-0.029061570800000002,0.0546283945,90.0,90.0,90.0,94.7926864624,95.81127929690001,95.1109924316,25.540000915500002,15.5945005417,22.590000152600002,0,2,25,1,40,385
45,1530902052259,111259, RC,0,39.9586186,-88.445067899,0,-17853.885543687902,9425.8865719039,20189.318132951,-17854.0442786894,9423.4291650787,0.015542421499999999,0.0,-17853.875316673202,9423.509249538001,0.21254701550000002,12.9546714389,0.0,0.0,1329,1500,40.0433655345,-88.2354617697,40.0433636667,-88.2354341667,0.0,0.0,0.0,0.0,0.0,0.0,0.0,0.0,0.0,0.0,0.0,183403,-0.3406350017,0.0,-0.0417530164,0.07283785940000001,90.0,90.0,90.0,94.85634613040001,96.0659179688,94.85634613040001,25.540000915500002,15.5945005417,22.590000152600002,0,2,25,1,57,387
46,1530902052309,111309, RC,0,39.9586186,-88.445067899,0,-17853.883910926,9425.8791242978,20189.3132119619,-17854.0421529837,9423.4259589586,0.0165540595,0.0,-17853.873683911297,9423.5018019319,0.1586878704,12.9364219004,0.0,0.0,1329,1500,40.0433655057,-88.23546179469999,40.0433636667,-88.2354341667,0.0,0.0,0.0,0.0,0.0,0.0,0.0,0.0,0.0,0.0,0.0,183403,-0.3406350017,0.0,-0.0513175838,0.0844257027,90.0,90.0,90.0,94.85634613040001,96.32057189940001,94.6016998291,25.540000915500002,15.5945005417,22.590000152600002,0,2,25,1,57,390
47,1530902052360,111360, RC,0,39.9586186,-88.445067899,0,-17853.883910926,9425.8791242978,20189.3132119619,-17854.0408123669,9423.4311851199,0.0171978269,0.0,-17853.873683911297,9423.5018019319,0.1586878704,12.9364219004,0.0,0.0,1323,1500,40.0433655527,-88.23546181030001,40.0433636667,-88.2354341667,0.0,0.0,0.0,0.0,0.0,0.0,0.0,0.0,0.0,0.0,0.0,183403,-0.35285902020000004,0.0,-0.0610660873,0.0954617411,90.0,90.0,90.0,94.7926864624,96.5752182007,94.5380325317,25.540000915500002,15.5945005417,22.590000152600002,0,2,25,1,54,392
48,1530902052410,111410, RC,0,39.9586186,-88.445067899,0,-17853.8914421515,9425.8720545737,20189.3165713287,-17854.0408123669,9423.4311851199,0.0230837166,0.0,-17853.8812151368,9423.4947322078,0.1021595392,12.9275750592,0.0,0.0,1323,1500,40.0433655527,-88.23546181030001,40.0433636667,-88.2354341667,0.0,0.0,0.0,0.0,0.0,0.0,0.0,0.0,0.0,0.0,0.0,183403,-0.35285902020000004,0.0,-0.06787163759999999,0.1140390709,90.0,90.0,90.0,94.7926864624,96.76620483399999,94.66535949709998,25.540000915500002,15.5945005417,22.590000152600002,0,2,25,1,57,394
49,1530902052461,111461, RC,0,39.9586186,-88.445067899,0,-17853.8914421515,9425.8720545737,20189.3165713287,-17854.0408123669,9423.4311851199,0.0314527079,0.0,-17853.8812151368,9423.4947322078,0.1021595392,12.9275750592,0.0,0.0,1317,1500,40.0433655527,-88.23546181030001,40.0433636667,-88.2354341667,0.0,0.0,0.0,0.0,0.0,0.0,0.0,0.0,0.0,0.0,0.0,183403,-0.36414504049999996,0.0,-0.0623536222,0.1252590418,90.0,90.0,90.0,94.9836730957,96.95719146729999,95.36563873290001,25.540000915500002,15.5945005417,22.590000152600002,0,2,25,1,48,397
50,1530902052511,111511, RC,0,39.9586186,-88.445067899,0,-17853.8914421515,9425.8720545737,20189.3165713287,-17854.041051529,9423.4330383686,0.0420289189,0.0,-17853.8812151368,9423.4947322078,0.1021595392,12.9275750592,0.0,0.0,1317,1500,40.0433655693,-88.2354618075,40.0433636667,-88.2354341667,0.0,0.0,0.0,0.0,0.0,0.0,0.0,0.0,0.0,0.0,0.0,183403,-0.36414504049999996,0.0,-0.0577552728,0.1418131143,90.0,90.0,90.0,94.85634613040001,96.8935317993,95.3019790649,25.540000915500002,15.5945005417,22.590000152600002,0,2,25,1,58,399
51,1530902052562,111562, RC,0,39.9586186,-88.445067899,0,-17853.9001222026,9425.8669558904,20189.321866861497,-17854.041051529,9423.4330383686,0.0456156284,0.0,-17853.889895187902,9423.4896335245,0.061246626900000004,12.9235162292,0.0,0.0,1317,1500,40.0433655693,-88.2354618075,40.0433636667,-88.2354341667,0.0,0.0,0.0,0.0,0.0,0.0,0.0,0.0,0.0,0.0,0.0,183403,-0.36414504049999996,0.0,-0.061433952300000004,0.1526652128,90.0,90.0,90.0,94.9200057983,96.6388778687,95.23831939700001,25.540000915500002,15.5945005417,22.590000152600002,0,2,25,1,52,401
52,1530902052612,111612, RC,0,39.9586186,-88.445067899,0,-17853.9001222026,9425.8669558904,20189.321866861497,-17854.041051529,9423.4330383686,0.0456156321,0.0,-17853.889895187902,9423.4896335245,0.061246626900000004,12.9235162292,0.0,0.0,1317,1500,40.0433655693,-88.2354618075,40.0433636667,-88.2354341667,0.0,0.0,0.0,0.0,0.0,0.0,0.0,0.0,0.0,0.0,0.0,183403,-0.36414504049999996,0.0,-0.0754129365,0.1666442007,90.0,90.0,90.0,94.9200057983,95.6839523315,95.36563873290001,25.540000915500002,15.5945005417,22.590000152600002,0,2,25,1,46,404
53,1530902052662,111662, RC,0,39.9586186,-88.445067899,0,-17853.9001222026,9425.8669558904,20189.321866861497,-17854.0348016245,9423.4359665016,0.04322448,0.0,-17853.889895187902,9423.4896335245,0.061246626900000004,12.9235162292,0.0,0.0,1317,1500,40.0433655957,-88.2354618808,40.0433636667,-88.2354341667,0.0,0.0,0.0,0.0,0.0,0.0,0.0,0.0,0.0,0.0,0.0,183404,-0.36414504049999996,0.0,-0.08939192439999999,0.1758408844,90.0,90.0,90.0,94.85634613040001,95.36563873290001,95.8749313354,25.540000915500002,15.5945005417,22.590000152600002,0,2,25,1,42,406
54,1530902052713,111713, RC,0,39.9586186,-88.445067899,0,-17853.9119044951,9425.860717695301,20189.3293737772,-17854.0387352108,9423.4349842802,0.0416610464,0.0,-17853.9016774804,9423.4833953294,0.030779397799999997,12.9211568628,0.0,0.0,1317,1500,40.0433655868,-88.23546183469999,40.0433636667,-88.2354341667,0.0,0.0,0.0,0.0,0.0,0.0,0.0,0.0,0.0,0.0,0.0,183404,-0.36414504049999996,0.0,-0.0973010808,0.1806231737,90.0,90.0,90.0,94.9200057983,95.04733276370001,96.0659179688,25.540000915500002,15.5945005417,22.590000152600002,0,2,25,1,51,408
55,1530902052763,111763, RC,0,39.9586186,-88.445067899,0,-17853.9119044951,9425.860717695301,20189.3293737772,-17854.0387352108,9423.4349842802,0.040925312799999995,0.0,-17853.9016774804,9423.4833953294,0.030779397799999997,12.9211568628,0.0,0.0,1500,1500,40.0433655868,-88.23546183469999,40.0433636667,-88.2354341667,0.0,0.0,0.0,0.0,0.0,0.0,0.0,0.0,0.0,0.0,0.0,183404,0.0,0.0,-0.099324353,0.18117497859999998,90.0,90.0,90.0,94.7926864624,94.0287399292,96.12958526610001,25.540000915500002,15.5945005417,22.590000152600002,0,2,25,1,42,410
56,1530902052814,111814, RC,0,39.9586186,-88.445067899,0,-17853.9150711998,9425.858617534599,20189.3311936618,-17854.0398763347,9423.4303882235,0.047914806799999994,0.0,-17853.9048441851,9423.4812951687,0.0225397477,12.921134959300002,0.0,0.0,1500,1500,40.0433655455,-88.23546182129999,40.0433636667,-88.2354341667,0.0,0.0,0.0,0.0,0.0,0.0,0.0,0.0,0.0,0.0,0.0,183404,0.0,0.0,-0.0820345655,0.17786417899999998,90.0,90.0,90.0,94.9200057983,94.0287399292,96.0659179688,25.540000915500002,15.5945005417,22.590000152600002,0,2,25,1,49,413
57,1530902052864,111864, RC,0,39.9586186,-88.445067899,0,-17853.9150711998,9425.858617534599,20189.3311936618,-17854.0398763347,9423.4303882235,0.0425807163,0.0,-17853.9048441851,9423.4812951687,0.0225397477,12.921134959300002,0.0,0.0,1500,1500,40.0433655455,-88.23546182129999,40.0433636667,-88.2354341667,0.0,0.0,0.0,0.0,0.0,0.0,0.0,0.0,0.0,0.0,0.0,183404,0.0,0.0,-0.0605142824,0.14567571880000002,90.0,90.0,90.0,94.9836730957,94.0923995972,96.0659179688,25.540000915500002,15.5945005417,22.590000152600002,0,2,25,1,41,415
58,1530902052915,111915, RC,0,39.9586186,-88.445067899,0,-17853.9150711998,9425.858617534599,20189.3311936618,-17854.0449275881,9423.4326862512,0.0308089424,0.0,-17853.9048441851,9423.4812951687,0.0225397477,12.921134959300002,0.0,0.0,1500,1500,40.0433655662,-88.23546176200001,40.043369,-88.2354318333,0.0,0.0,0.0,0.0,0.0,0.0,0.0,0.0,0.0,0.0,0.0,183404,0.0,0.0,-0.039177943,0.10079582779999999,90.0,90.0,90.0,94.9200057983,93.9014129639,96.19325256350001,25.540000915500002,15.5945005417,22.590000152600002,0,2,25,1,46,417
59,1530902052965,111965, RC,0,39.9586186,-88.445067899,0,-17853.9165248992,9425.8580877339,20189.332231853703,-17854.0449275881,9423.4326862512,0.024463221400000002,0.0,-17853.9062978845,9423.480765368,0.0195090923,12.921279605699999,0.0,0.0,1500,1214,40.0433655662,-88.23546176200001,40.043369,-88.2354318333,0.0,0.0,0.0,0.0,0.0,0.0,0.0,0.0,0.0,0.0,0.0,183404,0.0,-0.5700880289,-0.0301651731,0.07909161599999999,90.0,90.0,90.0,94.9836730957,93.8377532959,96.2569046021,25.0019989014,15.5945005417,22.590000152600002,0,2,25,1,33,420
60,1530902053015,112015, RC,0,39.9586186,-88.445067899,0,-17853.9176257404,9425.8583113709,20189.3333097644,-17854.0547663529,9423.432185874499,0.0181174986,0.0,-17853.9073987257,9423.480989005,0.018053318999999998,12.921471519,0.0,0.0,1500,1214,40.0433655617,-88.2354616465,40.043369,-88.2354318333,0.0,0.0,0.0,0.0,0.0,0.0,0.0,0.0,0.0,0.0,0.0,183404,0.0,-0.5700880289,-0.024279287099999998,0.0605142824,90.0,90.0,90.0,94.85634613040001,93.8377532959,96.2569046021,25.0019989014,15.5945005417,22.590000152600002,0,2,25,1,41,422
61,1530902053066,112066, RC,0,39.9586186,-88.445067899,0,-17853.9176257404,9425.8583113709,20189.3333097644,-17854.0547663529,9423.432185874499,0.0295214057,0.0,-17853.9073987257,9423.480989005,0.018053318999999998,12.921471519,0.0,0.0,1500,1187,40.0433655617,-88.2354616465,40.043369,-88.2354318333,0.0,0.0,0.0,0.0,0.0,0.0,0.0,0.0,0.0,0.0,0.0,183404,0.0,-0.6257309914,-0.0426726863,-0.0163701251,90.0,90.0,90.0,94.5380325317,93.6467666626,96.12958526610001,25.540000915500002,15.5945005417,22.590000152600002,0,2,25,1,40,424
62,1530902053116,112116, RC,0,39.9586186,-88.445067899,0,-17853.917383799,9425.858678288001,20189.3332671135,-17854.0553063651,9423.4317225631,0.1256269217,0.0,-17853.9071567843,9423.4813559221,0.020784179399999998,12.9217559296,0.0,0.0,1500,1187,40.0433655575,-88.2354616402,40.043369,-88.2354318333,0.0,0.0,0.0,0.0,0.0,0.0,0.0,0.0,0.0,0.0,0.0,183404,0.0,-0.6257309914,-0.0985886157,-0.1526652128,90.0,90.0,90.0,94.5380325317,94.85634613040001,96.12958526610001,25.540000915500002,15.5660305023,29.409999847399998,0,2,25,1,37,427
63,1530902053167,112167, RC,0,39.9586186,-88.445067899,0,-17853.917383799,9425.858678288001,20189.3332671135,-17854.0553063651,9423.4317225631,0.20453460510000002,0.0,-17853.9071567843,9423.4813559221,0.020784179399999998,12.9217559296,0.0,0.0,1500,1187,40.0433655575,-88.2354616402,40.043369,-88.2354318333,0.0,0.0,0.0,0.0,0.0,0.0,0.0,0.0,0.0,0.0,0.0,183404,0.0,-0.6257309914,-0.1754730344,-0.2335961759,90.0,90.0,90.0,95.62029266360001,94.729019165,96.51155853270001,25.540000915500002,15.5660305023,29.409999847399998,0,2,25,1,34,429
64,1530902053217,112217, RC,0,39.9586186,-88.445067899,0,-17853.9133700055,9425.8604069902,20189.3305247036,-17854.0435367668,9423.4323156018,0.25318512320000003,0.0,-17853.9031429908,9423.4830846243,0.0337199473,12.9221335224,0.0,0.0,1500,1187,40.043365562800005,-88.23546177829999,40.043369,-88.2354318333,0.0,0.0,0.0,0.0,0.0,0.0,0.0,0.0,0.0,0.0,0.0,183404,0.0,-0.6257309914,-0.22844602170000003,-0.2779242396,90.0,90.0,90.0,95.42930603030001,94.6016998291,96.76620483399999,25.540000915500002,15.5660305023,29.409999847399998,0,2,25,1,30,431
65,1530902053268,112268, RC,0,39.9586186,-88.445067899,0,-17853.9133700055,9425.8604069902,20189.3305247036,-17854.0435367668,9423.4323156018,0.2987087965,0.0,-17853.9031429908,9423.4830846243,0.0337199473,12.9221335224,0.0,0.0,1500,1162,40.043365562800005,-88.23546177829999,40.043369,-88.2354318333,0.0,0.0,0.0,0.0,0.0,0.0,0.0,0.0,0.0,0.0,0.0,183404,0.0,-0.6756479740000001,-0.2795796692,-0.3178379238,90.0,90.0,90.0,94.5380325317,95.55662536620001,96.6388778687,25.540000915500002,15.5660305023,29.409999847399998,0,2,25,1,31,434
66,1530902053318,112318, RC,0,39.9586186,-88.445067899,0,-17853.9069652689,9425.862585425999,20189.325877894298,-17854.020337501202,9423.434168850601,0.37173062560000003,0.0,-17853.8967382542,9423.4852630601,0.0517865166,12.922576811099999,0.0,0.0,1500,1162,40.0433655795,-88.2354620507,40.043369,-88.2354318333,0.0,0.0,0.0,0.0,0.0,0.0,0.0,0.0,0.0,0.0,0.0,183404,0.0,-0.6756479740000001,-0.3627178371,-0.3807433844,90.0,90.0,90.0,94.3470458984,95.81127929690001,96.19325256350001,25.540000915500002,15.5660305023,29.409999847399998,0,2,25,1,36,436
67,1530902053369,112369, RC,0,39.9586186,-88.445067899,0,-17853.9069652689,9425.862585425999,20189.325877894298,-17854.020337501202,9423.434168850601,0.41964536909999994,0.0,-17853.8967382542,9423.4852630601,0.0517865166,12.922576811099999,0.0,0.0,1500,1162,40.0433655795,-88.2354620507,40.043369,-88.2354318333,0.0,0.0,0.0,0.0,0.0,0.0,0.0,0.0,0.0,0.0,0.0,183404,0.0,-0.6756479740000001,-0.4136675298,-0.4256232381,90.0,90.0,90.0,95.36563873290001,96.44789123540001,95.8749313354,25.540000915500002,15.5660305023,29.409999847399998,0,2,25,1,52,438
68,1530902053420,112420, RC,0,39.9586186,-88.445067899,0,-17853.8937269295,9425.8666453968,20189.3160664074,-17853.9686353749,9423.4449362255,0.48641341920000003,0.0,-17853.8834999148,9423.489323030899,0.08104588900000001,12.922628881600001,0.0,0.0,1500,1162,40.0433656763,-88.2354626575,40.043369,-88.2354318333,0.0,0.0,0.0,0.0,0.0,0.0,0.0,0.0,0.0,0.0,0.0,183404,0.0,-0.6756479740000001,-0.48374640939999997,-0.4890804589,90.0,90.0,90.0,96.0659179688,96.8298721313,95.62029266360001,25.540000915500002,15.5660305023,29.409999847399998,0,2,25,1,46,441
69,1530902053471,112471, RC,0,39.9586186,-88.445067899,0,-17853.8937269295,9425.8666453968,20189.3160664074,-17853.9686353749,9423.4449362255,0.5284423232,0.0,-17853.8834999148,9423.489323030899,0.08104588900000001,12.922628881600001,0.0,0.0,1500,1147,40.0433656763,-88.2354626575,40.043369,-88.2354318333,0.0,0.0,0.0,0.0,0.0,0.0,0.0,0.0,0.0,0.0,0.0,183404,0.0,-0.7049930095999999,-0.5264190435,-0.5304656029,90.0,90.0,90.0,96.00226593020001,96.95719146729999,95.36563873290001,25.540000915500002,15.5660305023,29.409999847399998,0,2,25,1,50,443
70,1530902053521,112521, RC,0,39.9586186,-88.445067899,0,-17853.8766614261,9425.871846636,20189.3034033029,-17853.9217550896,9423.4599290086,0.5804036856,0.0,-17853.8664344114,9423.4945242701,0.11566001220000001,12.921535981400002,0.0,0.0,1500,1147,40.0433658112,-88.23546320770001,40.043369,-88.2354318333,0.0,0.0,0.0,0.0,0.0,0.0,0.0,0.0,0.0,0.0,0.0,183404,0.0,-0.7049930095999999,-0.569827497,-0.5909799337,90.0,90.0,90.0,95.3019790649,97.14817810059999,95.174659729,25.0019989014,15.5660305023,29.409999847399998,0,2,25,1,69,445
71,1530902053572,112572, RC,0,39.9586186,-88.445067899,0,-17853.8766614261,9425.871846636,20189.3034033029,-17853.9217550896,9423.4599290086,0.6091893911,0.0,-17853.8664344114,9423.4945242701,0.11566001220000001,12.921535981400002,0.0,0.0,1436,1500,40.0433658112,-88.23546320770001,40.043369,-88.2354318333,0.0,0.0,0.0,0.0,0.0,0.0,0.0,0.0,0.0,0.0,0.0,183404,-0.1268029809,0.0,-0.591347754,-0.6270310283,90.0,90.0,90.0,94.7926864624,96.8298721313,95.36563873290001,25.0019989014,15.5660305023,29.409999847399998,0,2,25,1,71,447
72,1530902053622,112622, RC,0,39.9586186,-88.445067899,0,-17853.8766614261,9425.871846636,20189.3034033029,-17853.9217550896,9423.4599290086,0.6239960193999999,0.0,-17853.8664344114,9423.4945242701,0.11566001220000001,12.921535981400002,0.0,0.0,1436,1500,40.0433658112,-88.23546320770001,40.043369,-88.2354318333,0.0,0.0,0.0,0.0,0.0,0.0,0.0,0.0,0.0,0.0,0.0,183404,-0.1268029809,0.0,-0.5784723759,-0.6695197225,90.0,90.0,90.0,94.5380325317,95.81127929690001,95.42930603030001,25.540000915500002,15.5660305023,29.409999847399998,0,2,25,1,62,450
73,1530902053673,112673, RC,0,39.9586186,-88.445067899,0,-17853.8766614261,9425.871846636,20189.3034033029,-17853.9217550896,9423.4599290086,0.5833466649,0.0,-17853.8664344114,9423.4945242701,0.11566001220000001,12.921535981400002,0.0,0.0,1382,1500,40.0433658112,-88.23546320770001,40.043369,-88.2354318333,0.0,0.0,0.0,0.0,0.0,0.0,0.0,0.0,0.0,0.0,0.0,183404,-0.234507978,0.0,-0.514647305,-0.6520460248,90.0,90.0,90.0,95.174659729,94.9836730957,95.3019790649,25.540000915500002,15.5660305023,29.409999847399998,0,2,25,1,48,452
74,1530902053723,112723, RC,0,39.9586186,-88.445067899,0,-17853.8496034494,9425.8796728391,20189.2831291611,-17853.8757789899,9423.4665821716,0.47997576,0.0,-17853.8393764347,9423.5023504732,0.15293797650000002,12.9171159369,0.0,0.0,1382,1500,40.043365871,-88.2354637473,40.043369,-88.2354318333,0.0,0.0,0.0,0.0,0.0,0.0,0.0,0.0,0.0,0.0,0.0,183405,-0.234507978,0.0,-0.439050436,-0.5209010839,90.0,90.0,90.0,96.12958526610001,94.9200057983,94.7926864624,25.540000915500002,15.5660305023,29.409999847399998,0,2,25,1,43,454
75,1530902053774,112774, RC,0,39.9586186,-88.445067899,0,-17853.8496034494,9425.8796728391,20189.2831291611,-17853.8757789899,9423.4665821716,0.4204730988,0.0,-17853.8393764347,9423.5023504732,0.15293797650000002,12.9171159369,0.0,0.0,1382,1500,40.043365871,-88.2354637473,40.043369,-88.2354318333,0.0,0.0,0.0,0.0,0.0,0.0,0.0,0.0,0.0,0.0,0.0,183405,-0.234507978,0.0,-0.418817699,-0.4221284986,90.0,90.0,90.0,96.8298721313,95.8749313354,94.0923995972,25.540000915500002,15.5660305023,29.409999847399998,0,2,25,1,45,457
76,1530902053824,112824, RC,0,39.9586186,-88.445067899,0,-17853.7912704495,9425.8929473462,20189.2377415199,-17853.7118230005,9423.479147198299,0.3423931301,0.0,-17853.7810434348,9423.5156249803,0.1788930126,12.8997217282,0.0,0.0,1382,1500,40.043365984,-88.235465672,40.043369,-88.2354318333,0.0,0.0,0.0,0.0,0.0,0.0,0.0,0.0,0.0,0.0,0.0,183405,-0.234507978,0.0,-0.3925151229,-0.2922711372,90.0,90.0,90.0,96.12958526610001,96.95719146729999,93.7104263306,25.540000915500002,15.5660305023,29.409999847399998,0,2,25,1,44,459
77,1530902053874,112874, RC,0,39.9586186,-88.445067899,0,-17853.7912704495,9425.8929473462,20189.2377415199,-17853.6939808958,9423.5008302095,0.2992605865,0.0,-17853.7810434348,9423.5156249803,0.1788930126,12.8997217282,0.0,0.0,1353,1500,40.043366179,-88.23546588120001,40.043369,-88.2354318333,0.0,0.0,0.0,0.0,0.0,0.0,0.0,0.0,0.0,0.0,0.0,183405,-0.2932299972,0.0,-0.37522533539999997,-0.2232958525,90.0,90.0,90.0,94.0923995972,96.32057189940001,94.3470458984,25.540000915500002,15.5660305023,29.409999847399998,0,2,25,1,59,461
78,1530902053925,112925, RC,0,39.9586186,-88.445067899,0,-17853.7242761734,9425.9036786715,20189.1835072451,-17853.6939808958,9423.5008302095,0.2458277941,0.0,-17853.7140491587,9423.526356305601,0.1975493567,12.8648311944,0.0,0.0,1353,1500,40.043366179,-88.23546588120001,40.043369,-88.2354318333,0.0,0.0,0.0,0.0,0.0,0.0,0.0,0.0,0.0,0.0,0.0,183405,-0.2932299972,0.0,-0.3594070375,-0.1322485507,90.0,90.0,90.0,95.1109924316,95.81127929690001,95.23831939700001,25.540000915500002,15.5660305023,29.409999847399998,0,2,25,1,59,463
79,1530902053975,112975, RC,0,39.9586186,-88.445067899,0,-17853.7242761734,9425.9036786715,20189.1835072451,-17853.6939808958,9423.5008302095,0.2095927894,0.0,-17853.7140491587,9423.526356305601,0.1975493567,12.8648311944,0.0,0.0,1342,1500,40.043366179,-88.23546588120001,40.0433658333,-88.2354366667,0.0,0.0,0.0,0.0,0.0,0.0,0.0,0.0,0.0,0.0,0.0,183405,-0.3149520159,0.0,-0.3364152908,-0.0827702954,90.0,90.0,90.0,96.12958526610001,95.42930603030001,95.81127929690001,25.540000915500002,15.5660305023,29.409999847399998,0,2,25,1,69,466
80,1530902054026,113026, RC,0,39.9586186,-88.445067899,0,-17853.7242761734,9425.9036786715,20189.1835072451,-17853.6957772266,9423.5064640853,0.1407095045,0.0,-17853.7140491587,9423.526356305601,0.1975493567,12.8648311944,0.0,0.0,1342,1500,40.0433662297,-88.23546586,40.0433658333,-88.2354366667,0.0,0.0,0.0,0.0,0.0,0.0,0.0,0.0,0.0,0.0,0.0,183405,-0.3149520159,0.0,-0.2656006813,-0.0158183239,90.0,90.0,90.0,95.81127929690001,94.5380325317,96.6388778687,25.540000915500002,15.5660305023,29.409999847399998,0,2,25,1,61,468
81,1530902054076,113076, RC,0,39.9586186,-88.445067899,0,-17853.6634653781,9425.907634372901,20189.1315778244,-17853.6957772266,9423.5064640853,0.11118809880000001,0.0,-17853.6532383634,9423.530312007,0.20547569829999998,12.8247055206,0.0,0.0,1342,1500,40.0433662297,-88.23546586,40.0433658333,-88.2354366667,0.0,0.0,0.0,0.0,0.0,0.0,0.0,0.0,0.0,0.0,0.0,183405,-0.3149520159,0.0,-0.2328604311,0.0104842372,90.0,90.0,90.0,95.6839523315,93.58310699459999,97.2118453979,25.0019989014,15.546557426500001,25.459999084499998,0,2,25,1,58,470
82,1530902054127,113127, RC,0,39.9586186,-88.445067899,0,-17853.6129748451,9425.9069020079,20189.086586095902,-17853.706242719098,9423.4921199402,0.0776201487,0.0,-17853.6027478304,9423.529579642,0.210204295,12.7909264156,0.0,0.0,1342,1500,40.0433661007,-88.23546573729999,40.0433658333,-88.2354366667,0.0,0.0,0.0,0.0,0.0,0.0,0.0,0.0,0.0,0.0,0.0,183405,-0.3149520159,0.0,-0.1979129761,0.0426726863,90.0,90.0,90.0,96.00226593020001,93.07381439209999,97.65747070309999,25.540000915500002,15.546557426500001,25.459999084499998,0,2,25,1,62,473
83,1530902054177,113177, RC,0,39.9586186,-88.445067899,0,-17853.6129748451,9425.9069020079,20189.086586095902,-17853.706242719098,9423.4921199402,0.0545364283,0.0,-17853.6027478304,9423.529579642,0.210204295,12.7909264156,0.0,0.0,1336,1500,40.0433661007,-88.23546573729999,40.0433658333,-88.2354366667,0.0,0.0,0.0,0.0,0.0,0.0,0.0,0.0,0.0,0.0,0.0,183405,-0.3260439634,0.0,-0.1710586101,0.0619857535,90.0,90.0,90.0,96.32057189940001,92.81916046139999,97.08451080319999,25.540000915500002,15.546557426500001,25.459999084499998,0,2,25,1,63,475
84,1530902054228,113228, RC,0,39.9586186,-88.445067899,0,-17853.5748465955,9425.9036411695,20189.051346103402,-17853.7221045374,9423.4763673252,0.0398217104,0.0,-17853.5646195808,9423.5263188036,0.2099917379,12.7645508874,0.0,0.0,1336,1500,40.043365959,-88.2354655513,40.0433658333,-88.2354366667,0.0,0.0,0.0,0.0,0.0,0.0,0.0,0.0,0.0,0.0,0.0,183405,-0.3260439634,0.0,-0.151193738,0.0715503171,90.0,90.0,90.0,96.19325256350001,94.0923995972,96.19325256350001,25.540000915500002,15.546557426500001,25.459999084499998,0,2,25,1,59,477
85,1530902054278,113278, RC,0,39.9586186,-88.445067899,0,-17853.5748465955,9425.9036411695,20189.051346103402,-17853.7221045374,9423.4763673252,0.026486489900000004,0.0,-17853.5646195808,9423.5263188036,0.2099917379,12.7645508874,0.0,0.0,1331,1500,40.043365959,-88.2354655513,40.0433658333,-88.2354366667,0.0,0.0,0.0,0.0,0.0,0.0,0.0,0.0,0.0,0.0,0.0,183405,-0.3367940187,0.0,-0.1339039356,0.0809309557,90.0,90.0,90.0,95.62029266360001,95.36563873290001,96.12958526610001,25.540000915500002,15.546557426500001,25.459999084499998,0,2,25,1,63,480
86,1530902054329,113329, RC,0,39.9586186,-88.445067899,0,-17853.5457872412,9425.9005542183,20189.0242071065,-17853.7298890144,9423.472290178399,0.010668173400000001,0.0,-17853.5355602265,9423.5232318524,0.20802738489999997,12.745476756199999,0.0,0.0,1331,1500,40.0433659223,-88.23546546,40.0433658333,-88.2354366667,0.0,0.0,0.0,0.0,0.0,0.0,0.0,0.0,0.0,0.0,0.0,183405,-0.3367940187,0.0,-0.1219482347,0.10061188789999999,90.0,90.0,90.0,95.55662536620001,95.6839523315,95.8749313354,25.540000915500002,15.546557426500001,25.459999084499998,0,2,25,1,64,482
87,1530902054379,113379, RC,0,39.9586186,-88.445067899,0,-17853.5457872412,9425.9005542183,20189.0242071065,-17853.7248703062,9423.4785356263,0.0033108145,0.0,-17853.5355602265,9423.5232318524,0.20802738489999997,12.745476756199999,0.0,0.0,1331,1500,40.0433659785,-88.2354655188,40.0433658333,-88.2354366667,0.0,0.0,0.0,0.0,0.0,0.0,0.0,0.0,0.0,0.0,0.0,183405,-0.3367940187,0.0,-0.1184534952,0.11183186619999999,90.0,90.0,90.0,96.0659179688,96.44789123540001,95.36563873290001,25.540000915500002,15.546557426500001,25.459999084499998,0,2,25,1,60,484
88,1530902054430,113430, RC,0,39.9586186,-88.445067899,0,-17853.5232318207,9425.8992487963,20189.0036514341,-17853.7248703062,9423.4785356263,0.0005518012,0.0,-17853.513004806002,9423.5219264304,0.2049385646,12.7336571999,0.0,0.0,1331,1500,40.0433659785,-88.2354655188,40.0433658333,-88.2354366667,0.0,0.0,0.0,0.0,0.0,0.0,0.0,0.0,0.0,0.0,0.0,183405,-0.3367940187,0.0,-0.1182695553,0.1193731576,90.0,90.0,90.0,95.6839523315,96.6388778687,95.04733276370001,25.540000915500002,15.546557426500001,25.459999084499998,0,2,25,1,61,488
89,1530902054480,113480, RC,0,39.9586186,-88.445067899,0,-17853.5232318207,9425.8992487963,20189.0036514341,-17853.7248703062,9423.4785356263,0.0078171939,0.0,-17853.513004806002,9423.5219264304,0.2049385646,12.7336571999,0.0,0.0,1331,1500,40.0433659785,-88.2354655188,40.0433658333,-88.2354366667,0.0,0.0,0.0,0.0,0.0,0.0,0.0,0.0,0.0,0.0,0.0,183405,-0.3367940187,0.0,-0.1171659529,0.1328003407,90.0,90.0,90.0,95.23831939700001,96.8298721313,94.85634613040001,25.540000915500002,15.546557426500001,25.459999084499998,0,2,25,1,61,491
90,1530902054530,113530, RC,0,39.9586186,-88.445067899,0,-17853.5078547577,9425.8994320043,20188.9901387403,-17853.725713446398,9423.4858930249,0.0164620914,0.0,-17853.497627743,9423.5221096384,0.2018053994,12.7268504823,0.0,0.0,1331,1500,40.0433660447,-88.23546550879999,40.0433658333,-88.2354366667,0.0,0.0,0.0,0.0,0.0,0.0,0.0,0.0,0.0,0.0,0.0,183405,-0.3367940187,0.0,-0.10741745679999999,0.1403416395,90.0,90.0,90.0,95.4929656982,96.8935317993,94.9200057983,25.540000915500002,15.546557426500001,25.459999084499998,0,2,25,1,58,494
91,1530902054581,113581, RC,0,39.9586186,-88.445067899,0,-17853.5078547577,9425.8994320043,20188.9901387403,-17853.725713446398,9423.4858930249,0.0267623961,0.0,-17853.497627743,9423.5221096384,0.2018053994,12.7268504823,0.0,0.0,1500,1500,40.0433660447,-88.23546550879999,40.0433658333,-88.2354366667,0.0,0.0,0.0,0.0,0.0,0.0,0.0,0.0,0.0,0.0,0.0,183405,0.0,0.0,-0.0936224014,0.1471471936,90.0,90.0,90.0,95.62029266360001,96.8935317993,95.04733276370001,25.0019989014,15.546557426500001,25.459999084499998,0,2,25,1,68,497
92,1530902054631,113631, RC,0,39.9586186,-88.445067899,0,-17853.5078547577,9425.8994320043,20188.9901387403,-17853.725713446398,9423.4858930249,0.0419369489,0.0,-17853.497627743,9423.5221096384,0.2018053994,12.7268504823,0.0,0.0,1500,1500,40.0433660447,-88.23546550879999,40.0433658333,-88.2354366667,0.0,0.0,0.0,0.0,0.0,0.0,0.0,0.0,0.0,0.0,0.0,183405,0.0,0.0,-0.060882151100000004,0.14475604890000002,90.0,90.0,90.0,95.36563873290001,96.8298721313,95.23831939700001,25.0019989014,15.546557426500001,25.459999084499998,0,2,25,1,65,499
93,1530902054682,113682, RC,0,39.9586186,-88.445067899,0,-17853.5078547577,9425.8994320043,20188.9901387403,-17853.7190228171,9423.4893585997,0.0337518863,0.0,-17853.497627743,9423.5221096384,0.2018053994,12.7268504823,0.0,0.0,1500,1500,40.0433660758,-88.2354655873,40.0433658333,-88.2354366667,0.0,0.0,0.0,0.0,0.0,0.0,0.0,0.0,0.0,0.0,0.0,183406,0.0,0.0,-0.036418929700000005,0.1039227024,90.0,90.0,90.0,95.81127929690001,96.76620483399999,95.23831939700001,25.540000915500002,15.546557426500001,25.459999084499998,0,2,25,1,68,502
94,1530902054732,113732, RC,0,39.9586186,-88.445067899,0,-17853.498185743898,9425.9003044527,20188.9819955797,-17853.7190228171,9423.4893585997,0.0267623961,0.0,-17853.487958729198,9423.5229820868,0.2007509199,12.7242170055,0.0,0.0,1500,1500,40.0433660758,-88.2354655873,40.0433658333,-88.2354366667,0.0,0.0,0.0,0.0,0.0,0.0,0.0,0.0,0.0,0.0,0.0,183406,0.0,0.0,-0.0274061635,0.0809309557,90.0,90.0,90.0,96.0659179688,96.3842315674,95.4929656982,25.540000915500002,15.546557426500001,25.459999084499998,0,2,25,1,66,505
95,1530902054783,113783, RC,0,39.9586186,-88.445067899,0,-17853.498185743898,9425.9003044527,20188.9819955797,-17853.7259688517,9423.4860042189,0.0203247052,0.0,-17853.487958729198,9423.5229820868,0.2007509199,12.7242170055,0.0,0.0,1500,1377,40.043366045700004,-88.2354655058,40.0433658333,-88.2354366667,0.0,0.0,0.0,0.0,0.0,0.0,0.0,0.0,0.0,0.0,0.0,183406,0.0,-0.24504399300000002,-0.021336343100000002,0.0619857535,90.0,90.0,90.0,95.74761199950001,94.9200057983,95.62029266360001,25.540000915500002,15.546557426500001,25.459999084499998,0,2,25,1,64,507
96,1530902054833,113833, RC,0,39.9586186,-88.445067899,0,-17853.4983726988,9425.8999237996,20188.9819831868,-17853.7259688517,9423.4860042189,0.0045983503,0.0,-17853.4881456841,9423.5226014337,0.19935153449999998,12.7228919055,0.0,0.0,1500,1377,40.043366045700004,-88.2354655058,40.0433658333,-88.2354366667,0.0,0.0,0.0,0.0,0.0,0.0,0.0,0.0,0.0,0.0,0.0,183406,0.0,-0.24504399300000002,-0.0220720787,0.0312687792,90.0,90.0,90.0,95.62029266360001,94.4743804932,95.6839523315,25.540000915500002,15.546557426500001,25.459999084499998,0,2,25,1,61,510
97,1530902054884,113884, RC,0,39.9586186,-88.445067899,0,-17853.4983726988,9425.8999237996,20188.9819831868,-17853.7259688517,9423.4860042189,0.025382891299999998,0.0,-17853.4881456841,9423.5226014337,0.19935153449999998,12.7228919055,0.0,0.0,1500,1315,40.043366045700004,-88.2354655058,40.0433658333,-88.2354366667,0.0,0.0,0.0,0.0,0.0,0.0,0.0,0.0,0.0,0.0,0.0,183406,0.0,-0.3680210114,-0.0301651731,-0.0206006076,90.0,90.0,90.0,95.4929656982,94.28338623049999,95.8749313354,25.540000915500002,15.546557426500001,25.459999084499998,0,2,25,1,57,512
98,1530902054934,113934, RC,0,39.9586186,-88.445067899,0,-17853.5065635826,9425.8981510054,20188.9883988528,-17853.7266808112,9423.4841880353,0.07007884980000001,0.0,-17853.4963365679,9423.520828639499,0.19696243940000002,12.7212635553,0.0,0.0,1500,1315,40.043366029299996,-88.2354654975,40.0433645,-88.2354371667,0.0,0.0,0.0,0.0,0.0,0.0,0.0,0.0,0.0,0.0,0.0,183406,0.0,-0.3680210114,-0.042304817599999996,-0.0978528857,90.0,90.0,90.0,94.5380325317,93.96508026120001,96.19325256350001,25.540000915500002,15.546557426500001,25.459999084499998,0,2,25,1,55,515
99,1530902054985,113985, RC,0,39.9586186,-88.445067899,0,-17853.5065635826,9425.8981510054,20188.9883988528,-17853.718201828302,9423.475236844,0.1015315577,0.0,-17853.4963365679,9423.520828639499,0.19696243940000002,12.7212635553,0.0,0.0,1500,1277,40.0433659488,-88.23546559719999,40.0433645,-88.2354371667,0.0,0.0,0.0,0.0,0.0,0.0,0.0,0.0,0.0,0.0,0.0,183406,0.0,-0.4441130161,-0.0535247922,-0.1495383233,90.0,90.0,90.0,94.15606689450001,93.6467666626,96.3842315674,25.540000915500002,15.546557426500001,25.459999084499998,0,2,25,1,51,517
100,1530902055035,114035, RC,0,39.9586186,-88.445067899,0,-17853.519920681698,9425.8937495885,20188.9981558449,-17853.718201828302,9423.475236844,0.1365709901,0.0,-17853.509693666998,9423.5164272226,0.1893437177,12.7151489004,0.0,0.0,1500,1277,40.0433659488,-88.23546559719999,40.0433645,-88.2354371667,0.0,0.0,0.0,0.0,0.0,0.0,0.0,0.0,0.0,0.0,0.0,183406,0.0,-0.4441130161,-0.0803791583,-0.19276282190000002,90.0,90.0,90.0,94.85634613040001,93.9014129639,96.2569046021,25.540000915500002,15.546557426500001,25.459999084499998,0,2,25,1,62,520
101,1530902055086,114086, RC,0,39.9586186,-88.445067899,0,-17853.519920681698,9425.8937495885,20188.9981558449,-17853.718201828302,9423.475236844,0.1594707668,0.0,-17853.509693666998,9423.5164272226,0.1893437177,12.7151489004,0.0,0.0,1500,1253,40.0433659488,-88.23546559719999,40.0433645,-88.2354371667,0.0,0.0,0.0,0.0,0.0,0.0,0.0,0.0,0.0,0.0,0.0,183406,0.0,-0.4934960008,-0.10631384699999999,-0.21262769399999998,90.0,90.0,90.0,95.6839523315,94.729019165,96.0659179688,25.540000915500002,15.525888443,20.7799987793,0,2,25,1,64,522
102,1530902055136,114136, RC,0,39.9586186,-88.445067899,0,-17853.519920681698,9425.8937495885,20188.9981558449,-17853.7064464915,9423.4757742857,0.2026952505,0.0,-17853.509693666998,9423.5164272226,0.1893437177,12.7151489004,0.0,0.0,1500,1253,40.0433659537,-88.23546573520001,40.0433645,-88.2354371667,0.0,0.0,0.0,0.0,0.0,0.0,0.0,0.0,0.0,0.0,0.0,183406,0.0,-0.4934960008,-0.1568956822,-0.2484948337,90.0,90.0,90.0,95.74761199950001,95.04733276370001,95.74761199950001,25.540000915500002,15.525888443,20.7799987793,0,2,25,1,67,525
103,1530902055186,114186, RC,0,39.9586186,-88.445067899,0,-17853.534164001398,9425.8888092415,20189.0084449274,-17853.7064464915,9423.4757742857,0.2439884394,0.0,-17853.523936986698,9423.5114868756,0.1824627063,12.705294826800001,0.0,0.0,1500,1241,40.0433659537,-88.23546573520001,40.0433645,-88.2354371667,0.0,0.0,0.0,0.0,0.0,0.0,0.0,0.0,0.0,0.0,0.0,183406,0.0,-0.5170220137,-0.2028791904,-0.2850976884,90.0,90.0,90.0,95.81127929690001,95.36563873290001,95.4929656982,25.540000915500002,15.525888443,20.7799987793,0,2,25,1,66,527
104,1530902055237,114237, RC,0,39.9586186,-88.445067899,0,-17853.534164001398,9425.8888092415,20189.0084449274,-17853.6857244887,9423.483687658001,0.2765447497,0.0,-17853.523936986698,9423.5114868756,0.1824627063,12.705294826800001,0.0,0.0,1500,1241,40.0433660248,-88.2354659783,40.0433645,-88.2354371667,0.0,0.0,0.0,0.0,0.0,0.0,0.0,0.0,0.0,0.0,0.0,183406,0.0,-0.5170220137,-0.240585655,-0.3125038445,90.0,90.0,90.0,95.55662536620001,95.55662536620001,95.3019790649,25.540000915500002,15.525888443,20.7799987793,0,2,25,1,82,530
105,1530902055287,114287, RC,0,39.9586186,-88.445067899,0,-17853.546113371598,9425.885164653,20189.017310397,-17853.6427211149,9423.4976055561,0.3222523332,0.0,-17853.535886356898,9423.5078422871,0.17078512989999997,12.695663206199999,0.0,0.0,1500,1241,40.04336615,-88.235466483,40.0433645,-88.2354371667,0.0,0.0,0.0,0.0,0.0,0.0,0.0,0.0,0.0,0.0,0.0,183406,0.0,-0.5170220137,-0.2898799777,-0.35462471840000004,90.0,90.0,90.0,95.23831939700001,95.62029266360001,95.23831939700001,25.540000915500002,15.525888443,20.7799987793,0,2,25,1,84,532
106,1530902055338,114338, RC,0,39.9586186,-88.445067899,0,-17853.5450735729,9425.8845722065,20189.01611428,-17853.6427211149,9423.4976055561,0.3597748876,0.0,-17853.5348465582,9423.5072498406,0.1568698157,12.690220256300002,0.0,0.0,1500,1241,40.04336615,-88.235466483,40.0433645,-88.2354371667,0.0,0.0,0.0,0.0,0.0,0.0,0.0,0.0,0.0,0.0,0.0,183406,0.0,-0.5170220137,-0.3316330016,-0.3879167736,90.0,90.0,90.0,95.1109924316,95.36563873290001,95.4929656982,25.540000915500002,15.525888443,20.7799987793,0,2,25,1,82,535
107,1530902055389,114389, RC,0,39.9586186,-88.445067899,0,-17853.5450735729,9425.8845722065,20189.01611428,-17853.5955860121,9423.5119867671,0.41155231,0.0,-17853.5348465582,9423.5072498406,0.1568698157,12.690220256300002,0.0,0.0,1500,1229,40.043366279299995,-88.2354670362,40.0433645,-88.2354371667,0.0,0.0,0.0,0.0,0.0,0.0,0.0,0.0,0.0,0.0,0.0,183406,0.0,-0.5400999784,-0.3881007135,-0.4350038767,90.0,90.0,90.0,95.74761199950001,95.174659729,96.0659179688,25.540000915500002,15.525888443,20.7799987793,0,2,25,1,87,537
108,1530902055439,114439, RC,0,39.9586186,-88.445067899,0,-17853.5301772087,9425.8868322427,20189.0039963033,-17853.5955860121,9423.5119867671,0.4419013858,0.0,-17853.519950194,9423.5095098768,0.1444484778,12.688314206,0.0,0.0,1500,1229,40.043366279299995,-88.2354670362,40.0433645,-88.2354371667,0.0,0.0,0.0,0.0,0.0,0.0,0.0,0.0,0.0,0.0,0.0,183406,0.0,-0.5400999784,-0.4241517782,-0.4596510231,90.0,90.0,90.0,96.00226593020001,94.9200057983,96.19325256350001,25.540000915500002,15.525888443,20.7799987793,0,2,25,1,73,540
