,(0)linux time (ms),    (1)uptime  (ms),      (2)drive mode,(3)mpc step counter,(4)mpc origin latitude  (deg),(5)mpc origin longitude  (deg),(6)closest trajectory point index to robot,(7)mpc error x (W;E)  (m),(8)mpc error y (W;E)  (m),(9)abs mpc error (m),(10)input [x] for mhe (m),(11)input [y] for mhe (m),(12)input [speed] for mhe (m/s),(13)input [vyaw] for mhe (rad/s),(14)mhe output x  (m),(15)mhe output y  (m),(16)mhe output speed  (m/s),(17)mhe output yaw  (rad),(18)mpc reference heading (rad),(19)mpc turn rate command (rad/s),(20)turn rate command as PWM,(21)throttle command as PWM,(22)primary gps latitude (deg),(23)primary gps longitude (deg),(24)secondary gps latitude  (deg),(25)secondary gps longitude (deg),(26)accelerometer x (m/s^2),(27)accelerometer y (m/s^2),(28)accelerometer z (m/s^2),(29)gyro yaw rate (rad/s),(30)gyro pitch rate   (rad/s),(31)gyro roll rate (rad/s),      (32)yaw (rad),  (33)pitch   (rad),     (34)roll (rad),(35)sonar1 measurement (m),(36)ultrasonic sensor measurement (m),(37)primary gps time (s),(38)normalized turn rate command,(39)normalized throttle command,(40)speed calculation from encoder left (m/s),(41)speed calculation from encoder right (m/s),(42)front gimbal target angle (degrees from straight down),(43)left gimbal target angle  (degrees from straight down),(44)right gimbal target angle  (degrees from straight down),(45)front gimbal measured angle  (degrees from straight down),(46)left gimbal measured angle    (degrees from straight down),(47)right gimbal measured angle  (degrees from straight down),(48)internal temperature (C),(49)battery voltage (V),(50)primary gps type,(51)secondary gps type,    (52)MPC R value, (53)MPC Q[0] value,Unnamed: 54,weed_num,start
0,1530905237744,475744, RC,0,39.9586186,-88.445067899,0,-17844.0293880829,9438.355354020401,20186.4295156804,-17844.0518182473,9436.19539901,0.0078171948,0.0,-17844.0191610682,9435.9780316545,0.2921965922,11.1469705175,0.0,0.0,1500,1500,40.043480344,-88.2355789048,40.0435635,-88.2355738333,0.0,0.0,0.0,0.0,0.0,0.0,0.0,0.0,0.0,0.0,0.0,192712,0.0,0.0,0.0091966996,0.0064376895,90.0,90.0,90.0,96.2569046021,96.0659179688,97.5938110352,50.2870025635,16.0194969177,16.3800010681,0,2,25,1,67,1912
1,1530905237794,475794, RC,0,39.9586186,-88.445067899,0,-17844.0297566066,9438.359303731899,20186.4316881663,-17844.0518182473,9436.19539901,0.0059778546,0.0,-17844.0195295919,9435.981981366,0.266017293,11.146684260399999,0.0,0.0,1500,1500,40.043480344,-88.2355789048,40.0435635,-88.2355738333,0.0,0.0,0.0,0.0,0.0,0.0,0.0,0.0,0.0,0.0,0.0,192712,0.0,0.0,0.006989491600000001,0.0049662176,90.0,90.0,90.0,96.2569046021,95.93859863280001,97.27549743649999,50.2870025635,16.0194969177,16.3800010681,0,2,25,1,58,1914
2,1530905237845,475845, RC,0,39.9586186,-88.445067899,0,-17844.0319593634,9438.368115339399,20186.4377552712,-17844.055993518898,9436.1941202682,0.004966218,0.0,-17844.0217323487,9435.9907929735,0.23951008059999998,11.1442228741,0.0,0.0,1500,1500,40.0434803325,-88.2355788558,40.0435635,-88.2355738333,0.0,0.0,0.0,0.0,0.0,0.0,0.0,0.0,0.0,0.0,0.0,192712,0.0,0.0,0.0058858879,0.0040465477,90.0,90.0,90.0,96.2569046021,95.8749313354,97.27549743649999,50.2870025635,16.0283546448,3.0799999237,0,2,25,1,68,1916
3,1530905237899,475899, RC,0,39.9586186,-88.445067899,0,-17844.0319593634,9438.368115339399,20186.4377552712,-17844.055993518898,9436.1941202682,0.0037706469,0.0,-17844.0217323487,9435.9907929735,0.23951008059999998,11.1442228741,0.0,0.0,1500,1500,40.0434803325,-88.2355788558,40.0435635,-88.2355738333,0.0,0.0,0.0,0.0,0.0,0.0,0.0,0.0,0.0,0.0,0.0,192712,0.0,0.0,0.0044144159,0.0031268778000000004,90.0,90.0,90.0,96.2569046021,95.81127929690001,97.14817810059999,50.2870025635,16.0283546448,3.0799999237,0,2,25,1,65,1918
4,1530905237949,475949, RC,0,39.9586186,-88.445067899,0,-17844.0352660998,9438.379376655,20186.4459436395,-17844.0599822748,9436.1945094508,0.0030349107000000003,0.0,-17844.0250390851,9436.0020542891,0.21275683969999998,11.139350387999999,0.0,0.0,1500,1500,40.043480336,-88.235578809,40.0435635,-88.2355738333,0.0,0.0,0.0,0.0,0.0,0.0,0.0,0.0,0.0,0.0,0.0,192712,0.0,0.0,0.0036786796999999996,0.0023911418,90.0,90.0,90.0,96.2569046021,95.74761199950001,97.14817810059999,50.2870025635,16.0283546448,3.0799999237,0,2,25,1,68,1919
5,1530905238000,476000, RC,0,39.9586186,-88.445067899,0,-17844.0352660998,9438.379376655,20186.4459436395,-17844.0599822748,9436.1945094508,0.0022991749,0.0,-17844.0250390851,9436.0020542891,0.21275683969999998,11.139350387999999,0.0,0.0,1500,1500,40.043480336,-88.235578809,40.0435635,-88.2355738333,0.0,0.0,0.0,0.0,0.0,0.0,0.0,0.0,0.0,0.0,0.0,192712,0.0,0.0,0.0027590097999999996,0.0018393398,90.0,90.0,90.0,96.2569046021,95.74761199950001,97.2118453979,50.2870025635,16.0283546448,3.0799999237,0,2,25,1,70,1921
6,1530905238050,476050, RC,0,39.9586186,-88.445067899,0,-17844.0352660998,9438.379376655,20186.4459436395,-17844.059245321398,9436.1934345658,0.00183934,0.0,-17844.0250390851,9436.0020542891,0.21275683969999998,11.139350387999999,0.0,0.0,1500,1500,40.0434803263,-88.2355788177,40.0435635,-88.2355738333,0.0,0.0,0.0,0.0,0.0,0.0,0.0,0.0,0.0,0.0,0.0,192712,0.0,0.0,0.002207208,0.0014714720000000001,90.0,90.0,90.0,96.2569046021,95.6839523315,97.08451080319999,50.2870025635,16.0283546448,3.0799999237,0,2,25,1,71,1923
7,1530905238101,476101, RC,0,39.9586186,-88.445067899,0,-17844.0383780938,9438.390107331601,20186.4537117608,-17844.059245321398,9436.1934345658,0.0013795048999999998,0.0,-17844.0281510791,9436.0127849657,0.1851827429,11.133909516,0.0,0.0,1500,1500,40.0434803263,-88.2355788177,40.0435635,-88.2355738333,0.0,0.0,0.0,0.0,0.0,0.0,0.0,0.0,0.0,0.0,0.0,192712,0.0,0.0,0.0016554058999999999,0.001103604,90.0,90.0,90.0,96.2569046021,95.62029266360001,97.02085876459999,49.75,16.0283546448,3.0799999237,0,2,25,1,72,1925
8,1530905238151,476151, RC,0,39.9586186,-88.445067899,0,-17844.0383780938,9438.390107331601,20186.4537117608,-17844.059245321398,9436.1934345658,0.001103604,0.0,-17844.0281510791,9436.0127849657,0.1851827429,11.133909516,0.0,0.0,1500,1500,40.0434803263,-88.2355788177,40.0435635,-88.2355738333,0.0,0.0,0.0,0.0,0.0,0.0,0.0,0.0,0.0,0.0,0.0,192712,0.0,0.0,0.001287538,0.0009196699,90.0,90.0,90.0,96.2569046021,95.55662536620001,97.02085876459999,49.75,16.0283546448,3.0799999237,0,2,25,1,85,1927
9,1530905238202,476202, RC,0,39.9586186,-88.445067899,0,-17844.0383780938,9438.390107331601,20186.4537117608,-17844.059245321398,9436.1934345658,0.00091967,0.0,-17844.0281510791,9436.0127849657,0.1851827429,11.133909516,0.0,0.0,1500,1500,40.0434803263,-88.2355788177,40.0435635,-88.2355738333,0.0,0.0,0.0,0.0,0.0,0.0,0.0,0.0,0.0,0.0,0.0,192712,0.0,0.0,0.001103604,0.0007357360000000001,90.0,90.0,90.0,96.2569046021,95.4929656982,97.08451080319999,49.75,16.0283546448,3.0799999237,0,2,25,1,77,1929
10,1530905238253,476253, RC,0,39.9586186,-88.445067899,0,-17844.0383780938,9438.390107331601,20186.4537117608,-17844.0572897127,9436.1904508351,0.000643769,0.0,-17844.0281510791,9436.0127849657,0.1851827429,11.133909516,0.0,0.0,1500,1500,40.0434802995,-88.2355788407,40.0435635,-88.2355738333,0.0,0.0,0.0,0.0,0.0,0.0,0.0,0.0,0.0,0.0,0.0,192713,0.0,0.0,0.0007357360000000001,0.000551802,90.0,90.0,90.0,96.2569046021,95.4929656982,97.08451080319999,49.75,16.0283546448,3.0799999237,0,2,25,1,86,1931
11,1530905238303,476303, RC,0,39.9586186,-88.445067899,0,-17844.0409583053,9438.3999647956,20186.4606015302,-17844.0588356907,9436.1916739799,0.000459835,0.0,-17844.0307312906,9436.0226424297,0.1559128775,11.128745639000002,0.0,0.0,1500,1500,40.0434803105,-88.2355788225,40.0435635,-88.2355738333,0.0,0.0,0.0,0.0,0.0,0.0,0.0,0.0,0.0,0.0,0.0,192713,0.0,0.0,0.000551802,0.00036786800000000004,90.0,90.0,90.0,96.2569046021,95.42930603030001,97.08451080319999,50.2870025635,16.0283546448,3.0799999237,0,2,25,1,89,1932
12,1530905238356,476356, RC,0,39.9586186,-88.445067899,0,-17844.0441090546,9438.4066069329,20186.4664922735,-17844.0592557313,9436.1845760373,0.000459835,0.0,-17844.0338820399,9436.029284567,0.0945637321,11.1211333872,0.0,0.0,1500,1500,40.0434802467,-88.2355788177,40.0435635,-88.2355738333,0.0,0.0,0.0,0.0,0.0,0.0,0.0,0.0,0.0,0.0,0.0,192713,0.0,0.0,0.000551802,0.00036786800000000004,90.0,90.0,90.0,96.2569046021,95.42930603030001,97.08451080319999,50.2870025635,16.0283546448,3.0799999237,0,2,25,1,73,1934
13,1530905238406,476406, RC,0,39.9586186,-88.445067899,0,-17844.0441090546,9438.4066069329,20186.4664922735,-17844.0595160779,9436.1925635392,0.000275901,0.0,-17844.0338820399,9436.029284567,0.0945637321,11.1211333872,0.0,0.0,1500,1500,40.0434803185,-88.2355788145,40.0435635,-88.2355738333,0.0,0.0,0.0,0.0,0.0,0.0,0.0,0.0,0.0,0.0,0.0,192713,0.0,0.0,0.00036786800000000004,0.00018393400000000002,90.0,90.0,90.0,96.32057189940001,95.36563873290001,96.6388778687,50.2870025635,16.0283546448,3.0799999237,0,2,25,1,85,1936
14,1530905238457,476457, RC,0,39.9586186,-88.445067899,0,-17844.0457174942,9438.4113790953,20186.470145348798,-17844.0595160779,9436.1925635392,0.00018393400000000002,0.0,-17844.0354904795,9436.034056729399,0.0644015818,11.118627866199999,0.0,0.0,1500,1500,40.0434803185,-88.2355788145,40.0435595,-88.2355735,0.0,0.0,0.0,0.0,0.0,0.0,0.0,0.0,0.0,0.0,0.0,192713,0.0,0.0,0.00018393400000000002,0.00018393400000000002,90.0,90.0,90.0,96.32057189940001,95.93859863280001,96.5752182007,49.75,16.0283546448,3.0799999237,0,2,25,1,82,1938
15,1530905238507,476507, RC,0,39.9586186,-88.445067899,0,-17844.0457174942,9438.4113790953,20186.470145348798,-17844.0595160779,9436.1925635392,0.00018393400000000002,0.0,-17844.0354904795,9436.034056729399,0.0644015818,11.118627866199999,0.0,0.0,1500,1500,40.0434803185,-88.2355788145,40.0435595,-88.2355735,0.0,0.0,0.0,0.0,0.0,0.0,0.0,0.0,0.0,0.0,0.0,192713,0.0,0.0,0.00018393400000000002,0.00018393400000000002,90.0,90.0,90.0,96.32057189940001,95.93859863280001,96.5752182007,49.75,16.0283546448,3.0799999237,0,2,25,1,73,1940
16,1530905238557,476557, RC,0,39.9586186,-88.445067899,0,-17844.0457174942,9438.4113790953,20186.470145348798,-17844.0614036041,9436.180999267099,0.00018393400000000002,0.0,-17844.0354904795,9436.034056729399,0.0644015818,11.118627866199999,0.0,0.0,1500,1500,40.0434802145,-88.2355787925,40.0435595,-88.2355735,0.0,0.0,0.0,0.0,0.0,0.0,0.0,0.0,0.0,0.0,0.0,192713,0.0,0.0,0.00018393400000000002,0.00018393400000000002,90.0,90.0,90.0,96.32057189940001,95.93859863280001,96.6388778687,49.75,16.0283546448,3.0799999237,0,2,25,1,71,1942
17,1530905238608,476608, RC,0,39.9586186,-88.445067899,0,-17844.047562666598,9438.417028555,20186.4744178776,-17844.0614036041,9436.180999267099,0.00018393400000000002,0.0,-17844.0373356519,9436.0397061891,0.0394118389,11.116886563900001,0.0,0.0,1500,1849,40.0434802145,-88.2355787925,40.0435595,-88.2355735,0.0,0.0,0.0,0.0,0.0,0.0,0.0,0.0,0.0,0.0,0.0,192713,0.0,0.6996250153,0.00018393400000000002,0.00018393400000000002,90.0,90.0,90.0,96.32057189940001,95.93859863280001,96.6388778687,49.75,16.0283546448,3.0799999237,0,2,25,1,68,1944
18,1530905238658,476658, RC,0,39.9586186,-88.445067899,0,-17844.0486302441,9438.421624405699,20186.4775104168,-17844.0545952766,9436.1759028324,0.001747373,0.0,-17844.0384032294,9436.0443020398,0.022362733,11.116007105,0.0,0.0,1500,1849,40.0434801687,-88.2355788725,40.0435595,-88.2355735,0.0,0.0,0.0,0.0,0.0,0.0,0.0,0.0,0.0,0.0,0.0,192713,0.0,0.6996250153,0.001287538,0.002207208,90.0,90.0,90.0,96.32057189940001,95.8749313354,96.6388778687,49.75,16.0283546448,3.0799999237,0,2,25,1,75,1946
19,1530905238709,476709, RC,0,39.9586186,-88.445067899,0,-17844.0486302441,9438.421624405699,20186.4775104168,-17844.0545952766,9436.1759028324,0.061617888499999995,0.0,-17844.0384032294,9436.0443020398,0.022362733,11.116007105,0.0,0.0,1500,1849,40.0434801687,-88.2355788725,40.0435595,-88.2355735,0.0,0.0,0.0,0.0,0.0,0.0,0.0,0.0,0.0,0.0,0.0,192713,0.0,0.6996250153,0.0448798947,0.078355886,90.0,90.0,90.0,96.32057189940001,95.8749313354,96.6388778687,50.2870025635,16.0283546448,3.0799999237,0,2,25,1,77,1947
20,1530905238759,476759, RC,0,39.9586186,-88.445067899,0,-17844.0479819154,9438.421407817901,20186.4768360518,-17844.047361121102,9436.1707508013,0.1663682908,0.0,-17844.0377549007,9436.044085452,0.022243586,11.1155378551,0.0,0.0,1500,1849,40.043480122300004,-88.2355789575,40.0435595,-88.2355735,0.0,0.0,0.0,0.0,0.0,0.0,0.0,0.0,0.0,0.0,0.0,192713,0.0,0.6996250153,0.1136712059,0.2190653682,90.0,90.0,90.0,96.6388778687,96.2569046021,96.2569046021,50.2870025635,16.0283546448,3.0799999237,0,2,25,1,73,1949
21,1530905238810,476810, RC,0,39.9586186,-88.445067899,0,-17844.0479819154,9438.421407817901,20186.4768360518,-17844.047361121102,9436.1707508013,0.2227440625,0.0,-17844.0377549007,9436.044085452,0.022243586,11.1155378551,0.0,0.0,1500,1849,40.043480122300004,-88.2355789575,40.0435595,-88.2355735,0.0,0.0,0.0,0.0,0.0,0.0,0.0,0.0,0.0,0.0,0.0,192713,0.0,0.6996250153,0.17436942460000002,0.27111870050000003,90.0,90.0,90.0,97.08451080319999,96.5752182007,95.81127929690001,49.75,16.0283546448,3.0799999237,0,2,25,1,76,1951
22,1530905238860,476860, RC,0,39.9586186,-88.445067899,0,-17844.0462954649,9438.4171287188,20186.473344554,-17844.0374250148,9436.1695276565,0.3056982756,0.0,-17844.0360684502,9436.039806352901,0.0323743383,11.1152491055,0.0,0.0,1500,1849,40.0434801113,-88.2355790742,40.0435595,-88.2355735,0.0,0.0,0.0,0.0,0.0,0.0,0.0,0.0,0.0,0.0,0.0,192713,0.0,0.6996250153,0.27479738,0.336599201,90.0,90.0,90.0,97.14817810059999,97.02085876459999,95.36563873290001,49.75,16.0054893494,35.2999992371,0,2,25,1,70,1953
23,1530905238910,476910, RC,0,39.9586186,-88.445067899,0,-17844.0462954649,9438.4171287188,20186.473344554,-17844.0343435504,9436.1581487088,0.3521416187,0.0,-17844.0360684502,9436.039806352901,0.0323743383,11.1152491055,0.0,0.0,1500,2000,40.043480009,-88.2355791105,40.0435595,-88.2355735,0.0,0.0,0.0,0.0,0.0,0.0,0.0,0.0,0.0,0.0,0.0,192713,0.0,1.0,0.3288739622,0.3754092753,90.0,90.0,90.0,97.2118453979,97.27549743649999,95.174659729,49.75,16.0054893494,35.2999992371,0,2,25,1,80,1955
24,1530905238961,476961, RC,0,39.9586186,-88.445067899,0,-17844.0447531738,9438.408827892199,20186.468100083897,-17844.0343435504,9436.1581487088,0.4338083267,0.0,-17844.0345261591,9436.0315055263,0.0498640974,11.115633730499999,0.0,0.0,1500,2000,40.043480009,-88.2355791105,40.0435595,-88.2355735,0.0,0.0,0.0,0.0,0.0,0.0,0.0,0.0,0.0,0.0,0.0,192713,0.0,1.0,0.4237838984,0.4438327253,90.0,90.0,90.0,97.65747070309999,96.8935317993,95.55662536620001,49.75,16.0054893494,35.2999992371,0,2,25,1,73,1957
25,1530905239011,477011, RC,0,39.9586186,-88.445067899,0,-17844.0447531738,9438.408827892199,20186.468100083897,-17844.0343435504,9436.1581487088,0.5031514168,0.0,-17844.0345261591,9436.0315055263,0.0498640974,11.115633730499999,0.0,0.0,1500,2000,40.043480009,-88.2355791105,40.0435595,-88.2355735,0.0,0.0,0.0,0.0,0.0,0.0,0.0,0.0,0.0,0.0,0.0,192713,0.0,1.0,0.5004843473,0.5058184862,90.0,90.0,90.0,97.65747070309999,96.6388778687,95.93859863280001,49.75,16.0054893494,35.2999992371,0,2,25,1,79,1958
26,1530905239062,477062, RC,0,39.9586186,-88.445067899,0,-17844.0420077967,9438.3942554135,20186.458859756298,-17844.0288909752,9436.1228628525,0.6120404005,0.0,-17844.031780782,9436.0169330476,0.0809151332,11.1175437371,0.0,0.0,1500,2000,40.0434796917,-88.235579175,40.0435595,-88.2355735,0.0,0.0,0.0,0.0,0.0,0.0,0.0,0.0,0.0,0.0,0.0,192713,0.0,1.0,0.6134198904,0.610660851,90.0,90.0,90.0,97.02085876459999,96.3842315674,97.08451080319999,49.75,16.0054893494,35.2999992371,0,2,25,1,72,1960
27,1530905239112,477112, RC,0,39.9586186,-88.445067899,0,-17844.0420077967,9438.3942554135,20186.458859756298,-17844.0288909752,9436.1228628525,0.6827629805,0.0,-17844.031780782,9436.0169330476,0.0809151332,11.1175437371,0.0,0.0,1500,2000,40.0434796917,-88.235579175,40.0435595,-88.2355735,0.0,0.0,0.0,0.0,0.0,0.0,0.0,0.0,0.0,0.0,0.0,192713,0.0,1.0,0.6925114989,0.6730145216,90.0,90.0,90.0,96.76620483399999,96.44789123540001,97.33916473389999,49.75,16.0054893494,35.2999992371,0,2,25,1,101,1962
28,1530905239163,477163, RC,0,39.9586186,-88.445067899,0,-17844.0420077967,9438.3942554135,20186.458859756298,-17844.009676039,9436.0564053511,0.788433075,0.0,-17844.031780782,9436.0169330476,0.0809151332,11.1175437371,0.0,0.0,1500,2000,40.043479094,-88.23557940149999,40.0435595,-88.2355735,0.0,0.0,0.0,0.0,0.0,0.0,0.0,0.0,0.0,0.0,0.0,192714,0.0,1.0,0.8028718829000001,0.7739942670000001,90.0,90.0,90.0,96.32057189940001,96.5752182007,97.27549743649999,49.75,16.0054893494,35.2999992371,0,2,25,1,111,1964
29,1530905239213,477213, RC,0,39.9586186,-88.445067899,0,-17844.0363951235,9438.369616677901,20186.4423782776,-17843.9612914135,9435.962297379301,0.8621905445999999,0.0,-17844.026168108798,9435.992294312,0.127182184,11.122921910499999,0.0,0.0,1406,2000,40.0434782477,-88.2355799708,40.0435595,-88.2355735,0.0,0.0,0.0,0.0,0.0,0.0,0.0,0.0,0.0,0.0,0.0,192714,-0.1869339943,1.0,0.8861939311,0.8381871581,90.0,90.0,90.0,95.81127929690001,97.08451080319999,96.8298721313,50.2870025635,16.0054893494,35.2999992371,0,2,25,1,123,1965
30,1530905239263,477263, RC,0,39.9586186,-88.445067899,0,-17844.0238149691,9438.3264873907,20186.4110924098,-17843.9612914135,9435.962297379301,0.9210494757,0.0,-17844.0135879544,9435.9491650248,0.18090139859999999,11.1398508522,0.0,0.0,1406,2000,40.0434782477,-88.2355799708,40.0435595,-88.2355735,0.0,0.0,0.0,0.0,0.0,0.0,0.0,0.0,0.0,0.0,0.0,192714,-0.1869339943,1.0,0.9441331625,0.8979657292000001,90.0,90.0,90.0,93.5194396973,97.9757843018,95.6839523315,50.2870025635,16.0054893494,35.2999992371,0,2,25,1,142,1967
31,1530905239314,477314, RC,0,39.9586186,-88.445067899,0,-17844.0238149691,9438.3264873907,20186.4110924098,-17843.9612914135,9435.962297379301,0.9843227267,0.0,-17844.0135879544,9435.9491650248,0.18090139859999999,11.1398508522,0.0,0.0,1325,2000,40.0434782477,-88.2355799708,40.0435595,-88.2355735,0.0,0.0,0.0,0.0,0.0,0.0,0.0,0.0,0.0,0.0,0.0,192714,-0.34825199840000004,1.0,0.9592157602,1.0094296932,90.0,90.0,90.0,93.96508026120001,99.9493103027,93.7104263306,50.2870025635,16.0054893494,35.2999992371,0,2,25,1,122,1969
32,1530905239364,477364, RC,0,39.9586186,-88.445067899,0,-17844.0238149691,9438.3264873907,20186.4110924098,-17843.9435696886,9435.857403497801,1.015131712,0.0,-17844.0135879544,9435.9491650248,0.18090139859999999,11.1398508522,0.0,0.0,1325,2000,40.0434773043,-88.2355801803,40.0435595,-88.2355735,0.0,0.0,0.0,0.0,0.0,0.0,0.0,0.0,0.0,0.0,0.0,192714,-0.34825199840000004,1.0,0.948731482,1.0815318823,90.0,90.0,90.0,95.81127929690001,100.5222625732,94.9200057983,50.2870025635,16.0054893494,35.2999992371,0,2,25,1,119,1971
33,1530905239415,477415, RC,0,39.9586186,-88.445067899,0,-17844.0017661604,9438.2609076153,20186.360939776998,-17843.9337883451,9435.772802690899,1.0616669655,0.0,-17843.9915391457,9435.8835852494,0.24288580070000002,11.1780512875,0.0,0.0,1325,2000,40.0434765435,-88.23558029629999,40.0435595,-88.2355735,0.0,0.0,0.0,0.0,0.0,0.0,0.0,0.0,0.0,0.0,0.0,192714,-0.34825199840000004,1.0,0.9058748484,1.2174590826,90.0,90.0,90.0,95.1109924316,95.3019790649,97.02085876459999,50.2870025635,16.0054893494,35.2999992371,0,2,25,1,136,1973
34,1530905239465,477465, RC,0,39.9586186,-88.445067899,0,-17843.9692179424,9438.1841979558,20186.296302328898,-17843.9337883451,9435.772802690899,1.0721511841,0.0,-17843.958990927702,9435.8068755899,0.30849746969999997,11.230422866500001,0.0,0.0,1325,2000,40.0434765435,-88.23558029629999,40.043559333299996,-88.23557316670001,0.0,0.0,0.0,0.0,0.0,0.0,0.0,0.0,0.0,0.0,0.0,192714,-0.34825199840000004,1.0,0.8876654506,1.2566369772,90.0,90.0,90.0,95.6839523315,91.29127502440001,97.65747070309999,49.75,16.0054893494,35.2999992371,0,2,25,1,135,1974
35,1530905239515,477515, RC,0,39.9586186,-88.445067899,0,-17843.9692179424,9438.1841979558,20186.296302328898,-17843.9337883451,9435.772802690899,1.1030521393000001,0.0,-17843.958990927702,9435.8068755899,0.30849746969999997,11.230422866500001,0.0,0.0,1274,2000,40.0434765435,-88.23558029629999,40.043559333299996,-88.23557316670001,0.0,0.0,0.0,0.0,0.0,0.0,0.0,0.0,0.0,0.0,0.0,192714,-0.4510120153,1.0,0.8917120099,1.3143922091,90.0,90.0,90.0,98.1667709351,89.8907089233,99.18536376950001,49.75,16.0054893494,35.2999992371,0,2,25,1,160,1976
36,1530905239566,477566, RC,0,39.9586186,-88.445067899,0,-17843.9325158336,9438.1001924473,20186.2245819345,-17843.9184838054,9435.6888505213,1.0994653702,0.0,-17843.9222888189,9435.7228700814,0.37696023359999997,11.2695776948,0.0,0.0,1274,2000,40.0434757885,-88.23558047719999,40.043559333299996,-88.23557316670001,0.0,0.0,0.0,0.0,0.0,0.0,0.0,0.0,0.0,0.0,0.0,192714,-0.4510120153,1.0,0.89152807,1.30740273,90.0,90.0,90.0,97.91212463379999,94.15606689450001,98.9943695068,49.75,16.0054893494,35.2999992371,0,2,25,1,136,1978
37,1530905239616,477616, RC,0,39.9586186,-88.445067899,0,-17843.9325158336,9438.1001924473,20186.2245819345,-17843.8516236198,9435.599783384301,1.0946831703,0.0,-17843.9222888189,9435.7228700814,0.37696023359999997,11.2695776948,0.0,0.0,1262,2000,40.0434749875,-88.2355812633,40.043559333299996,-88.23557316670001,0.0,0.0,0.0,0.0,0.0,0.0,0.0,0.0,0.0,0.0,0.0,192714,-0.4755139947,1.0,0.8689041734,1.3204621077,90.0,90.0,90.0,97.72113800049999,96.8935317993,96.8935317993,49.75,16.0054893494,35.2999992371,0,2,25,1,144,1980
38,1530905239667,477667, RC,0,39.9586186,-88.445067899,0,-17843.8902766459,9438.0069510308,20186.1436488667,-17843.8516236198,9435.599783384301,1.0911884308,0.0,-17843.8800496312,9435.6296286649,0.4451754362,11.298818711800001,0.0,0.0,1262,2000,40.0434749875,-88.2355812633,40.043559333299996,-88.23557316670001,0.0,0.0,0.0,0.0,0.0,0.0,0.0,0.0,0.0,0.0,0.0,192714,-0.4755139947,1.0,0.8545573354000001,1.3278194666,90.0,90.0,90.0,98.294090271,98.1667709351,96.19325256350001,50.2870025635,16.0054893494,35.2999992371,0,2,25,1,126,1981
39,1530905239717,477717, RC,0,39.9586186,-88.445067899,0,-17843.8397634767,9437.9042984549,20186.051001903,-17843.7815052945,9435.5047117229,1.0869579315,0.0,-17843.829536462,9435.526976089,0.5130265183,11.3268833512,0.0,0.0,1262,2000,40.0434741325,-88.23558208780001,40.043559333299996,-88.23557316670001,0.0,0.0,0.0,0.0,0.0,0.0,0.0,0.0,0.0,0.0,0.0,192714,-0.4755139947,1.0,0.8313816190000001,1.3425343037000002,90.0,90.0,90.0,98.5487442017,100.26761627200001,93.8377532959,50.2870025635,16.0054893494,35.2999992371,0,2,25,1,112,1983
40,1530905239768,477768, RC,0,39.9586186,-88.445067899,0,-17843.8397634767,9437.9042984549,20186.051001903,-17843.7815052945,9435.5047117229,1.0983618498,0.0,-17843.829536462,9435.526976089,0.5130265183,11.3268833512,0.0,0.0,1262,2000,40.0434741325,-88.23558208780001,40.043559333299996,-88.23557316670001,0.0,0.0,0.0,0.0,0.0,0.0,0.0,0.0,0.0,0.0,0.0,192714,-0.4755139947,1.0,0.8208974004,1.3758262396,90.0,90.0,90.0,98.23043060299999,101.6045150757,92.50085449219999,49.2119979858,16.0054893494,35.2999992371,0,2,25,1,122,1985
41,1530905239818,477818, RC,0,39.9586186,-88.445067899,0,-17843.8397634767,9437.9042984549,20186.051001903,-17843.7815052945,9435.5047117229,1.1076505184,0.0,-17843.829536462,9435.526976089,0.5130265183,11.3268833512,0.0,0.0,1500,2000,40.0434741325,-88.23558208780001,40.043559333299996,-88.23557316670001,0.0,0.0,0.0,0.0,0.0,0.0,0.0,0.0,0.0,0.0,0.0,192714,0.0,1.0,0.8122525215,1.4030485153,90.0,90.0,90.0,96.12958526610001,96.32057189940001,94.66535949709998,49.2119979858,16.0054893494,35.2999992371,0,2,25,1,124,1987
42,1530905239868,477868, RC,0,39.9586186,-88.445067899,0,-17843.7953852081,9437.7976665766,20185.9619177391,-17843.7777842642,9435.4214637875,1.09882164,0.0,-17843.7851581934,9435.4203442107,0.5817986295,11.3359109472,0.0,0.0,1500,2000,40.0434733838,-88.2355821327,40.043559333299996,-88.23557316670001,0.0,0.0,0.0,0.0,0.0,0.0,0.0,0.0,0.0,0.0,0.0,192714,0.0,1.0,0.8054469228,1.3921964169,90.0,90.0,90.0,95.4929656982,94.9836730957,96.12958526610001,50.2870025635,15.985162735,8.3000001907,0,2,25,1,124,1988
43,1530905239919,477919, RC,0,39.9586186,-88.445067899,0,-17843.7953852081,9437.7976665766,20185.9619177391,-17843.7845015759,9435.3348800053,1.1198821068,0.0,-17843.7851581934,9435.4203442107,0.5817986295,11.3359109472,0.0,0.0,1500,2000,40.0434726052,-88.235582055,40.043559333299996,-88.23557316670001,0.0,0.0,0.0,0.0,0.0,0.0,0.0,0.0,0.0,0.0,0.0,192714,0.0,1.0,0.8826992512,1.3570649624000002,90.0,90.0,90.0,97.84845733639999,95.1109924316,97.46648406979999,50.2870025635,15.985162735,8.3000001907,0,2,25,1,146,1990
44,1530905239969,477969, RC,0,39.9586186,-88.445067899,0,-17843.762360836103,9437.6864711457,20185.8807367337,-17843.7845015759,9435.3348800053,1.1325736046,0.0,-17843.7521338214,9435.3091487798,0.6509131389,11.3269996904,0.0,0.0,1500,2000,40.0434726052,-88.235582055,40.043559333299996,-88.23557316670001,0.0,0.0,0.0,0.0,0.0,0.0,0.0,0.0,0.0,0.0,0.0,192714,0.0,1.0,0.948731482,1.3164156675,90.0,90.0,90.0,96.6388778687,93.6467666626,99.1216964722,49.75,15.985162735,8.3000001907,0,2,25,1,150,1992
45,1530905240020,478020, RC,0,39.9586186,-88.445067899,0,-17843.762360836103,9437.6864711457,20185.8807367337,-17843.7845015759,9435.3348800053,1.1391031742,0.0,-17843.7521338214,9435.3091487798,0.6509131389,11.3269996904,0.0,0.0,1500,2000,40.0434726052,-88.235582055,40.043559333299996,-88.23557316670001,0.0,0.0,0.0,0.0,0.0,0.0,0.0,0.0,0.0,0.0,0.0,192714,0.0,1.0,0.9982097745,1.2799966335,90.0,90.0,90.0,94.7926864624,91.9915542603,100.6495819092,49.75,15.985162735,8.3000001907,0,2,25,1,170,1994
46,1530905240070,478070, RC,0,39.9586186,-88.445067899,0,-17843.762360836103,9437.6864711457,20185.8807367337,-17843.7672220509,9435.2281884721,1.1410344839,0.0,-17843.7521338214,9435.3091487798,0.6509131389,11.3269996904,0.0,0.0,1500,2000,40.0434716457,-88.2355822593,40.043559333299996,-88.23557316670001,0.0,0.0,0.0,0.0,0.0,0.0,0.0,0.0,0.0,0.0,0.0,192714,0.0,1.0,1.038859129,1.2432098389,90.0,90.0,90.0,97.02085876459999,95.6839523315,99.3763504028,49.75,15.985162735,8.3000001907,0,2,25,1,173,1995
47,1530905240121,478121, RC,0,39.9586186,-88.445067899,0,-17843.7339080929,9437.569934244499,20185.801099946002,-17843.7672220509,9435.2281884721,1.1536340714,0.0,-17843.7236810782,9435.1926118786,0.722129302,11.313853182999999,0.0,0.0,1500,2000,40.0434716457,-88.2355822593,40.043559333299996,-88.23557316670001,0.0,0.0,0.0,0.0,0.0,0.0,0.0,0.0,0.0,0.0,0.0,192714,0.0,1.0,1.0841070414,1.2231609821,90.0,90.0,90.0,99.6309890747,97.46648406979999,96.12958526610001,50.2870025635,15.985162735,8.3000001907,0,2,25,1,180,1997
48,1530905240171,478171, RC,0,39.9586186,-88.445067899,0,-17843.7018090094,9437.4532944986,20185.7181921944,-17843.721257398898,9435.1405668708,1.1712917089000001,0.0,-17843.6915819947,9435.0759721327,0.7941780652,11.3063130428,0.0,0.0,1500,2000,40.0434708577,-88.2355828002,40.043559333299996,-88.23557316670001,0.0,0.0,0.0,0.0,0.0,0.0,0.0,0.0,0.0,0.0,0.0,192715,0.0,1.0,1.1168472767,1.2257361412,90.0,90.0,90.0,96.5752182007,97.72113800049999,95.74761199950001,49.75,15.985162735,8.3000001907,0,2,25,1,196,1999
49,1530905240221,478221, RC,0,39.9586186,-88.445067899,0,-17843.7018090094,9437.4532944986,20185.7181921944,-17843.721257398898,9435.1405668708,1.1853625773999998,0.0,-17843.6915819947,9435.0759721327,0.7941780652,11.3063130428,0.0,0.0,1500,2000,40.0434708577,-88.2355828002,40.043559333299996,-88.23557316670001,0.0,0.0,0.0,0.0,0.0,0.0,0.0,0.0,0.0,0.0,0.0,192715,0.0,1.0,1.1413103342,1.2294147015,90.0,90.0,90.0,92.5645141602,97.7847976685,95.3019790649,49.75,15.985162735,8.3000001907,0,2,25,1,217,2001
50,1530905240272,478272, RC,0,39.9586186,-88.445067899,0,-17843.6687134331,9437.3337815379,20185.6330606426,-17843.6902697025,9435.029075424,1.2032961845,0.0,-17843.6584864184,9434.956459171999,0.8685370231,11.3002892929,0.0,0.0,1500,2000,40.043469855,-88.23558316549999,40.043559333299996,-88.23557316670001,0.0,0.0,0.0,0.0,0.0,0.0,0.0,0.0,0.0,0.0,0.0,192715,0.0,1.0,1.1676130295,1.2389793396,90.0,90.0,90.0,94.0923995972,97.27549743649999,95.62029266360001,49.75,15.985162735,8.3000001907,0,2,25,1,219,2002
51,1530905240322,478322, RC,0,39.9586186,-88.445067899,0,-17843.6687134331,9437.3337815379,20185.6330606426,-17843.6902697025,9435.029075424,1.2056872845,0.0,-17843.6584864184,9434.956459171999,0.8685370231,11.3002892929,0.0,0.0,1500,2000,40.043469855,-88.23558316549999,40.043559333299996,-88.23557316670001,0.0,0.0,0.0,0.0,0.0,0.0,0.0,0.0,0.0,0.0,0.0,192715,0.0,1.0,1.1646699905,1.2467045784,90.0,90.0,90.0,95.81127929690001,95.4929656982,96.51155853270001,49.75,15.985162735,8.3000001907,0,2,25,1,227,2004
52,1530905240373,478373, RC,0,39.9586186,-88.445067899,0,-17843.6455672255,9437.213452215601,20185.5563428766,-17843.7006929774,9434.9177507696,1.2228851318,0.0,-17843.6353402108,9434.8361298497,0.9380158223,11.2861859186,0.0,0.0,1500,2000,40.0434688538,-88.2355830447,40.043559333299996,-88.23557316670001,0.0,0.0,0.0,0.0,0.0,0.0,0.0,0.0,0.0,0.0,0.0,192715,0.0,1.0,1.1909725666,1.2547975779,90.0,90.0,90.0,98.739730835,93.5194396973,96.3842315674,50.2870025635,15.985162735,8.3000001907,0,2,25,1,246,2006
53,1530905240423,478423, RC,0,39.9586186,-88.445067899,0,-17843.6278711673,9437.0963718039,20185.4859623298,-17843.693463218002,9434.8122082523,1.2410025597,0.0,-17843.6176441526,9434.719049438001,0.999254498,11.271033837000001,0.0,0.0,1500,2000,40.043467904699995,-88.235583131,40.043559333299996,-88.23557316670001,0.0,0.0,0.0,0.0,0.0,0.0,0.0,0.0,0.0,0.0,0.0,192715,0.0,1.0,1.2226092815,1.259395957,90.0,90.0,90.0,98.9943695068,94.28338623049999,95.8749313354,50.2870025635,15.985162735,8.3000001907,0,2,25,1,304,2008
54,1530905240474,478474, RC,0,39.9586186,-88.445067899,0,-17843.6278711673,9437.0963718039,20185.4859623298,-17843.693463218002,9434.8122082523,1.2516708373999998,0.0,-17843.6176441526,9434.719049438001,0.999254498,11.271033837000001,0.0,0.0,1500,2000,40.043467904699995,-88.235583131,40.0435483333,-88.2355726667,0.0,0.0,0.0,0.0,0.0,0.0,0.0,0.0,0.0,0.0,0.0,192715,0.0,1.0,1.2454169989,1.2579245567,90.0,90.0,90.0,95.174659729,95.36563873290001,95.8749313354,49.75,15.985162735,8.3000001907,0,2,25,1,285,2010
55,1530905240524,478524, RC,0,39.9586186,-88.445067899,0,-17843.6278711673,9437.0963718039,20185.4859623298,-17843.693463218002,9434.8122082523,1.2627987862,0.0,-17843.6176441526,9434.719049438001,0.999254498,11.271033837000001,0.0,0.0,1500,2000,40.043467904699995,-88.235583131,40.0435483333,-88.2355726667,0.0,0.0,0.0,0.0,0.0,0.0,0.0,0.0,0.0,0.0,0.0,192715,0.0,1.0,1.2588442564,1.2667533159,90.0,90.0,90.0,94.3470458984,95.6839523315,96.0659179688,49.75,15.985162735,8.3000001907,0,2,25,1,276,2011
56,1530905240575,478575, RC,0,39.9586186,-88.445067899,0,-17843.6278711673,9437.0963718039,20185.4859623298,-17843.6859170708,9434.6738817632,1.2650979756999998,0.0,-17843.6176441526,9434.719049438001,0.999254498,11.271033837000001,0.0,0.0,1500,2000,40.0434666607,-88.2355832215,40.0435483333,-88.2355726667,0.0,0.0,0.0,0.0,0.0,0.0,0.0,0.0,0.0,0.0,0.0,192715,0.0,1.0,1.2562690973000001,1.2739268541,90.0,90.0,90.0,95.93859863280001,96.70254516600001,96.12958526610001,49.2119979858,15.985162735,8.3000001907,0,2,25,1,256,2013
57,1530905240625,478625, RC,0,39.9586186,-88.445067899,0,-17843.6160548732,9436.976222401701,20185.4193450596,-17843.6775725816,9434.562557109499,1.2726392746,0.0,-17843.6058278585,9434.5989000358,1.0561729089,11.251366946800001,0.0,0.0,1500,2000,40.0434656595,-88.23558332100001,40.0435483333,-88.2355726667,0.0,0.0,0.0,0.0,0.0,0.0,0.0,0.0,0.0,0.0,0.0,192715,0.0,1.0,1.2617871761,1.2834913731,90.0,90.0,90.0,97.2118453979,97.46648406979999,95.62029266360001,49.75,15.985162735,8.3000001907,0,2,25,1,290,2015
58,1530905240675,478675, RC,0,39.9586186,-88.445067899,0,-17843.6098250617,9436.8589753912,20185.3590235711,-17843.6775725816,9434.562557109499,1.2760419846,0.0,-17843.599598047,9434.481653025301,1.1020896703,11.228677288800002,0.0,0.0,1500,2000,40.0434656595,-88.23558332100001,40.0435483333,-88.2355726667,0.0,0.0,0.0,0.0,0.0,0.0,0.0,0.0,0.0,0.0,0.0,192715,0.0,1.0,1.2757661343,1.2763179541,90.0,90.0,90.0,95.62029266360001,97.7847976685,95.36563873290001,49.75,15.985162735,8.3000001907,0,2,25,1,297,2017
59,1530905240726,478726, RC,0,39.9586186,-88.445067899,0,-17843.6098250617,9436.8589753912,20185.3590235711,-17843.6684796442,9434.4478595425,1.2789850235,0.0,-17843.599598047,9434.481653025301,1.1020896703,11.228677288800002,0.0,0.0,1500,2000,40.043464628,-88.23558342930001,40.0435483333,-88.2355726667,0.0,0.0,0.0,0.0,0.0,0.0,0.0,0.0,0.0,0.0,0.0,192715,0.0,1.0,1.2823877335,1.2755821943,90.0,90.0,90.0,95.174659729,97.65747070309999,96.2569046021,49.75,15.985162735,8.3000001907,0,2,25,1,282,2018
60,1530905240776,478776, RC,0,39.9586186,-88.445067899,0,-17843.6071628744,9436.7417440047,20185.3018636339,-17843.6684796442,9434.4478595425,1.270340085,0.0,-17843.5969358597,9434.3644216388,1.1352732979,11.2042866538,0.0,0.0,1500,2000,40.043464628,-88.23558342930001,40.0435483333,-88.2355726667,0.0,0.0,0.0,0.0,0.0,0.0,0.0,0.0,0.0,0.0,0.0,192715,0.0,1.0,1.2660176754,1.2746624947,90.0,90.0,90.0,97.7847976685,96.95719146729999,96.8298721313,49.75,15.985162735,8.3000001907,0,2,25,1,180,2020
61,1530905240827,478827, RC,0,39.9586186,-88.445067899,0,-17843.6053966094,9436.62302672,20185.2448015458,-17843.6661540543,9434.3368870056,1.2760419846,0.0,-17843.5951695947,9434.2457043541,1.160935869,11.1825578055,0.0,0.0,1500,1500,40.04346363,-88.2355834582,40.0435483333,-88.2355726667,0.0,0.0,0.0,0.0,0.0,0.0,0.0,0.0,0.0,0.0,0.0,192715,0.0,0.0,1.2707999945000001,1.2812840939,90.0,90.0,90.0,98.3577575684,95.42930603030001,97.53015136719999,49.75,15.985162735,8.3000001907,0,2,25,1,174,2022
62,1530905240881,478881, RC,0,39.9586186,-88.445067899,0,-17843.6053966094,9436.62302672,20185.2448015458,-17843.6661540543,9434.3368870056,1.2643622159999999,0.0,-17843.5951695947,9434.2457043541,1.160935869,11.1825578055,0.0,0.0,1500,1500,40.04346363,-88.2355834582,40.0435483333,-88.2355726667,0.0,0.0,0.0,0.0,0.0,0.0,0.0,0.0,0.0,0.0,0.0,192715,0.0,0.0,1.2704321146,1.2582923174,90.0,90.0,90.0,96.51155853270001,94.4743804932,97.53015136719999,49.75,15.9660701752,16.5500011444,0,2,25,1,204,2024
63,1530905240931,478931, RC,0,39.9586186,-88.445067899,0,-17843.6053966094,9436.62302672,20185.2448015458,-17843.635067638603,9434.200673220601,1.2251843214,0.0,-17843.5951695947,9434.2457043541,1.160935869,11.1825578055,0.0,0.0,1500,1500,40.043462405,-88.235583825,40.0435483333,-88.2355726667,0.0,0.0,0.0,0.0,0.0,0.0,0.0,0.0,0.0,0.0,0.0,192715,0.0,0.0,1.2389793396,1.2113893031999998,90.0,90.0,90.0,96.12958526610001,94.9200057983,96.95719146729999,49.75,15.9660701752,16.5500011444,0,2,25,1,210,2026
64,1530905240981,478981, RC,0,39.9586186,-88.445067899,0,-17843.6004220875,9436.4962098967,20185.1811174068,-17843.635067638603,9434.200673220601,1.0673689842,0.0,-17843.5901950728,9434.1188875308,1.1749685612,11.162890656400002,0.0,0.0,1500,1500,40.043462405,-88.235583825,40.0435483333,-88.2355726667,0.0,0.0,0.0,0.0,0.0,0.0,0.0,0.0,0.0,0.0,0.0,192715,0.0,0.0,1.0811640024,1.0535738468,90.0,90.0,90.0,95.81127929690001,94.5380325317,97.4028244019,50.2870025635,15.9660701752,16.5500011444,0,2,25,1,224,2027
65,1530905241032,479032, RC,0,39.9586186,-88.445067899,0,-17843.6004220875,9436.4962098967,20185.1811174068,-17843.6252974494,9434.082417415999,0.8506947159999999,0.0,-17843.5901950728,9434.1188875308,1.1749685612,11.162890656400002,0.0,0.0,1500,1500,40.0434613415,-88.23558394129999,40.0435483333,-88.2355726667,0.0,0.0,0.0,0.0,0.0,0.0,0.0,0.0,0.0,0.0,0.0,192715,0.0,0.0,0.8663291335,0.8350602984000001,90.0,90.0,90.0,94.28338623049999,93.58310699459999,97.72113800049999,50.2870025635,15.9660701752,16.5500011444,0,2,25,1,193,2029
66,1530905241082,479082, RC,0,39.9586186,-88.445067899,0,-17843.5988314028,9436.3684546073,20185.1199864442,-17843.6252974494,9434.082417415999,0.734264493,0.0,-17843.5886043881,9433.991132241401,1.1660762878,11.140890513199999,0.0,0.0,1500,1500,40.0434613415,-88.23558394129999,40.0435483333,-88.2355726667,0.0,0.0,0.0,0.0,0.0,0.0,0.0,0.0,0.0,0.0,0.0,192715,0.0,0.0,0.7495309711,0.7189980148999999,90.0,90.0,90.0,96.0659179688,95.4929656982,97.53015136719999,50.2870025635,15.9660701752,16.5500011444,0,2,25,1,217,2031
67,1530905241133,479133, RC,0,39.9586186,-88.445067899,0,-17843.5988314028,9436.3684546073,20185.1199864442,-17843.6252974494,9434.082417415999,0.5692757368,0.0,-17843.5886043881,9433.991132241401,1.1660762878,11.140890513199999,0.0,0.0,1500,1500,40.0434613415,-88.23558394129999,40.0435483333,-88.2355726667,0.0,0.0,0.0,0.0,0.0,0.0,0.0,0.0,0.0,0.0,0.0,192715,0.0,0.0,0.5777366757,0.5608147383,90.0,90.0,90.0,98.9307174683,95.93859863280001,96.51155853270001,50.2870025635,15.9660701752,16.5500011444,0,2,25,1,233,2033
68,1530905241183,479183, RC,0,39.9586186,-88.445067899,0,-17843.5988314028,9436.3684546073,20185.1199864442,-17843.6252974494,9434.082417415999,0.47703278060000004,0.0,-17843.5886043881,9433.991132241401,1.1660762878,11.140890513199999,0.0,0.0,1500,1500,40.0434613415,-88.23558394129999,40.0435483333,-88.2355726667,0.0,0.0,0.0,0.0,0.0,0.0,0.0,0.0,0.0,0.0,0.0,192715,0.0,0.0,0.48595359920000003,0.46811199189999997,90.0,90.0,90.0,96.12958526610001,96.0659179688,96.32057189940001,50.2870025635,15.9660701752,16.5500011444,0,2,25,1,220,2034
69,1530905241234,479234, RC,0,39.9586186,-88.445067899,0,-17843.5989312561,9436.2465511939,20185.0630862141,-17843.6110532035,9433.9901626915,0.35618817810000003,0.0,-17843.5887042414,9433.869228828,1.1245811416,11.1191591253,0.0,0.0,1500,1500,40.0434605118,-88.2355841098,40.0435483333,-88.2355726667,0.0,0.0,0.0,0.0,0.0,0.0,0.0,0.0,0.0,0.0,0.0,192716,0.0,0.0,0.3630856872,0.349290669,90.0,90.0,90.0,93.96508026120001,96.00226593020001,96.2569046021,49.75,15.9660701752,16.5500011444,0,2,25,1,242,2036
70,1530905241284,479284, RC,0,39.9586186,-88.445067899,0,-17843.5982044953,9436.143385409301,20185.0142153398,-17843.616770826,9433.9569524741,0.2905237377,0.0,-17843.5879774806,9433.7660630433,1.0784304405,11.1052114176,0.0,0.0,1500,1500,40.0434602132,-88.23558404319999,40.0435483333,-88.2355726667,0.0,0.0,0.0,0.0,0.0,0.0,0.0,0.0,0.0,0.0,0.0,192716,0.0,0.0,0.2959497869,0.2850976884,90.0,90.0,90.0,94.28338623049999,96.0659179688,96.12958526610001,49.75,15.9660701752,16.5500011444,0,2,25,1,206,2038
71,1530905241334,479334, RC,0,39.9586186,-88.445067899,0,-17843.591911063002,9436.076935805799,20184.977587973703,-17843.6143650316,9434.010882013199,0.240493685,0.0,-17843.581684048302,9433.6996134399,1.0285763842,11.1040524555,0.0,0.0,1500,1500,40.0434606982,-88.2355840707,40.0435483333,-88.2355726667,0.0,0.0,0.0,0.0,0.0,0.0,0.0,0.0,0.0,0.0,0.0,192716,0.0,0.0,0.2450000793,0.23598730559999997,90.0,90.0,90.0,96.19325256350001,96.0659179688,96.19325256350001,49.75,15.9660701752,16.5500011444,0,2,25,1,209,2040
72,1530905241385,479385, RC,0,39.9586186,-88.445067899,0,-17843.591911063002,9436.076935805799,20184.977587973703,-17843.6143650316,9434.010882013199,0.1796115488,0.0,-17843.581684048302,9433.6996134399,1.0285763842,11.1040524555,0.0,0.0,1500,1500,40.0434606982,-88.2355840707,40.0435483333,-88.2355726667,0.0,0.0,0.0,0.0,0.0,0.0,0.0,0.0,0.0,0.0,0.0,192716,0.0,0.0,0.1830143332,0.1762087643,90.0,90.0,90.0,97.46648406979999,96.5752182007,95.6839523315,50.2870025635,15.9660701752,16.5500011444,0,2,25,1,193,2041
73,1530905241435,479435, RC,0,39.9586186,-88.445067899,0,-17843.591911063002,9436.076935805799,20184.977587973703,-17843.624015530502,9434.025615341601,0.1491704583,0.0,-17843.581684048302,9433.6996134399,1.0285763842,11.1040524555,0.0,0.0,1500,1500,40.0434608307,-88.23558395719999,40.0435348333,-88.2355721667,0.0,0.0,0.0,0.0,0.0,0.0,0.0,0.0,0.0,0.0,0.0,192716,0.0,0.0,0.15156160300000002,0.14677932859999998,90.0,90.0,90.0,96.70254516600001,97.08451080319999,95.23831939700001,50.2870025635,15.9660701752,16.5500011444,0,2,25,1,200,2043
74,1530905241486,479486, RC,0,39.9586186,-88.445067899,0,-17843.5904426213,9436.0364969913,20184.9573855522,-17843.624015530502,9434.025615341601,0.11229170109999999,0.0,-17843.5802156066,9433.6591746254,0.9698271278,11.100813913900001,0.0,0.0,1500,1500,40.0434608307,-88.23558395719999,40.0435348333,-88.2355721667,0.0,0.0,0.0,0.0,0.0,0.0,0.0,0.0,0.0,0.0,0.0,192716,0.0,0.0,0.1140390709,0.1105443314,90.0,90.0,90.0,95.8749313354,97.02085876459999,95.62029266360001,49.75,15.9660701752,16.5500011444,0,2,25,1,205,2045
75,1530905241536,479536, RC,0,39.9586186,-88.445067899,0,-17843.5904426213,9436.0364969913,20184.9573855522,-17843.6263266181,9434.0281172261,0.09297863390000001,0.0,-17843.5802156066,9433.6591746254,0.9698271278,11.100813913900001,0.0,0.0,1500,1500,40.0434608532,-88.23558393,40.0435348333,-88.2355721667,0.0,0.0,0.0,0.0,0.0,0.0,0.0,0.0,0.0,0.0,0.0,192716,0.0,0.0,0.0945420712,0.09141519669999999,90.0,90.0,90.0,95.8749313354,96.8935317993,96.32057189940001,49.75,15.9660701752,16.5500011444,0,2,25,1,180,2047
76,1530905241586,479586, RC,0,39.9586186,-88.445067899,0,-17843.5941526499,9436.0165401561,20184.951335848702,-17843.6263266181,9434.0281172261,0.068055585,0.0,-17843.5839256352,9433.6392177902,0.9063558107999999,11.0928096417,0.0,0.0,1500,1500,40.0434608532,-88.23558393,40.0435348333,-88.2355721667,0.0,0.0,0.0,0.0,0.0,0.0,0.0,0.0,0.0,0.0,0.0,192716,0.0,0.0,0.0693431199,0.0667680427,90.0,90.0,90.0,96.0659179688,96.76620483399999,96.44789123540001,49.75,15.9660701752,16.5500011444,0,2,25,1,193,2048
77,1530905241637,479637, RC,0,39.9586186,-88.445067899,0,-17843.5941526499,9436.0165401561,20184.951335848702,-17843.617619380602,9434.0201111924,0.0559159294,0.0,-17843.5839256352,9433.6392177902,0.9063558107999999,11.0928096417,0.0,0.0,1500,1500,40.0434607812,-88.2355840323,40.0435348333,-88.2355721667,0.0,0.0,0.0,0.0,0.0,0.0,0.0,0.0,0.0,0.0,0.0,192716,0.0,0.0,0.057019535499999996,0.054812327,90.0,90.0,90.0,95.93859863280001,96.76620483399999,96.44789123540001,49.75,15.9660701752,16.5500011444,0,2,25,1,216,2050
78,1530905241687,479687, RC,0,39.9586186,-88.445067899,0,-17843.5974659868,9436.0102649489,20184.951331335702,-17843.617619380602,9434.0201111924,0.0423967838,0.0,-17843.5872389721,9433.632942583,0.8388892161,11.085181056800002,0.0,0.0,1500,1500,40.0434607812,-88.2355840323,40.0435348333,-88.2355721667,0.0,0.0,0.0,0.0,0.0,0.0,0.0,0.0,0.0,0.0,0.0,192716,0.0,0.0,0.0432244875,0.0415690802,90.0,90.0,90.0,95.8749313354,96.76620483399999,96.44789123540001,49.75,15.9660701752,16.5500011444,0,2,25,1,202,2052
79,1530905241738,479738, RC,0,39.9586186,-88.445067899,0,-17843.5964561318,9436.0203570708,20184.9551564608,-17843.6115822344,9434.0232061178,0.034487623700000004,0.0,-17843.5862291171,9433.643034704899,0.7693683597,11.0862152634,0.0,0.0,1500,1500,40.043460809,-88.2355841032,40.0435348333,-88.2355721667,0.0,0.0,0.0,0.0,0.0,0.0,0.0,0.0,0.0,0.0,0.0,192716,0.0,0.0,0.0353153273,0.0336599201,90.0,90.0,90.0,96.00226593020001,96.76620483399999,96.44789123540001,49.75,15.9660701752,16.5500011444,0,2,25,1,232,2054
80,1530905241788,479788, RC,0,39.9586186,-88.445067899,0,-17843.5964561318,9436.0203570708,20184.9551564608,-17843.6115822344,9434.0232061178,0.0263025612,0.0,-17843.5862291171,9433.643034704899,0.7693683597,11.0862152634,0.0,0.0,1500,1500,40.043460809,-88.2355841032,40.0435348333,-88.2355721667,0.0,0.0,0.0,0.0,0.0,0.0,0.0,0.0,0.0,0.0,0.0,192716,0.0,0.0,0.026670428,0.0259346925,90.0,90.0,90.0,95.93859863280001,96.76620483399999,96.44789123540001,49.75,15.9660701752,16.5500011444,0,2,25,1,234,2055
81,1530905241839,479839, RC,0,39.9586186,-88.445067899,0,-17843.5921172409,9436.0409873294,20184.9609650606,-17843.6078926929,9434.0218903109,0.0208765082,0.0,-17843.5818902262,9433.6636649635,0.6965688536,11.0962237185,0.0,0.0,1500,1500,40.0434607972,-88.2355841465,40.0435348333,-88.2355721667,0.0,0.0,0.0,0.0,0.0,0.0,0.0,0.0,0.0,0.0,0.0,192716,0.0,0.0,0.0215202775,0.020232738899999998,90.0,90.0,90.0,95.93859863280001,96.76620483399999,96.44789123540001,49.75,15.9736099243,3.0700001717000003,0,2,25,1,188,2057
82,1530905241889,479889, RC,0,39.9586186,-88.445067899,0,-17843.5921172409,9436.0409873294,20184.9609650606,-17843.6062711351,9434.0245775218,0.0161861926,0.0,-17843.5818902262,9433.6636649635,0.6965688536,11.0962237185,0.0,0.0,1500,1500,40.0434608213,-88.23558416549999,40.0435348333,-88.2355721667,0.0,0.0,0.0,0.0,0.0,0.0,0.0,0.0,0.0,0.0,0.0,192716,0.0,0.0,0.0165540595,0.0158183239,90.0,90.0,90.0,95.93859863280001,96.76620483399999,96.44789123540001,50.2870025635,15.9736099243,3.0700001717000003,0,2,25,1,203,2059
83,1530905241939,479939, RC,0,39.9586186,-88.445067899,0,-17843.5898266777,9436.0705398791,20184.972755401202,-17843.6062711351,9434.0245775218,0.0133352149,0.0,-17843.579599663,9433.693217513199,0.6221660201,11.1059694634,0.0,0.0,1500,1500,40.0434608213,-88.23558416549999,40.0435348333,-88.2355721667,0.0,0.0,0.0,0.0,0.0,0.0,0.0,0.0,0.0,0.0,0.0,192716,0.0,0.0,0.0136111155,0.013059313400000001,90.0,90.0,90.0,95.93859863280001,96.76620483399999,96.44789123540001,50.2870025635,15.9736099243,3.0700001717000003,0,2,25,1,222,2061
84,1530905241990,479990, RC,0,39.9586186,-88.445067899,0,-17843.5898266777,9436.0705398791,20184.972755401202,-17843.6062711351,9434.0245775218,0.0101163695,0.0,-17843.579599663,9433.693217513199,0.6221660201,11.1059694634,0.0,0.0,1500,1500,40.0434608213,-88.23558416549999,40.0435348333,-88.2355721667,0.0,0.0,0.0,0.0,0.0,0.0,0.0,0.0,0.0,0.0,0.0,192716,0.0,0.0,0.0103003038,0.0099324351,90.0,90.0,90.0,95.93859863280001,96.70254516600001,96.44789123540001,50.2870025635,15.9736099243,3.0700001717000003,0,2,25,1,216,2063
85,1530905242040,480040, RC,0,39.9586186,-88.445067899,0,-17843.5898266777,9436.0705398791,20184.972755401202,-17843.6052836295,9434.0192586983,0.0083689969,0.0,-17843.579599663,9433.693217513199,0.6221660201,11.1059694634,0.0,0.0,1500,1500,40.0434607735,-88.2355841772,40.0435348333,-88.2355721667,0.0,0.0,0.0,0.0,0.0,0.0,0.0,0.0,0.0,0.0,0.0,192716,0.0,0.0,0.008460964100000001,0.008277029699999999,90.0,90.0,90.0,95.93859863280001,96.70254516600001,96.44789123540001,50.2870025635,15.9736099243,3.0700001717000003,0,2,25,1,221,2064
86,1530905242091,480091, RC,0,39.9586186,-88.445067899,0,-17843.5885838656,9436.105346196999,20184.9879280317,-17843.6052836295,9434.0192586983,0.0062537556999999995,0.0,-17843.5783568509,9433.7280238311,0.5455822508,11.11742993,0.0,0.0,1500,1500,40.0434607735,-88.2355841772,40.0435348333,-88.2355721667,0.0,0.0,0.0,0.0,0.0,0.0,0.0,0.0,0.0,0.0,0.0,192716,0.0,0.0,0.0064376895,0.006069821800000001,90.0,90.0,90.0,96.0659179688,96.70254516600001,96.44789123540001,50.2870025635,15.9736099243,3.0700001717000003,0,2,25,1,210,2066
87,1530905242141,480141, RC,0,39.9586186,-88.445067899,0,-17843.5885838656,9436.105346196999,20184.9879280317,-17843.6052836295,9434.0192586983,0.0052421186,0.0,-17843.5783568509,9433.7280238311,0.5455822508,11.11742993,0.0,0.0,1500,1500,40.0434607735,-88.2355841772,40.0435348333,-88.2355721667,0.0,0.0,0.0,0.0,0.0,0.0,0.0,0.0,0.0,0.0,0.0,192716,0.0,0.0,0.0053340858,0.0051501519,90.0,90.0,90.0,96.0659179688,96.70254516600001,96.44789123540001,50.2870025635,15.9736099243,3.0700001717000003,0,2,25,1,214,2068
88,1530905242191,480191, RC,0,39.9586186,-88.445067899,0,-17843.5893662267,9436.140675941899,20185.0051356615,-17843.6099245325,9434.0204077115,0.0039545809999999995,0.0,-17843.579139212,9433.763353576,0.4669414758,11.1284736506,0.0,0.0,1500,1500,40.0434607838,-88.2355841227,40.0435348333,-88.2355721667,0.0,0.0,0.0,0.0,0.0,0.0,0.0,0.0,0.0,0.0,0.0,192717,0.0,0.0,0.0040465477,0.0038626138000000003,90.0,90.0,90.0,96.0659179688,96.70254516600001,96.44789123540001,50.2870025635,15.9736099243,3.0700001717000003,0,2,25,1,201,2069
89,1530905242242,480242, RC,0,39.9586186,-88.445067899,0,-17843.5893662267,9436.140675941899,20185.0051356615,-17843.609112719198,9434.0226316102,0.0032188447999999996,0.0,-17843.579139212,9433.763353576,0.4669414758,11.1284736506,0.0,0.0,1500,1500,40.0434608038,-88.23558413219999,40.0435348333,-88.2355721667,0.0,0.0,0.0,0.0,0.0,0.0,0.0,0.0,0.0,0.0,0.0,192717,0.0,0.0,0.0033108116999999997,0.0031268778000000004,90.0,90.0,90.0,96.2569046021,96.6388778687,96.44789123540001,49.75,15.9736099243,3.0700001717000003,0,2,25,1,198,2071
90,1530905242292,480292, RC,0,39.9586186,-88.445067899,0,-17843.5909539206,9436.1767661569,20185.0234107617,-17843.6090373815,9434.0263381084,0.0023911418,0.0,-17843.5807269059,9433.799443791,0.3875623962,11.1406322286,0.0,0.0,1500,1500,40.0434608372,-88.23558413299999,40.0435348333,-88.2355721667,0.0,0.0,0.0,0.0,0.0,0.0,0.0,0.0,0.0,0.0,0.0,192717,0.0,0.0,0.0023911418,0.0023911418,90.0,90.0,90.0,96.2569046021,96.6388778687,96.44789123540001,49.75,15.9736099243,3.0700001717000003,0,2,25,1,182,2073
91,1530905242343,480343, RC,0,39.9586186,-88.445067899,0,-17843.592544388797,9436.2055091312,20185.0382536354,-17843.6090373815,9434.0263381084,0.0019313069000000001,0.0,-17843.582317374097,9433.8281867653,0.3061602185,11.1532588707,0.0,0.0,1500,1500,40.0434608372,-88.23558413299999,40.0435348333,-88.2355721667,0.0,0.0,0.0,0.0,0.0,0.0,0.0,0.0,0.0,0.0,0.0,192717,0.0,0.0,0.0020232738,0.0018393398,90.0,90.0,90.0,96.2569046021,96.6388778687,96.44789123540001,49.75,15.9736099243,3.0700001717000003,0,2,25,1,188,2075
92,1530905242393,480393, RC,0,39.9586186,-88.445067899,0,-17843.592544388797,9436.2055091312,20185.0382536354,-17843.6090373815,9434.0263381084,0.0014714720000000001,0.0,-17843.582317374097,9433.8281867653,0.3061602185,11.1532588707,0.0,0.0,1500,1500,40.0434608372,-88.23558413299999,40.0435348333,-88.2355721667,0.0,0.0,0.0,0.0,0.0,0.0,0.0,0.0,0.0,0.0,0.0,192717,0.0,0.0,0.0014714720000000001,0.0014714720000000001,90.0,90.0,90.0,96.2569046021,96.6388778687,96.44789123540001,49.75,15.9736099243,3.0700001717000003,0,2,25,1,182,2077
93,1530905242444,480444, RC,0,39.9586186,-88.445067899,0,-17843.592544388797,9436.2055091312,20185.0382536354,-17843.6151698318,9434.0267087577,0.0011955709,0.0,-17843.582317374097,9433.8281867653,0.3061602185,11.1532588707,0.0,0.0,1500,1500,40.0434608405,-88.235584061,40.0435341667,-88.235571,0.0,0.0,0.0,0.0,0.0,0.0,0.0,0.0,0.0,0.0,0.0,192717,0.0,0.0,0.001287538,0.001103604,90.0,90.0,90.0,96.2569046021,96.6388778687,96.44789123540001,49.75,15.9736099243,3.0700001717000003,0,2,25,1,184,2078
94,1530905242494,480494, RC,0,39.9586186,-88.445067899,0,-17843.5914320155,9436.2050389288,20185.0370504837,-17843.6151698318,9434.0267087577,0.0009196699,0.0,-17843.581205000803,9433.8277165629,0.2212143643,11.1605954713,0.0,0.0,1500,1500,40.0434608405,-88.235584061,40.0435341667,-88.235571,0.0,0.0,0.0,0.0,0.0,0.0,0.0,0.0,0.0,0.0,0.0,192717,0.0,0.0,0.0009196699,0.0009196699,90.0,90.0,90.0,96.2569046021,96.6388778687,96.44789123540001,50.2870025635,15.9736099243,3.0700001717000003,0,2,25,1,191,2080
95,1530905242544,480544, RC,0,39.9586186,-88.445067899,0,-17843.5914320155,9436.2050389288,20185.0370504837,-17843.6151698318,9434.0267087577,0.0007357360000000001,0.0,-17843.581205000803,9433.8277165629,0.2212143643,11.1605954713,0.0,0.0,1500,1500,40.0434608405,-88.235584061,40.0435341667,-88.235571,0.0,0.0,0.0,0.0,0.0,0.0,0.0,0.0,0.0,0.0,0.0,192717,0.0,0.0,0.0007357360000000001,0.0007357360000000001,90.0,90.0,90.0,96.2569046021,96.6388778687,96.44789123540001,50.2870025635,15.9736099243,3.0700001717000003,0,2,25,1,197,2082
96,1530905242595,480595, RC,0,39.9586186,-88.445067899,0,-17843.5914320155,9436.2050389288,20185.0370504837,-17843.617840644598,9434.0251149636,0.000551802,0.0,-17843.581205000803,9433.8277165629,0.2212143643,11.1605954713,0.0,0.0,1500,1500,40.0434608262,-88.2355840297,40.0435341667,-88.235571,0.0,0.0,0.0,0.0,0.0,0.0,0.0,0.0,0.0,0.0,0.0,192717,0.0,0.0,0.000551802,0.000551802,90.0,90.0,90.0,96.2569046021,96.6388778687,96.44789123540001,49.75,15.9736099243,3.0700001717000003,0,2,25,1,204,2084
97,1530905242645,480645, RC,0,39.9586186,-88.445067899,0,-17843.5930313352,9436.217346293399,20185.044217796498,-17843.6228443216,9434.0195737499,0.000459835,0.0,-17843.5828043205,9433.8400239275,0.14322633380000002,11.1672391583,0.0,0.0,1500,1500,40.0434607763,-88.235583971,40.0435341667,-88.235571,0.0,0.0,0.0,0.0,0.0,0.0,0.0,0.0,0.0,0.0,0.0,192717,0.0,0.0,0.000551802,0.00036786800000000004,90.0,90.0,90.0,96.2569046021,96.6388778687,96.44789123540001,49.75,15.9736099243,3.0700001717000003,0,2,25,1,207,2085
98,1530905242696,480696, RC,0,39.9586186,-88.445067899,0,-17843.5953269731,9436.2301838811,20185.052248532,-17843.6222868217,9434.0349186497,0.00036786800000000004,0.0,-17843.5850999584,9433.8528615152,0.08677938689999999,11.170580558,0.0,0.0,1500,1500,40.0434609143,-88.2355839773,40.0435341667,-88.235571,0.0,0.0,0.0,0.0,0.0,0.0,0.0,0.0,0.0,0.0,0.0,192717,0.0,0.0,0.00036786800000000004,0.00036786800000000004,90.0,90.0,90.0,96.2569046021,96.6388778687,96.44789123540001,50.2870025635,15.9736099243,3.0700001717000003,0,2,25,1,194,2087
99,1530905242746,480746, RC,0,39.9586186,-88.445067899,0,-17843.5971720302,9436.2405758526,20185.0587376666,-17843.6222868217,9434.0349186497,0.00036786800000000004,0.0,-17843.5869450155,9433.863253486701,0.0611820728,11.172129209100001,0.0,0.0,1500,1500,40.0434609143,-88.2355839773,40.0435341667,-88.235571,0.0,0.0,0.0,0.0,0.0,0.0,0.0,0.0,0.0,0.0,0.0,192717,0.0,0.0,0.00036786800000000004,0.00036786800000000004,90.0,90.0,90.0,96.2569046021,96.5752182007,96.44789123540001,50.2870025635,15.9736099243,3.0700001717000003,0,2,25,1,188,2089
100,1530905242797,480797, RC,0,39.9586186,-88.445067899,0,-17843.5971720302,9436.2405758526,20185.0587376666,-17843.6222868217,9434.0349186497,0.00018393400000000002,0.0,-17843.5869450155,9433.863253486701,0.0611820728,11.172129209100001,0.0,0.0,1500,1500,40.0434609143,-88.2355839773,40.0435341667,-88.235571,0.0,0.0,0.0,0.0,0.0,0.0,0.0,0.0,0.0,0.0,0.0,192717,0.0,0.0,0.00018393400000000002,0.00018393400000000002,90.0,90.0,90.0,96.32057189940001,96.5752182007,96.44789123540001,50.2870025635,15.9736099243,3.0700001717000003,0,2,25,1,221,2091
101,1530905242847,480847, RC,0,39.9586186,-88.445067899,0,-17843.598813278702,9436.250239291,20185.0647060583,-17843.6257668178,9434.021260206899,0.00018393400000000002,0.0,-17843.588586264,9433.8729169251,0.042028184,11.1718221645,0.0,0.0,1500,1500,40.0434607915,-88.2355839367,40.0435341667,-88.235571,0.0,0.0,0.0,0.0,0.0,0.0,0.0,0.0,0.0,0.0,0.0,192717,0.0,0.0,0.00018393400000000002,0.00018393400000000002,90.0,90.0,90.0,96.32057189940001,96.5752182007,96.44789123540001,50.2870025635,15.980395317100001,3.0199999808999998,0,2,25,1,217,2092
102,1530905242898,480898, RC,0,39.9586186,-88.445067899,0,-17843.598813278702,9436.250239291,20185.0647060583,-17843.6257668178,9434.021260206899,0.00018393400000000002,0.0,-17843.588586264,9433.8729169251,0.042028184,11.1718221645,0.0,0.0,1500,1500,40.0434607915,-88.2355839367,40.0435341667,-88.235571,0.0,0.0,0.0,0.0,0.0,0.0,0.0,0.0,0.0,0.0,0.0,192717,0.0,0.0,0.00018393400000000002,0.00018393400000000002,90.0,90.0,90.0,96.32057189940001,96.5752182007,96.44789123540001,49.75,15.980395317100001,3.0199999808999998,0,2,25,1,207,2094
103,1530905242948,480948, RC,0,39.9586186,-88.445067899,0,-17843.6000526692,9436.2562558928,20185.0686143617,-17843.61890268,9434.0274129919,0.00018393400000000002,0.0,-17843.5898256545,9433.8789335269,0.025117493199999997,11.171378953800001,0.0,0.0,1500,1500,40.043460846799995,-88.2355840172,40.0435341667,-88.235571,0.0,0.0,0.0,0.0,0.0,0.0,0.0,0.0,0.0,0.0,0.0,192717,0.0,0.0,0.00018393400000000002,0.00018393400000000002,90.0,90.0,90.0,96.32057189940001,96.5752182007,96.44789123540001,49.75,15.980395317100001,3.0199999808999998,0,2,25,1,209,2096
104,1530905242998,480998, RC,0,39.9586186,-88.445067899,0,-17843.6000526692,9436.2562558928,20185.0686143617,-17843.61890268,9434.0274129919,0.0,0.0,-17843.5898256545,9433.8789335269,0.025117493199999997,11.171378953800001,0.0,0.0,1500,1500,40.043460846799995,-88.2355840172,40.0435341667,-88.235571,0.0,0.0,0.0,0.0,0.0,0.0,0.0,0.0,0.0,0.0,0.0,192717,0.0,0.0,0.0,0.0,90.0,90.0,90.0,96.32057189940001,96.5752182007,96.44789123540001,49.75,15.980395317100001,3.0199999808999998,0,2,25,1,198,2098
105,1530905243049,481049, RC,0,39.9586186,-88.445067899,0,-17843.600323374398,9436.2595054677,20185.0703727992,-17843.6187712975,9434.030489385501,0.0,0.0,-17843.5900963597,9433.882183101801,0.0151031206,11.1708822529,0.0,0.0,1500,1500,40.0434608745,-88.23558401870001,40.0435341667,-88.235571,0.0,0.0,0.0,0.0,0.0,0.0,0.0,0.0,0.0,0.0,0.0,192717,0.0,0.0,0.0,0.0,90.0,90.0,90.0,96.32057189940001,96.5752182007,96.44789123540001,50.2870025635,15.980395317100001,3.0199999808999998,0,2,25,1,211,2100
106,1530905243099,481099, RC,0,39.9586186,-88.445067899,0,-17843.600323374398,9436.2595054677,20185.0703727992,-17843.6187712975,9434.030489385501,0.0,0.0,-17843.5900963597,9433.882183101801,0.0151031206,11.1708822529,0.0,0.0,1500,1500,40.0434608745,-88.23558401870001,40.0435341667,-88.235571,0.0,0.0,0.0,0.0,0.0,0.0,0.0,0.0,0.0,0.0,0.0,192717,0.0,0.0,0.0,0.0,90.0,90.0,90.0,96.32057189940001,96.5752182007,96.44789123540001,50.2870025635,15.980395317100001,3.0199999808999998,0,2,25,1,212,2102
107,1530905243150,481150, RC,0,39.9586186,-88.445067899,0,-17843.600323374398,9436.2595054677,20185.0703727992,-17843.6168137492,9434.0291550459,0.0001,0.0,-17843.5900963597,9433.882183101801,0.0151031206,11.1708822529,0.0,0.0,1500,1500,40.0434608625,-88.2355840417,40.0435341667,-88.235571,0.0,0.0,0.0,0.0,0.0,0.0,0.0,0.0,0.0,0.0,0.0,192718,0.0,0.0,0.0,0.0,90.0,90.0,90.0,96.32057189940001,96.5752182007,96.44789123540001,50.2870025635,15.980395317100001,3.0199999808999998,0,2,25,1,216,2103
108,1530905243200,481200, RC,0,39.9586186,-88.445067899,0,-17843.6000996765,9436.2612816711,20185.0710054025,-17843.6168137492,9434.0291550459,0.0,0.0,-17843.5898726618,9433.8839593052,0.0092702138,11.1704270447,0.0,0.0,1500,1500,40.0434608625,-88.2355840417,40.0435341667,-88.235571,0.0,0.0,0.0,0.0,0.0,0.0,0.0,0.0,0.0,0.0,0.0,192718,0.0,0.0,0.0,0.0,90.0,90.0,90.0,96.32057189940001,96.5752182007,96.44789123540001,50.2870025635,15.980395317100001,3.0199999808999998,0,2,25,1,210,2105
109,1530905243251,481251, RC,0,39.9586186,-88.445067899,0,-17843.6004587291,9436.262937367199,20185.072096821597,-17843.6194825606,9434.0292662414,0.0,0.0,-17843.5902317144,9433.8856150013,0.0055723478,11.1700777525,0.0,0.0,1500,1500,40.0434608635,-88.2355840103,40.0435341667,-88.235571,0.0,0.0,0.0,0.0,0.0,0.0,0.0,0.0,0.0,0.0,0.0,192718,0.0,0.0,0.0,0.0,90.0,90.0,90.0,96.32057189940001,96.5752182007,96.44789123540001,49.2119979858,15.980395317100001,3.0199999808999998,0,2,25,1,209,2107
110,1530905243307,481307, RC,0,39.9586186,-88.445067899,0,-17843.6004587291,9436.262937367199,20185.072096821597,-17843.6194825606,9434.0292662414,0.0,0.0,-17843.5902317144,9433.8856150013,0.0055723478,11.1700777525,0.0,0.0,1500,1500,40.0434608635,-88.2355840103,40.0435341667,-88.235571,0.0,0.0,0.0,0.0,0.0,0.0,0.0,0.0,0.0,0.0,0.0,192718,0.0,0.0,0.0,0.0,90.0,90.0,90.0,96.32057189940001,96.5752182007,96.44789123540001,50.2870025635,15.980395317100001,3.0199999808999998,0,2,25,1,204,2109
111,1530905243357,481357, RC,0,39.9586186,-88.445067899,0,-17843.6009827883,9436.2638695428,20185.07299587,-17843.6174131156,9434.0265049008,0.0,0.0,-17843.590755773603,9433.886547176899,0.0030968187,11.1698417661,0.0,0.0,1500,1500,40.0434608387,-88.2355840347,40.0435341667,-88.235571,0.0,0.0,0.0,0.0,0.0,0.0,0.0,0.0,0.0,0.0,0.0,192718,0.0,0.0,0.0,0.0,90.0,90.0,90.0,96.32057189940001,96.5752182007,96.44789123540001,49.75,15.980395317100001,3.0199999808999998,0,2,25,1,201,2111
112,1530905243408,481408, RC,0,39.9586186,-88.445067899,0,-17843.6009827883,9436.2638695428,20185.07299587,-17843.6129798913,9434.0298407476,0.0001,0.0,-17843.590755773603,9433.886547176899,0.0030968187,11.1698417661,0.0,0.0,1500,1500,40.0434608687,-88.2355840867,40.0435341667,-88.235571,0.0,0.0,0.0,0.0,0.0,0.0,0.0,0.0,0.0,0.0,0.0,192718,0.0,0.0,0.0,0.0,90.0,90.0,90.0,96.32057189940001,96.5752182007,96.44789123540001,49.75,15.980395317100001,3.0199999808999998,0,2,25,1,213,2113
