,(0)linux time (ms),    (1)uptime  (ms),      (2)drive mode,(3)mpc step counter,(4)mpc origin latitude  (deg),(5)mpc origin longitude  (deg),(6)closest trajectory point index to robot,(7)mpc error x (W;E)  (m),(8)mpc error y (W;E)  (m),(9)abs mpc error (m),(10)input [x] for mhe (m),(11)input [y] for mhe (m),(12)input [speed] for mhe (m/s),(13)input [vyaw] for mhe (rad/s),(14)mhe output x  (m),(15)mhe output y  (m),(16)mhe output speed  (m/s),(17)mhe output yaw  (rad),(18)mpc reference heading (rad),(19)mpc turn rate command (rad/s),(20)turn rate command as PWM,(21)throttle command as PWM,(22)primary gps latitude (deg),(23)primary gps longitude (deg),(24)secondary gps latitude  (deg),(25)secondary gps longitude (deg),(26)accelerometer x (m/s^2),(27)accelerometer y (m/s^2),(28)accelerometer z (m/s^2),(29)gyro yaw rate (rad/s),(30)gyro pitch rate   (rad/s),(31)gyro roll rate (rad/s),      (32)yaw (rad),  (33)pitch   (rad),     (34)roll (rad),(35)sonar1 measurement (m),(36)ultrasonic sensor measurement (m),(37)primary gps time (s),(38)normalized turn rate command,(39)normalized throttle command,(40)speed calculation from encoder left (m/s),(41)speed calculation from encoder right (m/s),(42)front gimbal target angle (degrees from straight down),(43)left gimbal target angle  (degrees from straight down),(44)right gimbal target angle  (degrees from straight down),(45)front gimbal measured angle  (degrees from straight down),(46)left gimbal measured angle    (degrees from straight down),(47)right gimbal measured angle  (degrees from straight down),(48)internal temperature (C),(49)battery voltage (V),(50)primary gps type,(51)secondary gps type,    (52)MPC R value, (53)MPC Q[0] value,Unnamed: 54,weed_num,start
0,1530906734373,1127373, RC,455,40.0434592604,-88.2344147,9,118.9616572174,3.3203839327,119.0079864436,120.2477833072,2.8313304721,0.1614020765,0.0,120.23397138700001,2.6609636121,0.061781513499999996,-1.666502486,-0.47816773869999996,0.0,1500,1701,40.0434847232,-88.2358272858,40.043504,-88.2358238333,0.0,0.0,0.0,0.0,0.0,0.0,0.0,0.0,0.0,0.0,0.0,195206,0.0,0.4022250175,0.1638851911,0.1589189619,90.0,54.0,54.0,96.76620483399999,132.0986022949,133.3081817627,55.1299972534,15.534681320199999,3.0100002289,0,2,25,1,60,37
1,1530906734430,1127430, RC,455,40.0434592604,-88.2344147,9,118.9616572174,3.3203839327,119.0079864436,120.2477833072,2.8313304721,0.2014077157,0.0,120.23397138700001,2.6609636121,0.061781513499999996,-1.666502486,-0.47816773869999996,0.0,1500,1735,40.0434847232,-88.2358272858,40.043504,-88.2358238333,0.0,0.0,0.0,0.0,0.0,0.0,0.0,0.0,0.0,0.0,0.0,195206,0.0,0.4704819918,0.19313068690000001,0.2096847445,90.0,54.0,54.0,96.8298721313,132.03494262700002,133.3718414307,54.5920028687,15.534681320199999,3.0100002289,0,2,25,1,71,40
2,1530906734480,1127480, RC,455,40.0434592604,-88.2344147,9,118.9616572174,3.3203839327,119.0079864436,120.2477833072,2.8313304721,0.2432526946,0.0,120.23397138700001,2.6609636121,0.061781513499999996,-1.666502486,-0.47816773869999996,0.0,1500,1735,40.0434847232,-88.2358272858,40.043504,-88.2358238333,0.0,0.0,0.0,0.0,0.0,0.0,0.0,0.0,0.0,0.0,0.0,195206,0.0,0.4704819918,0.2433446646,0.2431607395,90.0,54.0,54.0,96.51155853270001,132.1622619629,133.1808624268,54.5920028687,15.5185317993,18.25,0,2,25,1,72,42
3,1530906734530,1127530, RC,455,40.0434592604,-88.2344147,9,118.9611284174,3.324107642,119.0075618015,120.24432138959999,2.8473981387,0.2775563896,0.0,120.23344258700001,2.6646873213999998,0.06372668299999999,-1.6669892621,-0.47816773869999996,0.0,1500,1745,40.0434848677,-88.2358272452,40.043504,-88.2358238333,0.0,0.0,0.0,0.0,0.0,0.0,0.0,0.0,0.0,0.0,0.0,195206,0.0,0.4913649559,0.28031539920000004,0.27479738,90.0,54.0,54.0,95.36563873290001,132.5442352295,132.6079101562,54.5920028687,15.5185317993,18.25,0,2,25,1,56,45
4,1530906734581,1127581, RC,455,40.0434592604,-88.2344147,9,118.9611284174,3.324107642,119.0075618015,120.2473430946,2.8812199287999998,0.33466789129999996,0.0,120.23344258700001,2.6646873213999998,0.06372668299999999,-1.6669892621,-0.47816773869999996,0.0,1500,1745,40.0434851718,-88.2358272807,40.043504,-88.2358238333,0.0,0.0,0.0,0.0,0.0,0.0,0.0,0.0,0.0,0.0,0.0,195206,0.0,0.4913649559,0.3415654004,0.3277703822,90.0,54.0,54.0,94.6016998291,133.2445220947,131.971282959,54.5920028687,15.5185317993,18.25,0,2,25,1,71,47
5,1530906734631,1127631, RC,455,40.0434592604,-88.2344147,9,118.9607315733,3.3279499677999995,119.0072724981,120.2473430946,2.8812199287999998,0.3631776571,0.0,120.2330457429,2.6685296472,0.06813618190000001,-1.6676788958000002,-0.47816773869999996,0.0,1500,1745,40.0434851718,-88.2358272807,40.043504,-88.2358238333,0.0,0.0,0.0,0.0,0.0,0.0,0.0,0.0,0.0,0.0,0.0,195206,0.0,0.4913649559,0.3671322465,0.3592230976,90.0,54.0,54.0,95.174659729,133.3081817627,131.2709960938,54.5920028687,15.5185317993,18.25,0,2,25,1,82,50
6,1530906734682,1127682, RC,455,40.0434592604,-88.2344147,9,118.9607315733,3.3279499677999995,119.0072724981,120.2473430946,2.8812199287999998,0.40456283090000006,0.0,120.2330457429,2.6685296472,0.06813618190000001,-1.6676788958000002,-0.47816773869999996,0.0,1500,1745,40.0434851718,-88.2358272807,40.043504,-88.2358238333,0.0,0.0,0.0,0.0,0.0,0.0,0.0,0.0,0.0,0.0,0.0,195206,0.0,0.4913649559,0.4033672512,0.40575838090000005,90.0,54.0,54.0,95.93859863280001,132.8625488281,130.7617034912,54.5920028687,15.5185317993,18.25,0,2,25,1,76,52
7,1530906734732,1127732, RC,455,40.0434592604,-88.2344147,9,118.9607315733,3.3279499677999995,119.0072724981,120.2473430946,2.8812199287999998,0.4211168587,0.0,120.2330457429,2.6685296472,0.06813618190000001,-1.6676788958000002,-0.47816773869999996,0.0,1500,1745,40.0434851718,-88.2358272807,40.043504,-88.2358238333,0.0,0.0,0.0,0.0,0.0,0.0,0.0,0.0,0.0,0.0,0.0,195206,0.0,0.4913649559,0.41201213,0.4302215874,90.0,54.0,54.0,95.62029266360001,132.6079101562,130.50704956049998,54.5920028687,15.5185317993,18.25,0,2,25,1,75,54
8,1530906734784,1127784, RC,455,40.0434592604,-88.2344147,9,118.96081752010001,3.3295909767,119.0074043122,120.2605940539,2.9218616744999997,0.44171747570000003,0.0,120.23313168969999,2.6701706561000003,0.083257395,-1.6680302913,-0.47816773869999996,0.0,1500,1745,40.0434855373,-88.23582743629999,40.043504,-88.2358238333,0.0,0.0,0.0,0.0,0.0,0.0,0.0,0.0,0.0,0.0,0.0,195207,0.0,0.4913649559,0.4276465178,0.4557884336,90.0,54.0,54.0,95.3019790649,132.5442352295,131.5893096924,54.5920028687,15.5185317993,18.25,0,2,25,1,61,57
9,1530906734837,1127837, RC,455,40.0434592604,-88.2344147,9,118.96196373459999,3.3328937372000005,119.0086425276,120.27417125209999,2.9718252622000003,0.45450088380000003,0.0,120.2342779042,2.6734734166,0.09988759400000001,-1.6675459206999999,-0.47816773869999996,0.0,1500,1745,40.0434859867,-88.2358275958,40.043504,-88.2358238333,0.0,0.0,0.0,0.0,0.0,0.0,0.0,0.0,0.0,0.0,0.0,195207,0.0,0.4913649559,0.43868255619999996,0.4703192115,90.0,54.0,54.0,95.8749313354,132.6079101562,133.1171875,54.5920028687,15.5185317993,18.25,0,2,25,1,78,59
10,1530906734890,1127890, RC,455,40.0434592604,-88.2344147,9,118.96196373459999,3.3328937372000005,119.0086425276,120.2783137388,3.0113550585000004,0.4718826413,0.0,120.2342779042,2.6734734166,0.09988759400000001,-1.6675459206999999,-0.47816773869999996,0.0,1500,1745,40.0434863422,-88.2358276445,40.043504,-88.2358238333,0.0,0.0,0.0,0.0,0.0,0.0,0.0,0.0,0.0,0.0,0.0,195207,0.0,0.4913649559,0.4594670832,0.48429819939999996,90.0,54.0,54.0,96.51155853270001,132.67155456540002,133.1171875,55.1299972534,15.5185317993,18.25,0,2,25,1,74,62
11,1530906734940,1127940, RC,455,40.0434592604,-88.2344147,9,118.96363407209999,3.3381661887000003,119.01045998209999,120.2783137388,3.0113550585000004,0.47997576,0.0,120.2359482417,2.6787458681,0.1190528458,-1.6661978589,-0.47816773869999996,0.0,1500,1745,40.0434863422,-88.2358276445,40.043504,-88.2358238333,0.0,0.0,0.0,0.0,0.0,0.0,0.0,0.0,0.0,0.0,0.0,195207,0.0,0.4913649559,0.4701352715,0.4898162186,90.0,54.0,54.0,96.44789123540001,132.7352142334,133.05352783200001,54.5920028687,15.5185317993,18.25,0,2,25,1,64,64
12,1530906734990,1127990, RC,455,40.0434592604,-88.2344147,9,118.96363407209999,3.3381661887000003,119.01045998209999,120.2783137388,3.0113550585000004,0.4874250889,0.0,120.2359482417,2.6787458681,0.1190528458,-1.6661978589,-0.47816773869999996,0.0,1500,1745,40.0434863422,-88.2358276445,40.043504,-88.2358238333,0.0,0.0,0.0,0.0,0.0,0.0,0.0,0.0,0.0,0.0,0.0,195207,0.0,0.4913649559,0.48190706969999997,0.4929431081,90.0,54.0,54.0,96.95719146729999,132.9262084961,132.9898681641,54.5920028687,15.5185317993,18.25,0,2,25,1,67,66
13,1530906735041,1128041, RC,455,40.0434592604,-88.2344147,9,118.96544912450001,3.3461686767,119.01249905030001,120.2802428859,3.0585758368000002,0.507473886,0.0,120.23776329409999,2.6867483561000003,0.14108530630000002,-1.6638514636000001,-0.47816773869999996,0.0,1500,1745,40.0434867668,-88.2358276672,40.043504,-88.2358238333,0.0,0.0,0.0,0.0,0.0,0.0,0.0,0.0,0.0,0.0,0.0,195207,0.0,0.4913649559,0.5054506063,0.5094971657,90.0,54.0,54.0,97.02085876459999,132.9262084961,132.9262084961,54.5920028687,15.5185317993,18.25,0,2,25,1,61,68
14,1530906735100,1128100, RC,455,40.0434592604,-88.2344147,9,118.96544912450001,3.3461686767,119.01249905030001,120.2831367698,3.1091695285000003,0.5159348249,0.0,120.23776329409999,2.6867483561000003,0.14108530630000002,-1.6638514636000001,-0.47816773869999996,0.0,1500,1745,40.0434872218,-88.23582770120001,40.043504,-88.2358236667,0.0,0.0,0.0,0.0,0.0,0.0,0.0,0.0,0.0,0.0,0.0,195207,0.0,0.4913649559,0.5161187649,0.515750885,90.0,54.0,54.0,96.6388778687,132.67155456540002,133.05352783200001,54.5920028687,15.5185317993,18.25,0,2,25,1,63,71
15,1530906735151,1128151, RC,455,40.0434592604,-88.2344147,9,118.9676330125,3.3574913792000003,119.01500095770001,120.2831367698,3.1091695285000003,0.5188778043,0.0,120.2399471821,2.6980710586,0.1646011166,-1.660269,-0.47816773869999996,0.0,1500,1745,40.0434872218,-88.23582770120001,40.043504,-88.2358236667,0.0,0.0,0.0,0.0,0.0,0.0,0.0,0.0,0.0,0.0,0.0,195207,0.0,0.4913649559,0.5256834029999999,0.5120722055,90.0,54.0,54.0,96.8298721313,132.22593688959998,133.3081817627,54.5920028687,15.5185317993,18.25,0,2,25,1,46,73
16,1530906735201,1128201, RC,455,40.0434592604,-88.2344147,9,118.9676330125,3.3574913792000003,119.01500095770001,120.2857327199,3.1586142063,0.5158429146,0.0,120.2399471821,2.6980710586,0.1646011166,-1.660269,-0.47816773869999996,0.0,1500,1745,40.0434876665,-88.2358277317,40.043504,-88.2358236667,0.0,0.0,0.0,0.0,0.0,0.0,0.0,0.0,0.0,0.0,0.0,195207,0.0,0.4913649559,0.5253155231000001,0.506370306,90.0,54.0,54.0,97.46648406979999,132.03494262700002,133.5628356934,54.5920028687,15.5185317993,18.25,0,2,25,1,88,76
17,1530906735252,1128252, RC,455,40.0434592604,-88.2344147,9,118.97028029540002,3.3717558427,119.01805044209999,120.2857327199,3.1586142063,0.5091292857999999,0.0,120.242594465,2.7123355220999996,0.18872966600000002,-1.6552950549,-0.47816773869999996,0.0,1500,1745,40.0434876665,-88.2358277317,40.043504,-88.2358236667,0.0,0.0,0.0,0.0,0.0,0.0,0.0,0.0,0.0,0.0,0.0,195207,0.0,0.4913649559,0.5159348249,0.5023237467,90.0,54.0,54.0,97.91212463379999,131.84396362299998,133.7538146973,54.5920028687,15.5185317993,18.25,0,2,25,1,91,78
18,1530906735302,1128302, RC,455,40.0434592604,-88.2344147,9,118.97028029540002,3.3717558427,119.01805044209999,120.2847249755,3.2115985885000002,0.5057265162,0.0,120.242594465,2.7123355220999996,0.18872966600000002,-1.6552950549,-0.47816773869999996,0.0,1500,1745,40.043488143000005,-88.2358277198,40.043504,-88.2358236667,0.0,0.0,0.0,0.0,0.0,0.0,0.0,0.0,0.0,0.0,0.0,195207,0.0,0.4913649559,0.5128079653000001,0.4986450672,90.0,54.0,54.0,98.4850769043,131.84396362299998,133.5628356934,55.6679992676,15.5185317993,18.25,0,2,25,1,96,80
19,1530906735353,1128353, RC,455,40.0434592604,-88.2344147,9,118.9731426715,3.3892357075,119.0214081408,120.2847249755,3.2115985885000002,0.5094051957,0.0,120.24545684110001,2.7298153869,0.2123992946,-1.6494366162,-0.47816773869999996,0.0,1500,1745,40.043488143000005,-88.2358277198,40.043504,-88.2358236667,0.0,0.0,0.0,0.0,0.0,0.0,0.0,0.0,0.0,0.0,0.0,195207,0.0,0.4913649559,0.5229243635999999,0.4958860278,90.0,54.0,54.0,97.91212463379999,131.907623291,133.2445220947,55.1299972534,15.5185317993,18.25,0,2,25,1,95,83
20,1530906735403,1128403, RC,455,40.0434592604,-88.2344147,9,118.9764259931,3.4099012091,119.025280375,120.28727833379999,3.2647126987,0.5069220662,0.0,120.2487401627,2.7504808885000003,0.2362119278,-1.6421756831,-0.47816773869999996,0.0,1500,1745,40.0434886207,-88.2358277498,40.043504,-88.2358236667,0.0,0.0,0.0,0.0,0.0,0.0,0.0,0.0,0.0,0.0,0.0,195207,0.0,0.4913649559,0.5175902246999999,0.49625390770000005,90.0,54.0,54.0,96.70254516600001,131.907623291,133.2445220947,55.1299972534,15.5185317993,18.25,0,2,25,1,85,85
21,1530906735465,1128465, RC,455,40.0434592604,-88.2344147,9,118.9764259931,3.4099012091,119.025280375,120.28727833379999,3.2647126987,0.4988289773,0.0,120.2487401627,2.7504808885000003,0.2362119278,-1.6421756831,-0.47816773869999996,0.0,1554,1744,40.0434886207,-88.2358277498,40.043504,-88.2358236667,0.0,0.0,0.0,0.0,0.0,0.0,0.0,0.0,0.0,0.0,0.0,195207,0.1088130474,0.48879802229999997,0.5163027048,0.4813552499,90.0,54.0,54.0,97.53015136719999,132.03494262700002,132.9262084961,54.5920028687,15.496350288399999,14.0699996948,0,2,25,1,73,88
22,1530906735515,1128515, RC,455,40.0434592604,-88.2344147,9,118.9764259931,3.4099012091,119.025280375,120.2929246459,3.3124709202,0.49818521740000005,0.0,120.2487401627,2.7504808885000003,0.2362119278,-1.6421756831,-0.47816773869999996,0.0,1554,1744,40.0434890502,-88.23582781620001,40.043504,-88.2358236667,0.0,0.0,0.0,0.0,0.0,0.0,0.0,0.0,0.0,0.0,0.0,195207,0.1088130474,0.48879802229999997,0.5232921839,0.4730782211,90.0,54.0,54.0,97.72113800049999,132.2895965576,132.7988891602,54.5920028687,15.496350288399999,14.0699996948,0,2,25,1,74,90
23,1530906735565,1128565, RC,455,40.0434592604,-88.2344147,9,118.9807960329,3.4336113699,119.03033021739999,120.2929246459,3.3124709202,0.5032434464,0.0,120.2531102025,2.7741910493,0.2597456402,-1.6323425162,-0.47816773869999996,0.0,1578,1744,40.0434890502,-88.23582781620001,40.043504,-88.2358236667,0.0,0.0,0.0,0.0,0.0,0.0,0.0,0.0,0.0,0.0,0.0,195207,0.15769004820000002,0.48879802229999997,0.5378230214,0.46866381170000004,90.0,54.0,54.0,96.5752182007,132.3532409668,132.67155456540002,54.5920028687,15.496350288399999,14.0699996948,0,2,25,1,49,93
24,1530906735616,1128616, RC,455,40.0434592604,-88.2344147,9,118.9868646905,3.4602380581,119.0371673734,120.3001173898,3.3632314036,0.5051747561,0.0,120.25917886010001,2.8008177375,0.2838977929,-1.6174599662,-0.47816773869999996,0.0,1578,1744,40.0434895067,-88.2358279007,40.043504,-88.2358236667,0.0,0.0,0.0,0.0,0.0,0.0,0.0,0.0,0.0,0.0,0.0,195207,0.15769004820000002,0.48879802229999997,0.5549288988000001,0.45542055369999995,90.0,54.0,54.0,96.00226593020001,132.22593688959998,132.7352142334,54.5920028687,15.496350288399999,14.0699996948,0,2,25,1,64,97
25,1530906735671,1128671, RC,455,40.0434592604,-88.2344147,9,118.9868646905,3.4602380581,119.0371673734,120.3001173898,3.3632314036,0.513543725,0.0,120.25917886010001,2.8008177375,0.2838977929,-1.6174599662,-0.47816773869999996,0.0,1578,1744,40.0434895067,-88.2358279007,40.043504,-88.2358236667,0.0,0.0,0.0,0.0,0.0,0.0,0.0,0.0,0.0,0.0,0.0,195207,0.15769004820000002,0.48879802229999997,0.5768169761,0.4502704144,90.0,54.0,54.0,96.3842315674,132.03494262700002,132.9262084961,54.5920028687,15.496350288399999,14.0699996948,0,2,25,1,74,101
26,1530906735721,1128721, RC,455,40.0434592604,-88.2344147,9,118.9868646905,3.4602380581,119.0371673734,120.3001173898,3.3632314036,0.5125320554,0.0,120.25917886010001,2.8008177375,0.2838977929,-1.6174599662,-0.47816773869999996,0.0,1609,1744,40.0434895067,-88.2358279007,40.043504,-88.2358236667,0.0,0.0,0.0,0.0,0.0,0.0,0.0,0.0,0.0,0.0,0.0,195207,0.2190300226,0.48879802229999997,0.5771848559,0.4478792846,90.0,54.0,54.0,96.19325256350001,131.84396362299998,133.05352783200001,54.5920028687,15.496350288399999,14.0699996948,0,2,25,1,85,103
27,1530906735772,1128772, RC,455,40.0434592604,-88.2344147,9,118.99569688049999,3.4891749735000004,119.04684043719999,120.30706899239999,3.4080058938,0.514555335,0.0,120.2680110501,2.8297546529,0.30892136940000003,-1.5937052058,-0.47816773869999996,0.0,1609,1744,40.0434899093,-88.2358279823,40.043504,-88.2358236667,0.0,0.0,0.0,0.0,0.0,0.0,0.0,0.0,0.0,0.0,0.0,195208,0.2190300226,0.48879802229999997,0.5832546949,0.445856005,90.0,54.0,54.0,95.8749313354,132.03494262700002,132.7988891602,54.5920028687,15.496350288399999,14.0699996948,0,2,25,1,86,106
28,1530906735822,1128822, RC,455,40.0434592604,-88.2344147,9,119.0086449232,3.5205402027,119.0607062375,120.3104027416,3.4523541376,0.5076577663,0.0,120.2809590928,2.8611198820999997,0.3350282094,-1.5540331022,-0.47816773869999996,0.0,1609,1744,40.0434903082,-88.2358280215,40.043504,-88.2358236667,0.0,0.0,0.0,0.0,0.0,0.0,0.0,0.0,0.0,0.0,0.0,195208,0.2190300226,0.48879802229999997,0.5854618549,0.42985373740000005,90.0,54.0,54.0,95.55662536620001,132.0986022949,132.8625488281,54.5920028687,15.496350288399999,14.0699996948,0,2,25,1,71,108
29,1530906735873,1128873, RC,455,40.0434592604,-88.2344147,9,119.0086449232,3.5205402027,119.0607062375,120.3104027416,3.4523541376,0.5048068165999999,0.0,120.2809590928,2.8611198820999997,0.3350282094,-1.5540331022,-0.47816773869999996,0.0,1609,1744,40.0434903082,-88.2358280215,40.043504,-88.2358236667,0.0,0.0,0.0,0.0,0.0,0.0,0.0,0.0,0.0,0.0,0.0,195208,0.2190300226,0.48879802229999997,0.5900602341,0.4195534289,90.0,54.0,54.0,95.3019790649,131.3346557617,133.5628356934,55.1299972534,15.496350288399999,14.0699996948,0,2,25,1,71,111
30,1530906735923,1128923, RC,455,40.0434592604,-88.2344147,9,119.0086449232,3.5205402027,119.0607062375,120.31163667790001,3.5015393602,0.5043470263000001,0.0,120.2809590928,2.8611198820999997,0.3350282094,-1.5540331022,-0.47816773869999996,0.0,1500,1744,40.0434907505,-88.235828036,40.043504,-88.2358236667,0.0,0.0,0.0,0.0,0.0,0.0,0.0,0.0,0.0,0.0,0.0,195208,0.0,0.48879802229999997,0.5966818929,0.41201213,90.0,54.0,54.0,95.1109924316,130.6343688965,134.2631072998,55.1299972534,15.496350288399999,14.0699996948,0,2,25,1,64,113
31,1530906735973,1128973, RC,455,40.0434592604,-88.2344147,9,119.0288191291,3.5561763851999997,119.081930509,120.31163667790001,3.5015393602,0.4991968572,0.0,120.30113329870001,2.8967560646,0.3587228976,-1.4878043738,-0.47816773869999996,0.0,1500,1744,40.0434907505,-88.235828036,40.043504,-88.2358236667,0.0,0.0,0.0,0.0,0.0,0.0,0.0,0.0,0.0,0.0,0.0,195208,0.0,0.48879802229999997,0.5907959938,0.40759772060000005,90.0,54.0,54.0,95.1109924316,131.2073364258,134.8360595703,54.5920028687,15.496350288399999,14.0699996948,0,2,25,1,62,116
32,1530906736024,1129024, RC,455,40.0434592604,-88.2344147,9,119.06005271309999,3.5968697851,119.1143720308,120.3071814851,3.535046098,0.4955181777,0.0,120.3323668827,2.9374494644999998,0.3789847364,-1.3802721176,-0.47816773869999996,0.0,1500,1744,40.0434910518,-88.2358279837,40.043504,-88.2358236667,0.0,0.0,0.0,0.0,0.0,0.0,0.0,0.0,0.0,0.0,0.0,195208,0.0,0.48879802229999997,0.5538252592,0.43721109630000005,90.0,54.0,54.0,95.4929656982,132.2895965576,134.3904266357,54.5920028687,15.496350288399999,14.0699996948,0,2,25,1,63,118
33,1530906736079,1129079, RC,455,40.0434592604,-88.2344147,9,119.06005271309999,3.5968697851,119.1143720308,120.296597261,3.5633452071,0.5071060061,0.0,120.3323668827,2.9374494644999998,0.3789847364,-1.3802721176,-0.47816773869999996,0.0,1500,1744,40.0434913063,-88.2358278593,40.043504166700004,-88.2358235,0.0,0.0,0.0,0.0,0.0,0.0,0.0,0.0,0.0,0.0,0.0,195208,0.0,0.48879802229999997,0.5231083035,0.4911037385,90.0,54.0,54.0,97.14817810059999,132.4805755615,133.1808624268,54.5920028687,15.496350288399999,14.0699996948,0,2,25,1,61,121
34,1530906736129,1129129, RC,455,40.0434592604,-88.2344147,9,119.1068544708,3.6465480692,119.16266233489999,120.296597261,3.5633452071,0.507473886,0.0,120.37916864040001,2.9871277486000003,0.3950323755,-1.2112545358,-0.47816773869999996,0.0,1500,1744,40.0434913063,-88.2358278593,40.043504166700004,-88.2358235,0.0,0.0,0.0,0.0,0.0,0.0,0.0,0.0,0.0,0.0,0.0,195208,0.0,0.48879802229999997,0.5045309663,0.5104168057,90.0,54.0,54.0,97.7847976685,132.7352142334,132.9262084961,54.5920028687,15.496350288399999,14.0699996948,0,2,25,1,60,123
35,1530906736180,1129180, RC,455,40.0434592604,-88.2344147,9,119.1068544708,3.6465480692,119.16266233489999,120.3002147221,3.6129381441,0.5005763769,0.0,120.37916864040001,2.9871277486000003,0.3950323755,-1.2112545358,-0.47816773869999996,0.0,1500,1744,40.0434917523,-88.23582790180001,40.043504166700004,-88.2358235,0.0,0.0,0.0,0.0,0.0,0.0,0.0,0.0,0.0,0.0,0.0,195208,0.0,0.48879802229999997,0.49183949829999996,0.5093132257,90.0,54.0,54.0,98.03944396969999,133.3718414307,132.0986022949,54.5920028687,15.496350288399999,14.0699996948,0,2,25,1,60,126
36,1530906736230,1129230, RC,455,40.0434592604,-88.2344147,9,119.1762399913,3.7162062563,119.2341661077,120.3002147221,3.6129381441,0.5076578259000001,0.0,120.4485541609,3.0567859357,0.4097960525,-0.9444039926000001,-0.47816773869999996,0.0,1500,1744,40.0434917523,-88.23582790180001,40.043504166700004,-88.2358235,0.0,0.0,0.0,0.0,0.0,0.0,0.0,0.0,0.0,0.0,0.0,195208,0.0,0.48879802229999997,0.5021398067,0.5131758451,90.0,54.0,54.0,97.7847976685,133.1171875,131.971282959,54.5920028687,15.496350288399999,14.0699996948,0,2,25,1,59,128
37,1530906736281,1129281, RC,455,40.0434592604,-88.2344147,9,119.1762399913,3.7162062563,119.2341661077,120.3002147221,3.6129381441,0.5102329254,0.0,120.4485541609,3.0567859357,0.4097960525,-0.9444039926000001,-0.47816773869999996,0.0,1500,1744,40.0434917523,-88.23582790180001,40.043504166700004,-88.2358235,0.0,0.0,0.0,0.0,0.0,0.0,0.0,0.0,0.0,0.0,0.0,195208,0.0,0.48879802229999997,0.5056345463,0.5148312449,90.0,54.0,54.0,96.3842315674,132.8625488281,132.22593688959998,54.5920028687,15.496350288399999,14.0699996948,0,2,25,1,42,131
38,1530906736331,1129331, RC,455,40.0434592604,-88.2344147,9,119.2682983691,3.8333709155,119.32988614940001,120.31323853459999,3.6716490657,0.5064622164,0.0,120.5406125387,3.1739505949,0.42337969509999995,-0.5251941779,-0.47816773869999996,0.0,1500,1744,40.0434922803,-88.2358280548,40.043504166700004,-88.2358235,0.0,0.0,0.0,0.0,0.0,0.0,0.0,0.0,0.0,0.0,0.0,195208,0.0,0.48879802229999997,0.5004843473,0.5124400854,90.0,54.0,54.0,94.7926864624,132.7988891602,132.3532409668,54.5920028687,15.496350288399999,14.0699996948,0,2,25,1,41,133
39,1530906736382,1129382, RC,455,40.0434592604,-88.2344147,9,119.2682983691,3.8333709155,119.32988614940001,120.31323853459999,3.6716490657,0.49855309719999996,0.0,120.5406125387,3.1739505949,0.42337969509999995,-0.5251941779,-0.47816773869999996,0.0,1500,1744,40.0434922803,-88.2358280548,40.043504166700004,-88.2358235,0.0,0.0,0.0,0.0,0.0,0.0,0.0,0.0,0.0,0.0,0.0,195208,0.0,0.48879802229999997,0.4911037385,0.5060024261,90.0,54.0,54.0,95.23831939700001,131.84396362299998,132.67155456540002,54.5920028687,15.496350288399999,14.0699996948,0,2,25,1,45,136
40,1530906736432,1129432, RC,455,40.0434592604,-88.2344147,9,119.2682983691,3.8333709155,119.32988614940001,120.3109823494,3.7152930738,0.4957020879,0.0,120.5406125387,3.1739505949,0.42337969509999995,-0.5251941779,-0.47816773869999996,0.0,1500,1744,40.0434926728,-88.2358280283,40.043504166700004,-88.2358235,0.0,0.0,0.0,0.0,0.0,0.0,0.0,0.0,0.0,0.0,0.0,195208,0.0,0.48879802229999997,0.4901840985,0.5012201071,90.0,54.0,54.0,96.3842315674,131.2709960938,133.6264953613,54.5920028687,15.496350288399999,14.0699996948,0,2,25,1,46,138
41,1530906736482,1129482, RC,455,40.0434592604,-88.2344147,9,119.3420335232,4.0331447082,119.4101638124,120.3022992691,3.7439072352999996,0.4940466881,0.0,120.61434769280001,3.3737243876,0.4464668268,0.0752988701,-0.47816773869999996,0.0,1500,1744,40.0434929302,-88.23582792629999,40.043504166700004,-88.2358235,0.0,0.0,0.0,0.0,0.0,0.0,0.0,0.0,0.0,0.0,0.0,195208,0.0,0.48879802229999997,0.4991968572,0.4888965189,90.0,54.0,54.0,95.81127929690001,130.4433898926,134.3904266357,55.1299972534,15.479005813599999,13.630000114400001,0,2,25,1,39,141
42,1530906736533,1129533, RC,455,40.0434592604,-88.2344147,9,119.2963239645,4.2836764854,119.3732080313,120.3022992691,3.7439072352999996,0.4933109879,0.0,120.5686381341,3.6242561648000002,0.4844344782,0.7514203401999999,-0.47816773869999996,0.0,1500,1744,40.0434929302,-88.23582792629999,40.043504166700004,-88.2358235,0.0,0.0,0.0,0.0,0.0,0.0,0.0,0.0,0.0,0.0,0.0,195208,0.0,0.48879802229999997,0.506370306,0.4802516699,90.0,54.0,54.0,94.9200057983,131.5256500244,134.3904266357,54.5920028687,15.479005813599999,13.630000114400001,0,2,25,1,42,143
43,1530906736583,1129583, RC,455,40.0434592604,-88.2344147,9,119.2963239645,4.2836764854,119.3732080313,120.2869904823,3.7812501979000004,0.4898162186,0.0,120.5686381341,3.6242561648000002,0.4844344782,0.7514203401999999,-0.47816773869999996,0.0,1500,1744,40.043493266,-88.2358277465,40.043504166700004,-88.2358235,0.0,0.0,0.0,0.0,0.0,0.0,0.0,0.0,0.0,0.0,0.0,195208,0.0,0.48879802229999997,0.5017719268999999,0.4778605103,90.0,54.0,54.0,93.9014129639,132.2895965576,133.3081817627,54.5920028687,15.479005813599999,13.630000114400001,0,2,25,1,47,146
44,1530906736634,1129634, RC,455,40.0434592604,-88.2344147,9,119.2031209375,4.4796249994,119.2872628631,120.2869904823,3.7812501979000004,0.47454971079999997,0.0,120.4754351071,3.8202046788,0.504755476,1.2426022731,-0.47816773869999996,0.0,1500,1744,40.043493266,-88.2358277465,40.043504166700004,-88.2358235,0.0,0.0,0.0,0.0,0.0,0.0,0.0,0.0,0.0,0.0,0.0,195208,0.0,0.48879802229999997,0.4778605103,0.4712388813,90.0,54.0,54.0,94.0923995972,133.05352783200001,130.9526824951,54.5920028687,15.479005813599999,13.630000114400001,0,2,25,1,49,149
45,1530906736684,1129684, RC,455,40.0434592604,-88.2344147,9,119.2031209375,4.4796249994,119.2872628631,120.2869904823,3.7812501979000004,0.4566161335,0.0,120.4754351071,3.8202046788,0.504755476,1.2426022731,-0.47816773869999996,0.0,1500,1744,40.043493266,-88.2358277465,40.043504166700004,-88.2358235,0.0,0.0,0.0,0.0,0.0,0.0,0.0,0.0,0.0,0.0,0.0,195208,0.0,0.48879802229999997,0.4508222044,0.4624100626,90.0,54.0,54.0,95.81127929690001,133.1808624268,130.6343688965,54.5920028687,15.479005813599999,13.630000114400001,0,2,25,1,44,151
46,1530906736734,1129734, RC,455,40.0434592604,-88.2344147,9,119.2031209375,4.4796249994,119.2872628631,120.2925234803,3.8056018868,0.4377629161,0.0,120.4754351071,3.8202046788,0.504755476,1.2426022731,-0.47816773869999996,0.0,1500,1742,40.043493485,-88.2358278115,40.043504166700004,-88.2358235,0.0,0.0,0.0,0.0,0.0,0.0,0.0,0.0,0.0,0.0,0.0,195209,0.0,0.48514199259999996,0.42635899780000003,0.4491668046,90.0,54.0,54.0,98.8670501709,132.8625488281,130.6343688965,54.5920028687,15.479005813599999,13.630000114400001,0,2,25,1,46,154
47,1530906736785,1129785, RC,455,40.0434592604,-88.2344147,9,119.09102647579999,4.6170220225,119.18049118639999,120.3070514358,3.8326407866000003,0.4364753664,0.0,120.36334064540002,3.9576017019,0.5009832195,1.4677638547,-0.47816773869999996,0.0,1500,1742,40.043493728200005,-88.2358279822,40.043504166700004,-88.2358235,0.0,0.0,0.0,0.0,0.0,0.0,0.0,0.0,0.0,0.0,0.0,195209,0.0,0.48514199259999996,0.42488753799999995,0.44806319479999995,90.0,54.0,54.0,98.8670501709,131.971282959,132.9262084961,54.5920028687,15.479005813599999,13.630000114400001,0,2,25,1,34,156
48,1530906736835,1129835, RC,455,40.0434592604,-88.2344147,9,119.04797360379999,4.661463603600001,119.139201198,120.3070514358,3.8326407866000003,0.44401666520000005,0.0,120.3202877734,4.002043283,0.4952781263,1.5285317237,-0.47816773869999996,0.0,1500,1742,40.043493728200005,-88.2358279822,40.043504166700004,-88.2358235,0.0,0.0,0.0,0.0,0.0,0.0,0.0,0.0,0.0,0.0,0.0,195209,0.0,0.48514199259999996,0.43537175659999994,0.4526615739,90.0,54.0,54.0,98.23043060299999,131.7166290283,133.8174743652,54.5920028687,15.479005813599999,13.630000114400001,0,2,25,1,30,158
49,1530906736886,1129886, RC,455,40.0434592604,-88.2344147,9,119.04797360379999,4.661463603600001,119.139201198,120.3070514358,3.8326407866000003,0.4636056125,0.0,120.3202877734,4.002043283,0.4952781263,1.5285317237,-0.47816773869999996,0.0,1500,1742,40.043493728200005,-88.2358279822,40.043504166700004,-88.2358235,0.0,0.0,0.0,0.0,0.0,0.0,0.0,0.0,0.0,0.0,0.0,195209,0.0,0.48514199259999996,0.45781168340000006,0.46939954159999997,90.0,54.0,54.0,96.8935317993,131.84396362299998,133.7538146973,54.5920028687,15.479005813599999,13.630000114400001,0,2,25,1,28,161
50,1530906736936,1129936, RC,455,40.0434592604,-88.2344147,9,119.03686618110001,4.6957677336,119.12944952790001,120.30146113200001,3.8782307063999997,0.47648099060000004,0.0,120.3091803507,4.0363474130000006,0.4923561487,1.5537746266999999,-0.47816773869999996,0.0,1500,1742,40.0434941382,-88.2358279165,40.043504166700004,-88.2358235,0.0,0.0,0.0,0.0,0.0,0.0,0.0,0.0,0.0,0.0,0.0,195209,0.0,0.48514199259999996,0.4701352715,0.48282670969999997,90.0,54.0,54.0,96.8298721313,132.0986022949,133.3081817627,54.5920028687,15.479005813599999,13.630000114400001,0,2,25,1,28,163
51,1530906736987,1129987, RC,455,40.0434592604,-88.2344147,9,119.03686618110001,4.6957677336,119.12944952790001,120.2965943605,3.9289170610000004,0.5105087757,0.0,120.3091803507,4.0363474130000006,0.4923561487,1.5537746266999999,-0.47816773869999996,0.0,1500,1742,40.043494594,-88.2358278593,40.043504166700004,-88.2358235,0.0,0.0,0.0,0.0,0.0,0.0,0.0,0.0,0.0,0.0,0.0,195209,0.0,0.48514199259999996,0.5089453459000001,0.5120722055,90.0,54.0,54.0,97.2118453979,132.5442352295,132.5442352295,55.1299972534,15.479005813599999,13.630000114400001,0,2,25,1,25,166
52,1530906737037,1130037, RC,455,40.0434592604,-88.2344147,9,119.0302310342,4.7324126204,119.12426969040001,120.2965943605,3.9289170610000004,0.5194295645,0.0,120.3025452038,4.0729922998,0.4918735335,1.5701421394,-0.47816773869999996,0.0,1500,1742,40.043494594,-88.2358278593,40.043504166700004,-88.2358235,0.0,0.0,0.0,0.0,0.0,0.0,0.0,0.0,0.0,0.0,0.0,195209,0.0,0.48514199259999996,0.5094971657,0.5293620229,90.0,54.0,54.0,97.91212463379999,132.4805755615,132.6079101562,54.5920028687,15.479005813599999,13.630000114400001,0,2,25,1,29,168
53,1530906737087,1130087, RC,455,40.0434592604,-88.2344147,9,119.0302310342,4.7324126204,119.12426969040001,120.3018858322,3.9955228215,0.5313853025,0.0,120.3025452038,4.0729922998,0.4918735335,1.5701421394,-0.47816773869999996,0.0,1500,1742,40.043495193000005,-88.23582792149999,40.0435033333,-88.2358236667,0.0,0.0,0.0,0.0,0.0,0.0,0.0,0.0,0.0,0.0,0.0,195209,0.0,0.48514199259999996,0.5175902246999999,0.5451803803,90.0,54.0,54.0,98.8670501709,132.4805755615,132.6079101562,54.5920028687,15.479005813599999,13.630000114400001,0,2,25,1,36,171
54,1530906737138,1130138, RC,455,40.0434592604,-88.2344147,9,119.026553887,4.7753470412,119.1223088661,120.3018858322,3.9955228215,0.5347880721,0.0,120.2988680566,4.1159267206,0.49378698670000004,1.579911235,-0.47816773869999996,0.0,1500,1742,40.043495193000005,-88.23582792149999,40.0435033333,-88.2358236667,0.0,0.0,0.0,0.0,0.0,0.0,0.0,0.0,0.0,0.0,0.0,195209,0.0,0.48514199259999996,0.5232921839,0.5462839603,90.0,54.0,54.0,98.6123962402,132.5442352295,132.6079101562,55.1299972534,15.479005813599999,13.630000114400001,0,2,25,1,35,174
55,1530906737188,1130188, RC,455,40.0434592604,-88.2344147,9,119.026553887,4.7753470412,119.1223088661,120.30202712139999,4.0695045125,0.5291780829,0.0,120.2988680566,4.1159267206,0.49378698670000004,1.579911235,-0.47816773869999996,0.0,1500,1742,40.0434958583,-88.23582792319999,40.0435033333,-88.2358236667,0.0,0.0,0.0,0.0,0.0,0.0,0.0,0.0,0.0,0.0,0.0,195209,0.0,0.48514199259999996,0.5056345463,0.5527216196,90.0,54.0,54.0,95.81127929690001,132.6079101562,132.67155456540002,55.1299972534,15.479005813599999,13.630000114400001,0,2,25,1,36,176
56,1530906737239,1130239, RC,455,40.0434592604,-88.2344147,9,119.024523641,4.826283688399999,119.1223330959,120.30202712139999,4.0695045125,0.5273387432,0.0,120.2968378106,4.1668633677999996,0.49546164909999996,1.5846236969999998,-0.47816773869999996,0.0,1500,1742,40.0434958583,-88.23582792319999,40.0435033333,-88.2358236667,0.0,0.0,0.0,0.0,0.0,0.0,0.0,0.0,0.0,0.0,0.0,195209,0.0,0.48514199259999996,0.4982771873,0.5564002991,90.0,54.0,54.0,95.3019790649,132.7352142334,132.4805755615,55.1299972534,15.479005813599999,13.630000114400001,0,2,25,1,40,179
57,1530906737289,1130289, RC,455,40.0434592604,-88.2344147,9,119.024523641,4.826283688399999,119.1223330959,120.3009768535,4.1175592538,0.5171303749,0.0,120.2968378106,4.1668633677999996,0.49546164909999996,1.5846236969999998,-0.47816773869999996,0.0,1500,1742,40.0434962905,-88.2358279108,40.0435033333,-88.2358236667,0.0,0.0,0.0,0.0,0.0,0.0,0.0,0.0,0.0,0.0,0.0,195209,0.0,0.48514199259999996,0.48724114890000003,0.5470196605,90.0,54.0,54.0,96.2569046021,132.2895965576,132.67155456540002,54.5920028687,15.479005813599999,13.630000114400001,0,2,25,1,35,181
58,1530906737340,1130340, RC,455,40.0434592604,-88.2344147,9,119.0238022815,4.8783703922,119.1237340215,120.3009768535,4.1175592538,0.49137964840000004,0.0,120.2961164511,4.2189500716,0.4957784745,1.5850689756999998,-0.47816773869999996,0.0,1500,1742,40.0434962905,-88.2358279108,40.0435033333,-88.2358236667,0.0,0.0,0.0,0.0,0.0,0.0,0.0,0.0,0.0,0.0,0.0,195209,0.0,0.48514199259999996,0.4673762918,0.5153830051,90.0,54.0,54.0,98.4850769043,132.5442352295,132.5442352295,54.5920028687,15.479005813599999,13.630000114400001,0,2,25,1,39,184
59,1530906737390,1130390, RC,455,40.0434592604,-88.2344147,9,119.0238022815,4.8783703922,119.1237340215,120.3016575839,4.1525300585,0.47363001109999997,0.0,120.2961164511,4.2189500716,0.4957784745,1.5850689756999998,-0.47816773869999996,0.0,1500,1742,40.043496605,-88.2358279188,40.0435033333,-88.2358236667,0.0,0.0,0.0,0.0,0.0,0.0,0.0,0.0,0.0,0.0,0.0,195209,0.0,0.48514199259999996,0.4605707228,0.48668932909999996,90.0,54.0,54.0,100.07662963870001,132.7352142334,132.2895965576,54.5920028687,15.479005813599999,13.630000114400001,0,2,25,1,32,186
60,1530906737440,1130440, RC,455,40.0434592604,-88.2344147,9,119.02443173530001,4.9283844513,119.1264216,120.3016575839,4.1525300585,0.46480119229999994,0.0,120.29674590489999,4.2689641307,0.4935943595,1.5822867284,-0.47816773869999996,0.0,1500,1742,40.043496605,-88.2358279188,40.0435033333,-88.2358236667,0.0,0.0,0.0,0.0,0.0,0.0,0.0,0.0,0.0,0.0,0.0,195209,0.0,0.48514199259999996,0.45431697369999996,0.4752854407,90.0,54.0,54.0,98.4850769043,133.05352783200001,131.907623291,54.5920028687,15.479005813599999,13.630000114400001,0,2,25,1,27,189
61,1530906737491,1130491, RC,455,40.0434592604,-88.2344147,9,119.02443173530001,4.9283844513,119.1264216,120.30167136680001,4.2034758676,0.46176630259999996,0.0,120.29674590489999,4.2689641307,0.4935943595,1.5822867284,-0.47816773869999996,0.0,1500,1742,40.0434970632,-88.235827919,40.0435033333,-88.2358236667,0.0,0.0,0.0,0.0,0.0,0.0,0.0,0.0,0.0,0.0,0.0,195209,0.0,0.48514199259999996,0.4476953447,0.4758372307,90.0,54.0,54.0,95.81127929690001,132.7988891602,131.2073364258,54.5920028687,15.457209587100001,15.670000076300001,0,2,25,1,24,191
62,1530906737541,1130541, RC,455,40.0434592604,-88.2344147,9,119.0258984823,4.9806315698,119.1300600199,120.30167136680001,4.2034758676,0.46470922229999995,0.0,120.2982126519,4.3212112492,0.4910032829,1.5775990038999999,-0.47816773869999996,0.0,1500,1742,40.0434970632,-88.235827919,40.0435033333,-88.2358236667,0.0,0.0,0.0,0.0,0.0,0.0,0.0,0.0,0.0,0.0,0.0,195209,0.0,0.48514199259999996,0.437946856,0.49147161840000003,90.0,54.0,54.0,95.62029266360001,132.9262084961,131.0163421631,54.5920028687,15.457209587100001,15.670000076300001,0,2,25,1,33,194
63,1530906737592,1130592, RC,455,40.0434592604,-88.2344147,9,119.0258984823,4.9806315698,119.1300600199,120.3085804704,4.2399107378,0.4781364202,0.0,120.2982126519,4.3212112492,0.4910032829,1.5775990038999999,-0.47816773869999996,0.0,1500,1742,40.0434973908,-88.2358280002,40.0435033333,-88.2358236667,0.0,0.0,0.0,0.0,0.0,0.0,0.0,0.0,0.0,0.0,0.0,195209,0.0,0.48514199259999996,0.437946856,0.5183259845,90.0,54.0,54.0,96.00226593020001,132.9262084961,131.5893096924,54.5920028687,15.457209587100001,15.670000076300001,0,2,25,1,28,196
64,1530906737642,1130642, RC,455,40.0434592604,-88.2344147,9,119.02890130450001,5.030113898,119.1351391974,120.3085804704,4.2399107378,0.49432259799999995,0.0,120.3012154741,4.3706935774,0.4896436171,1.5714050306,-0.47816773869999996,0.0,1500,1742,40.0434973908,-88.2358280002,40.0435033333,-88.2358236667,0.0,0.0,0.0,0.0,0.0,0.0,0.0,0.0,0.0,0.0,0.0,195209,0.0,0.48514199259999996,0.45689204340000006,0.5317531824,90.0,54.0,54.0,96.00226593020001,132.9262084961,131.907623291,54.5920028687,15.457209587100001,15.670000076300001,0,2,25,1,29,199
65,1530906737692,1130692, RC,455,40.0434592604,-88.2344147,9,119.02890130450001,5.030113898,119.1351391974,120.3085804704,4.2399107378,0.5071979761,0.0,120.3012154741,4.3706935774,0.4896436171,1.5714050306,-0.47816773869999996,0.0,1500,1742,40.0434973908,-88.2358280002,40.0435033333,-88.2358236667,0.0,0.0,0.0,0.0,0.0,0.0,0.0,0.0,0.0,0.0,0.0,195209,0.0,0.48514199259999996,0.4752854407,0.5391104817,90.0,54.0,54.0,95.04733276370001,133.1808624268,132.6079101562,54.5920028687,15.457209587100001,15.670000076300001,0,2,25,1,35,201
66,1530906737743,1130743, RC,455,40.0434592604,-88.2344147,9,119.02890130450001,5.030113898,119.1351391974,120.3085804704,4.2399107378,0.5265110731,0.0,120.3012154741,4.3706935774,0.4896436171,1.5714050306,-0.47816773869999996,0.0,1500,1742,40.0434973908,-88.2358280002,40.0435033333,-88.2358236667,0.0,0.0,0.0,0.0,0.0,0.0,0.0,0.0,0.0,0.0,0.0,195209,0.0,0.48514199259999996,0.5036112666,0.54941082,90.0,54.0,54.0,93.328453064,132.9898681641,132.7352142334,54.5920028687,15.457209587100001,15.670000076300001,0,2,25,1,26,204
67,1530906737795,1130795, RC,455,40.0434592604,-88.2344147,9,119.03170216870001,5.0764843017,119.1399043731,120.31256689690001,4.2785695074,0.5369032621000001,0.0,120.3040163383,4.4170639811,0.491608931,1.5676791255000002,-0.47816773869999996,0.0,1500,1742,40.0434977385,-88.23582804700001,40.0435033333,-88.2358236667,0.0,0.0,0.0,0.0,0.0,0.0,0.0,0.0,0.0,0.0,0.0,195210,0.0,0.48514199259999996,0.5185099244,0.5552966595000001,90.0,54.0,54.0,94.85634613040001,132.5442352295,132.7988891602,54.5920028687,15.457209587100001,15.670000076300001,0,2,25,1,28,206
68,1530906737846,1130846, RC,455,40.0434592604,-88.2344147,9,119.0345328791,5.1232728801,119.1447352708,120.31394274430001,4.3234922581,0.5393863916,0.0,120.3068470487,4.4638525595,0.4938915434,1.5635751294999998,-0.47816773869999996,0.0,1500,1742,40.0434981425,-88.2358280632,40.0435033333,-88.2358236667,0.0,0.0,0.0,0.0,0.0,0.0,0.0,0.0,0.0,0.0,0.0,195210,0.0,0.48514199259999996,0.5343282223,0.5444446206,90.0,54.0,54.0,96.8935317993,132.22593688959998,132.9262084961,54.054000854499996,15.457209587100001,15.670000076300001,0,2,25,1,19,209
69,1530906737905,1130905, RC,455,40.0434592604,-88.2344147,9,119.0394880115,5.1715278243,119.1517704698,120.3173758157,4.366858279800001,0.5357077122,0.0,120.3118021811,4.5121075037,0.4958030988,1.5538892166999998,-0.47816773869999996,0.0,1500,1742,40.0434985325,-88.2358281035,40.0435033333,-88.2358236667,0.0,0.0,0.0,0.0,0.0,0.0,0.0,0.0,0.0,0.0,0.0,195210,0.0,0.48514199259999996,0.5326728225,0.5387426614999999,90.0,54.0,54.0,97.08451080319999,132.7352142334,132.3532409668,54.5920028687,15.457209587100001,15.670000076300001,0,2,25,1,23,212
70,1530906737960,1130960, RC,455,40.0434592604,-88.2344147,9,119.0394880115,5.1715278243,119.1517704698,120.3173758157,4.366858279800001,0.5256834029999999,0.0,120.3118021811,4.5121075037,0.4958030988,1.5538892166999998,-0.47816773869999996,0.0,1500,1742,40.0434985325,-88.2358281035,40.0435033333,-88.2358236667,0.0,0.0,0.0,0.0,0.0,0.0,0.0,0.0,0.0,0.0,0.0,195210,0.0,0.48514199259999996,0.5223725438,0.5289942026,90.0,54.0,54.0,97.02085876459999,133.4355010986,131.907623291,54.5920028687,15.457209587100001,15.670000076300001,0,2,25,1,34,214
71,1530906738010,1131010, RC,455,40.0434592604,-88.2344147,9,119.0394880115,5.1715278243,119.1517704698,120.31876574709999,4.4247723043,0.5227403640999999,0.0,120.3118021811,4.5121075037,0.4958030988,1.5538892166999998,-0.47816773869999996,0.0,1500,1742,40.043499053299996,-88.23582811979999,40.0435033333,-88.2358236667,0.0,0.0,0.0,0.0,0.0,0.0,0.0,0.0,0.0,0.0,0.0,195210,0.0,0.48514199259999996,0.5194295645,0.5260511636999999,90.0,54.0,54.0,97.33916473389999,133.6901550293,131.7166290283,54.5920028687,15.457209587100001,15.670000076300001,0,2,25,1,27,217
72,1530906738060,1131060, RC,455,40.0434592604,-88.2344147,9,119.0452051082,5.223094816000001,119.1597313639,120.31876574709999,4.4247723043,0.5235680938,0.0,120.3175192778,4.5636744954,0.49747782049999995,1.5434625315000001,-0.47816773869999996,0.0,1500,1753,40.043499053299996,-88.23582811979999,40.0435061667,-88.2358238333,0.0,0.0,0.0,0.0,0.0,0.0,0.0,0.0,0.0,0.0,0.0,195210,0.0,0.5070309639,0.5174062848,0.5297299027000001,90.0,54.0,54.0,97.33916473389999,133.6264953613,131.7802886963,54.5920028687,15.457209587100001,15.670000076300001,0,2,25,1,24,219
73,1530906738111,1131111, RC,455,40.0434592604,-88.2344147,9,119.0522453448,5.2738445542,119.1689999875,120.32946286159999,4.4734571488,0.5288102627,0.0,120.32455951440001,4.6144242336,0.49941991020000004,1.5330524405000001,-0.47816773869999996,0.0,1500,1753,40.0434994912,-88.23582824549999,40.0435061667,-88.2358238333,0.0,0.0,0.0,0.0,0.0,0.0,0.0,0.0,0.0,0.0,0.0,195210,0.0,0.5070309639,0.5256834029999999,0.5319371223,90.0,54.0,54.0,96.76620483399999,132.9262084961,131.5256500244,54.5920028687,15.457209587100001,15.670000076300001,0,2,25,1,22,222
74,1530906738171,1131171, RC,455,40.0434592604,-88.2344147,9,119.0522453448,5.2738445542,119.1689999875,120.32946286159999,4.4734571488,0.5311093926,0.0,120.32455951440001,4.6144242336,0.49941991020000004,1.5330524405000001,-0.47816773869999996,0.0,1500,1753,40.0434994912,-88.23582824549999,40.0435061667,-88.2358238333,0.0,0.0,0.0,0.0,0.0,0.0,0.0,0.0,0.0,0.0,0.0,195210,0.0,0.5070309639,0.5295459628,0.5326728225,90.0,54.0,54.0,97.4028244019,132.9262084961,132.03494262700002,54.5920028687,15.457209587100001,15.670000076300001,0,2,25,1,25,225
75,1530906738222,1131222, RC,455,40.0434592604,-88.2344147,9,119.05814145219999,5.3233531614,119.17709148549999,120.3355348265,4.518231639700001,0.534052372,0.0,120.3304556218,4.6639328408,0.5018112239,1.5276676792,-0.47816773869999996,0.0,1500,1753,40.0434998938,-88.23582831680001,40.0435061667,-88.2358238333,0.0,0.0,0.0,0.0,0.0,0.0,0.0,0.0,0.0,0.0,0.0,195210,0.0,0.5070309639,0.5381909013,0.5299137831,90.0,54.0,54.0,97.5938110352,133.1171875,131.7166290283,54.5920028687,15.457209587100001,15.670000076300001,0,2,25,1,31,228
76,1530906738278,1131278, RC,455,40.0434592604,-88.2344147,9,119.05814145219999,5.3233531614,119.17709148549999,120.3355348265,4.518231639700001,0.5399382114,0.0,120.3304556218,4.6639328408,0.5018112239,1.5276676792,-0.47816773869999996,0.0,1500,1753,40.0434998938,-88.23582831680001,40.0435061667,-88.2358238333,0.0,0.0,0.0,0.0,0.0,0.0,0.0,0.0,0.0,0.0,0.0,195210,0.0,0.5070309639,0.5499626397999999,0.5299137831,90.0,54.0,54.0,97.4028244019,133.4991607666,131.2073364258,54.5920028687,15.457209587100001,15.670000076300001,0,2,25,1,31,230
77,1530906738329,1131329, RC,455,40.0434592604,-88.2344147,9,119.0627780641,5.3718347316,119.18389878129999,120.33485339879999,4.5711418923,0.5443526506,0.0,120.33509223370001,4.712414411,0.507409522,1.5237931334,-0.47816773869999996,0.0,1500,1753,40.0435003697,-88.2358283088,40.0435061667,-88.2358238333,0.0,0.0,0.0,0.0,0.0,0.0,0.0,0.0,0.0,0.0,0.0,195210,0.0,0.5070309639,0.5578718185,0.5308334827000001,90.0,54.0,54.0,97.46648406979999,132.7988891602,131.65296936040002,54.5920028687,15.457209587100001,15.670000076300001,0,2,25,1,30,233
78,1530906738379,1131379, RC,455,40.0434592604,-88.2344147,9,119.0627780641,5.3718347316,119.18389878129999,120.3401875325,4.6251826261,0.5497786999000001,0.0,120.33509223370001,4.712414411,0.507409522,1.5237931334,-0.47816773869999996,0.0,1500,1753,40.0435008557,-88.23582837149999,40.0435061667,-88.2358238333,0.0,0.0,0.0,0.0,0.0,0.0,0.0,0.0,0.0,0.0,0.0,195210,0.0,0.5070309639,0.5687238574,0.5308334827000001,90.0,54.0,54.0,97.84845733639999,132.6079101562,131.971282959,54.5920028687,15.457209587100001,15.670000076300001,0,2,25,1,30,235
79,1530906738429,1131429, RC,455,40.0434592604,-88.2344147,9,119.06930910290001,5.419078335499999,119.19256176559999,120.3401875325,4.6251826261,0.5540091991,0.0,120.3416232725,4.7596580149,0.5144986855,1.5147157487,-0.47816773869999996,0.0,1500,1753,40.0435008557,-88.23582837149999,40.0435061667,-88.2358238333,0.0,0.0,0.0,0.0,0.0,0.0,0.0,0.0,0.0,0.0,0.0,195210,0.0,0.5070309639,0.5781045556000001,0.5299137831,90.0,54.0,54.0,97.33916473389999,132.4805755615,132.3532409668,54.5920028687,15.457209587100001,15.670000076300001,0,2,25,1,32,238
80,1530906738480,1131480, RC,455,40.0434592604,-88.2344147,9,119.06930910290001,5.419078335499999,119.19256176559999,120.3401875325,4.6251826261,0.5651372075,0.0,120.3416232725,4.7596580149,0.5144986855,1.5147157487,-0.47816773869999996,0.0,1500,1753,40.0435008557,-88.23582837149999,40.0435061667,-88.2358238333,0.0,0.0,0.0,0.0,0.0,0.0,0.0,0.0,0.0,0.0,0.0,195210,0.0,0.5070309639,0.5889566541,0.5413177609000001,90.0,54.0,54.0,96.3842315674,131.7802886963,133.6264953613,54.5920028687,15.4383192062,7.190000057200001,0,2,25,1,28,240
81,1530906738530,1131530, RC,455,40.0434592604,-88.2344147,9,119.0759287115,5.467898460700001,119.2014039854,120.34381910110001,4.6847645743,0.5711150169,0.0,120.3482428811,4.8084781401,0.5208721698,1.5065766616,-0.47816773869999996,0.0,1500,1753,40.0435013915,-88.2358284142,40.0435061667,-88.2358238333,0.0,0.0,0.0,0.0,0.0,0.0,0.0,0.0,0.0,0.0,0.0,195210,0.0,0.5070309639,0.5920835137,0.5501465797,90.0,54.0,54.0,95.74761199950001,130.9526824951,134.1994476318,54.5920028687,15.4383192062,7.190000057200001,0,2,25,1,31,243
82,1530906738581,1131581, RC,455,40.0434592604,-88.2344147,9,119.0759287115,5.467898460700001,119.2014039854,120.3326245975,4.7397319339,0.5648612976,0.0,120.3482428811,4.8084781401,0.5208721698,1.5065766616,-0.47816773869999996,0.0,1500,1753,40.0435018858,-88.2358282827,40.0435061667,-88.2358238333,0.0,0.0,0.0,0.0,0.0,0.0,0.0,0.0,0.0,0.0,0.0,195210,0.0,0.5070309639,0.5915316939,0.5381909013,90.0,54.0,54.0,95.93859863280001,130.88902282709998,133.7538146973,54.5920028687,15.4383192062,7.190000057200001,0,2,25,1,33,245
83,1530906738631,1131631, RC,455,40.0434592604,-88.2344147,9,119.0782919963,5.5177690491,119.2060627654,120.3326245975,4.7397319339,0.5621942282,0.0,120.3506061659,4.8583487285,0.5249485433,1.5062591269999999,-0.47816773869999996,0.0,1500,1753,40.0435018858,-88.2358282827,40.0435061667,-88.2358238333,0.0,0.0,0.0,0.0,0.0,0.0,0.0,0.0,0.0,0.0,0.0,195210,0.0,0.5070309639,0.5860136747,0.5383748412,90.0,54.0,54.0,96.6388778687,131.2709960938,132.9262084961,54.5920028687,15.4383192062,7.190000057200001,0,2,25,1,28,248
84,1530906738682,1131682, RC,455,40.0434592604,-88.2344147,9,119.0782919963,5.5177690491,119.2060627654,120.3326245975,4.7397319339,0.5605388284,0.0,120.3506061659,4.8583487285,0.5249485433,1.5062591269999999,-0.47816773869999996,0.0,1500,1753,40.0435018858,-88.2358282827,40.0435061667,-88.2358238333,0.0,0.0,0.0,0.0,0.0,0.0,0.0,0.0,0.0,0.0,0.0,195210,0.0,0.5070309639,0.5812314153,0.5398462414999999,90.0,54.0,54.0,96.51155853270001,131.65296936040002,132.7352142334,54.5920028687,15.4383192062,7.190000057200001,0,2,25,1,30,250
85,1530906738732,1131732, RC,455,40.0434592604,-88.2344147,9,119.0782919963,5.5177690491,119.2060627654,120.3202667483,4.7890283505,0.5574119687,0.0,120.3506061659,4.8583487285,0.5249485433,1.5062591269999999,-0.47816773869999996,0.0,1500,1753,40.0435023292,-88.2358281375,40.0435061667,-88.2358238333,0.0,0.0,0.0,0.0,0.0,0.0,0.0,0.0,0.0,0.0,0.0,195211,0.0,0.5070309639,0.5766330360999999,0.5381909013,90.0,54.0,54.0,96.3842315674,131.46199035639998,132.7352142334,54.5920028687,15.4383192062,7.190000057200001,0,2,25,1,26,253
86,1530906738783,1131783, RC,455,40.0434592604,-88.2344147,9,119.0766166453,5.5693291123,119.20678696469999,120.3202667483,4.7890283505,0.5551127791,0.0,120.3489308149,4.9099087917,0.5270045083,1.5122131962,-0.47816773869999996,0.0,1500,1753,40.0435023292,-88.2358281375,40.0435061667,-88.2358238333,0.0,0.0,0.0,0.0,0.0,0.0,0.0,0.0,0.0,0.0,0.0,195211,0.0,0.5070309639,0.5755294561,0.5346961021,90.0,54.0,54.0,96.5752182007,130.8253631592,133.3718414307,54.5920028687,15.4383192062,7.190000057200001,0,2,25,1,24,255
87,1530906738834,1131834, RC,455,40.0434592604,-88.2344147,9,119.0757131618,5.6246011742999995,119.2084795783,120.3290059345,4.8414938241000005,0.5515260696000001,0.0,120.34802733139999,4.9651808537,0.5286989103,1.518198994,-0.47816773869999996,0.0,1500,1753,40.043502801,-88.23582824020001,40.0435061667,-88.2358238333,0.0,0.0,0.0,0.0,0.0,0.0,0.0,0.0,0.0,0.0,0.0,195211,0.0,0.5070309639,0.5738740563,0.5291780829,90.0,54.0,54.0,96.6388778687,131.0163421631,134.6450805664,54.5920028687,15.4383192062,7.190000057200001,0,2,25,1,26,258
88,1530906738885,1131885, RC,455,40.0434592604,-88.2344147,9,119.0757131618,5.6246011742999995,119.2084795783,120.3290059345,4.8414938241000005,0.5313853025,0.0,120.34802733139999,4.9651808537,0.5286989103,1.518198994,-0.47816773869999996,0.0,1500,1753,40.043502801,-88.23582824020001,40.0435061667,-88.2358238333,0.0,0.0,0.0,0.0,0.0,0.0,0.0,0.0,0.0,0.0,0.0,195211,0.0,0.5070309639,0.5622861981,0.5004843473,90.0,54.0,54.0,95.93859863280001,131.65296936040002,134.6450805664,54.5920028687,15.4383192062,7.190000057200001,0,2,25,1,25,260
89,1530906738945,1131945, RC,455,40.0434592604,-88.2344147,9,119.07063563930001,5.6785785536,119.2059668218,120.3141936806,4.8833772458,0.521912694,0.0,120.34294980889999,5.019158233,0.5292735031,1.5304181038,-0.47816773869999996,0.0,1500,1753,40.043503177699996,-88.23582806620001,40.0435061667,-88.2358238333,0.0,0.0,0.0,0.0,0.0,0.0,0.0,0.0,0.0,0.0,0.0,195211,0.0,0.5070309639,0.5506983995,0.4931270182,90.0,54.0,54.0,95.4929656982,131.46199035639998,134.1357879639,54.5920028687,15.4383192062,7.190000057200001,0,2,25,1,20,263
90,1530906738996,1131996, RC,455,40.0434592604,-88.2344147,9,119.07063563930001,5.6785785536,119.2059668218,120.2983599974,4.9146786174,0.5210849643,0.0,120.34294980889999,5.019158233,0.5292735031,1.5304181038,-0.47816773869999996,0.0,1500,1753,40.043503459200004,-88.2358278802,40.0435061667,-88.2358238333,0.0,0.0,0.0,0.0,0.0,0.0,0.0,0.0,0.0,0.0,0.0,195211,0.0,0.5070309639,0.5431570411,0.49901291729999997,90.0,54.0,54.0,97.14817810059999,131.5256500244,133.7538146973,54.5920028687,15.4383192062,7.190000057200001,0,2,25,1,20,266
91,1530906739046,1132046, RC,455,40.0434592604,-88.2344147,9,119.0608598452,5.727390998200001,119.1985375527,120.2983599974,4.9146786174,0.5227403640999999,0.0,120.3331740148,5.0679706776,0.5318122656000001,1.5490681731,-0.47816773869999996,0.0,1494,1753,40.043503459200004,-88.2358278802,40.043511333299996,-88.2358265,0.0,0.0,0.0,0.0,0.0,0.0,0.0,0.0,0.0,0.0,0.0,195211,-0.0114150047,0.5069019793999999,0.5330407023,0.5124400854,90.0,54.0,54.0,97.4028244019,131.971282959,133.4355010986,54.5920028687,15.4383192062,7.190000057200001,0,2,25,1,19,269
92,1530906739097,1132097, RC,455,40.0434592604,-88.2344147,9,119.0500576823,5.7789893298,119.1902384922,120.2971819525,4.9738343186,0.5286262631,0.0,120.3223718519,5.1195690092,0.5357263228,1.5696884241999998,-0.47816773869999996,0.0,1494,1753,40.0435039912,-88.23582786629999,40.043511333299996,-88.2358265,0.0,0.0,0.0,0.0,0.0,0.0,0.0,0.0,0.0,0.0,0.0,195211,-0.0114150047,0.5069019793999999,0.5308334827000001,0.5264190435,90.0,54.0,54.0,97.5938110352,132.2895965576,133.1808624268,54.5920028687,15.4383192062,7.190000057200001,0,2,25,1,25,271
93,1530906739149,1132149, RC,455,40.0434592604,-88.2344147,9,119.0500576823,5.7789893298,119.1902384922,120.300543979,5.0305066663,0.5418695211,0.0,120.3223718519,5.1195690092,0.5357263228,1.5696884241999998,-0.47816773869999996,0.0,1482,1753,40.0435045008,-88.2358279058,40.043511333299996,-88.2358265,0.0,0.0,0.0,0.0,0.0,0.0,0.0,0.0,0.0,0.0,0.0,195211,-0.0343090296,0.5069019793999999,0.5231083035,0.5606307983,90.0,54.0,54.0,98.1667709351,132.5442352295,132.8625488281,54.5920028687,15.4383192062,7.190000057200001,0,2,25,1,26,273
94,1530906739199,1132199, RC,455,40.0434592604,-88.2344147,9,119.0407440558,5.831091938099999,119.1834735966,120.300543979,5.0305066663,0.5540091991,0.0,120.31305822540001,5.1716716175,0.5400193615,1.5866073175,-0.47816773869999996,0.0,1482,1753,40.0435045008,-88.2358279058,40.043511333299996,-88.2358265,0.0,0.0,0.0,0.0,0.0,0.0,0.0,0.0,0.0,0.0,0.0,195211,-0.0343090296,0.5069019793999999,0.5302816629,0.5777366757,90.0,54.0,54.0,98.1667709351,132.5442352295,132.8625488281,54.5920028687,15.4383192062,7.190000057200001,0,2,25,1,28,276
95,1530906739250,1132250, RC,455,40.0434592604,-88.2344147,9,119.0407440558,5.831091938099999,119.1834735966,120.300543979,5.0305066663,0.5646773577,0.0,120.31305822540001,5.1716716175,0.5400193615,1.5866073175,-0.47816773869999996,0.0,1462,1753,40.0435045008,-88.2358279058,40.043511333299996,-88.2358265,0.0,0.0,0.0,0.0,0.0,0.0,0.0,0.0,0.0,0.0,0.0,195211,-0.074977994,0.5069019793999999,0.5413177609000001,0.5880369543999999,90.0,54.0,54.0,96.95719146729999,132.2895965576,133.1808624268,54.054000854499996,15.4383192062,7.190000057200001,0,2,25,1,23,279
96,1530906739300,1132300, RC,455,40.0434592604,-88.2344147,9,119.0407440558,5.831091938099999,119.1834735966,120.2964999512,5.0990583385,0.5770008564,0.0,120.31305822540001,5.1716716175,0.5400193615,1.5866073175,-0.47816773869999996,0.0,1462,1753,40.0435051173,-88.2358278583,40.043511333299996,-88.2358265,0.0,0.0,0.0,0.0,0.0,0.0,0.0,0.0,0.0,0.0,0.0,195211,-0.074977994,0.5069019793999999,0.5556645393,0.5983372331,90.0,54.0,54.0,96.95719146729999,132.0986022949,133.3081817627,54.054000854499996,15.4383192062,7.190000057200001,0,2,25,1,18,281
97,1530906739350,1132350, RC,455,40.0434592604,-88.2344147,9,119.03168688,5.8860686939999995,119.17712987889999,120.2964999512,5.0990583385,0.5837144852,0.0,120.30400104959999,5.2266483734,0.542619111,1.6018942597999999,-0.47816773869999996,0.0,1450,1753,40.0435051173,-88.2358278583,40.043511333299996,-88.2358265,0.0,0.0,0.0,0.0,0.0,0.0,0.0,0.0,0.0,0.0,0.0,195211,-0.0983799696,0.5069019793999999,0.5606307983,0.6067982316,90.0,54.0,54.0,97.14817810059999,131.84396362299998,133.4991607666,54.5920028687,15.4383192062,7.190000057200001,0,2,25,1,17,284
98,1530906739401,1132401, RC,455,40.0434592604,-88.2344147,9,119.0221722309,5.9400214051999995,119.170303922,120.2912501203,5.148966327799999,0.5885887742,0.0,120.29448640049999,5.2806010846,0.5456207662,1.6170905978,-0.47816773869999996,0.0,1450,1753,40.0435055662,-88.23582779670001,40.043511333299996,-88.2358265,0.0,0.0,0.0,0.0,0.0,0.0,0.0,0.0,0.0,0.0,0.0,195211,-0.0983799696,0.5069019793999999,0.561550498,0.6156270504,90.0,54.0,54.0,97.2118453979,131.3983154297,133.94480896,54.5920028687,15.4383192062,7.190000057200001,0,2,25,1,13,286
99,1530906739455,1132455, RC,455,40.0434592604,-88.2344147,9,119.0221722309,5.9400214051999995,119.170303922,120.2912501203,5.148966327799999,0.5868414044,0.0,120.29448640049999,5.2806010846,0.5456207662,1.6170905978,-0.47816773869999996,0.0,1450,1753,40.0435055662,-88.23582779670001,40.043511333299996,-88.2358265,0.0,0.0,0.0,0.0,0.0,0.0,0.0,0.0,0.0,0.0,0.0,195211,-0.0983799696,0.5069019793999999,0.5433409810000001,0.6303418279,90.0,54.0,54.0,97.02085876459999,131.1436767578,134.1994476318,54.5920028687,15.4383192062,7.190000057200001,0,2,25,1,12,289
100,1530906739506,1132506, RC,455,40.0434592604,-88.2344147,9,119.0118385758,5.9957980283,119.16277655040001,120.2834889534,5.2134964509,0.5873012543,0.0,120.28415274540001,5.3363777077,0.5486407224000001,1.6323527896,-0.47816773869999996,0.0,1450,1753,40.0435061465,-88.23582770549999,40.043511333299996,-88.2358265,0.0,0.0,0.0,0.0,0.0,0.0,0.0,0.0,0.0,0.0,0.0,195211,-0.0983799696,0.5069019793999999,0.5324888825,0.6421135664000001,90.0,54.0,54.0,97.2118453979,131.3346557617,134.00846862790002,54.5920028687,15.419462204,7.1999998092999995,0,2,25,1,12,291
101,1530906739556,1132556, RC,455,40.0434592604,-88.2344147,9,119.0118385758,5.9957980283,119.16277655040001,120.27138645299999,5.2668329512,0.5838064551,0.0,120.28415274540001,5.3363777077,0.5486407224000001,1.6323527896,-0.47816773869999996,0.0,1500,1753,40.0435066262,-88.2358275633,40.043511333299996,-88.2358265,0.0,0.0,0.0,0.0,0.0,0.0,0.0,0.0,0.0,0.0,0.0,195211,0.0,0.5069019793999999,0.5266029835,0.6410099268,90.0,54.0,54.0,98.1031036377,131.907623291,133.8811340332,54.054000854499996,15.419462204,7.1999998092999995,0,2,25,1,12,294
102,1530906739607,1132607, RC,455,40.0434592604,-88.2344147,9,118.99963094559999,6.0522617701999994,119.15343905120001,120.27138645299999,5.2668329512,0.5837144852,0.0,120.2719451152,5.392841449600001,0.5524623133,1.649244468,-0.47816773869999996,0.0,1500,1753,40.0435066262,-88.2358275633,40.043511333299996,-88.2358265,0.0,0.0,0.0,0.0,0.0,0.0,0.0,0.0,0.0,0.0,0.0,195211,0.0,0.5069019793999999,0.5328567624,0.6345722675,90.0,54.0,54.0,97.14817810059999,131.46199035639998,134.0721130371,54.054000854499996,15.419462204,7.1999998092999995,0,2,25,1,17,296
103,1530906739657,1132657, RC,455,40.0434592604,-88.2344147,9,118.99963094559999,6.0522617701999994,119.15343905120001,120.27138645299999,5.2668329512,0.5889565945,0.0,120.2719451152,5.392841449600001,0.5524623133,1.649244468,-0.47816773869999996,0.0,1500,1753,40.0435066262,-88.2358275633,40.043511333299996,-88.2358265,0.0,0.0,0.0,0.0,0.0,0.0,0.0,0.0,0.0,0.0,0.0,195211,0.0,0.5069019793999999,0.5624701381,0.6154431105,90.0,54.0,54.0,95.81127929690001,131.46199035639998,133.3718414307,54.054000854499996,15.419462204,7.1999998092999995,0,2,25,1,18,299
104,1530906739708,1132708, RC,455,40.0434592604,-88.2344147,9,118.99963094559999,6.0522617701999994,119.15343905120001,120.27138645299999,5.2668329512,0.5978774428,0.0,120.2719451152,5.392841449600001,0.5524623133,1.649244468,-0.47816773869999996,0.0,1500,1753,40.0435066262,-88.2358275633,40.043511333299996,-88.2358265,0.0,0.0,0.0,0.0,0.0,0.0,0.0,0.0,0.0,0.0,0.0,195211,0.0,0.5069019793999999,0.583070755,0.6126841307,90.0,54.0,54.0,94.7926864624,132.41691589360002,132.5442352295,54.054000854499996,15.419462204,7.1999998092999995,0,2,25,1,16,301
105,1530906739769,1132769, RC,455,40.0434592604,-88.2344147,9,118.9875736612,6.110740240399999,119.1443822934,120.2623342178,5.330640306,0.6113965511,0.0,120.2598878308,5.4513199198,0.5572922363,1.6630636291,-0.47816773869999996,0.0,1500,1753,40.0435072,-88.23582745700001,40.043511333299996,-88.2358265,0.0,0.0,0.0,0.0,0.0,0.0,0.0,0.0,0.0,0.0,0.0,195212,0.0,0.5069019793999999,0.6066142917,0.6161788702000001,90.0,54.0,54.0,94.7926864624,132.7988891602,131.971282959,54.5920028687,15.419462204,7.1999998092999995,0,2,25,1,12,304
106,1530906739820,1132820, RC,455,40.0434592604,-88.2344147,9,118.9783843892,6.1666215464,119.1380844783,120.2629864799,5.3771753828,0.6147993803,0.0,120.2506985588,5.5072012258,0.5623385364,1.6711238977,-0.47816773869999996,0.0,1500,1753,40.0435076185,-88.2358274647,40.043511333299996,-88.2358265,0.0,0.0,0.0,0.0,0.0,0.0,0.0,0.0,0.0,0.0,0.0,195212,0.0,0.5069019793999999,0.6073500514,0.6222487092,90.0,54.0,54.0,96.3842315674,132.9898681641,131.7802886963,55.1299972534,15.419462204,7.1999998092999995,0,2,25,1,16,307
107,1530906739871,1132871, RC,455,40.0434592604,-88.2344147,9,118.9783843892,6.1666215464,119.1380844783,120.2678381958,5.4360345642,0.6131439209,0.0,120.2506985588,5.5072012258,0.5623385364,1.6711238977,-0.47816773869999996,0.0,1500,1753,40.043508147800004,-88.2358275217,40.043511333299996,-88.2358265,0.0,0.0,0.0,0.0,0.0,0.0,0.0,0.0,0.0,0.0,0.0,195212,0.0,0.5069019793999999,0.6080857515,0.6182021499,90.0,54.0,54.0,97.27549743649999,132.4805755615,131.971282959,55.1299972534,15.419462204,7.1999998092999995,0,2,25,1,19,309
