,(0)linux time (ms),    (1)uptime  (ms),      (2)drive mode,(3)mpc step counter,(4)mpc origin latitude  (deg),(5)mpc origin longitude  (deg),(6)closest trajectory point index to robot,(7)mpc error x (W;E)  (m),(8)mpc error y (W;E)  (m),(9)abs mpc error (m),(10)input [x] for mhe (m),(11)input [y] for mhe (m),(12)input [speed] for mhe (m/s),(13)input [vyaw] for mhe (rad/s),(14)mhe output x  (m),(15)mhe output y  (m),(16)mhe output speed  (m/s),(17)mhe output yaw  (rad),(18)mpc reference heading (rad),(19)mpc turn rate command (rad/s),(20)turn rate command as PWM,(21)throttle command as PWM,(22)primary gps latitude (deg),(23)primary gps longitude (deg),(24)secondary gps latitude  (deg),(25)secondary gps longitude (deg),(26)accelerometer x (m/s^2),(27)accelerometer y (m/s^2),(28)accelerometer z (m/s^2),(29)gyro yaw rate (rad/s),(30)gyro pitch rate   (rad/s),(31)gyro roll rate (rad/s),      (32)yaw (rad),  (33)pitch   (rad),     (34)roll (rad),(35)sonar1 measurement (m),(36)ultrasonic sensor measurement (m),(37)primary gps time (s),(38)normalized turn rate command,(39)normalized throttle command,(40)speed calculation from encoder left (m/s),(41)speed calculation from encoder right (m/s),(42)front gimbal target angle (degrees from straight down),(43)left gimbal target angle  (degrees from straight down),(44)right gimbal target angle  (degrees from straight down),(45)front gimbal measured angle  (degrees from straight down),(46)left gimbal measured angle    (degrees from straight down),(47)right gimbal measured angle  (degrees from straight down),(48)internal temperature (C),(49)battery voltage (V),(50)primary gps type,(51)secondary gps type,    (52)MPC R value, (53)MPC Q[0] value,Unnamed: 54,weed_num,start
0,1530902443466,10466, AUTO,0,39.9586186,-88.445067899,0,-17899.9549092902,9426.084003551,20230.1617738618,-17900.069956608502,9423.7623792092,0.0001,0.0,-17899.9446822755,9423.7066811851,0.0003924582,5.8809753411,0.0,0.0,1500,1500,40.0433685312,-88.2349214245,40.0433691667,-88.2349835,0.0,0.0,0.0,0.0,0.0,0.0,0.0,0.0,0.0,0.0,0.0,184042,0.0,0.0,0.0,0.0,90.0,90.0,90.0,95.55662536620001,95.3019790649,95.81127929690001,31.995998382600003,15.6083374023,3.4000000954000003,0,2,25,1,49,0
1,1530902443516,10516, AUTO,0,39.9586186,-88.445067899,0,-17899.9544913402,9426.084215644,20230.1615028764,-17900.069956608502,9423.7623792092,0.0,0.0,-17899.9442643255,9423.7068932781,0.00042846839999999997,5.8809860682,0.0,0.0,1500,1500,40.0433685312,-88.2349214245,40.0433691667,-88.2349835,0.0,0.0,0.0,0.0,0.0,0.0,0.0,0.0,0.0,0.0,0.0,184042,0.0,0.0,0.0,0.0,90.0,90.0,90.0,95.55662536620001,95.3019790649,95.81127929690001,31.995998382600003,15.6083374023,3.4000000954000003,0,2,25,1,49,0
2,1530902443567,10567, AUTO,0,39.9586186,-88.445067899,0,-17899.9544913402,9426.084215644,20230.1615028764,-17900.069956608502,9423.7623792092,0.0,0.0,-17899.9442643255,9423.7068932781,0.00042846839999999997,5.8809860682,0.0,0.0,1500,1500,40.0433685312,-88.2349214245,40.0433691667,-88.2349833333,0.0,0.0,0.0,0.0,0.0,0.0,0.0,0.0,0.0,0.0,0.0,184042,0.0,0.0,0.0,0.0,90.0,90.0,90.0,95.55662536620001,95.3019790649,95.81127929690001,31.995998382600003,15.6083374023,3.4000000954000003,0,2,25,1,68,2
3,1530902443617,10617, AUTO,0,39.9586186,-88.445067899,0,-17899.9542543329,9426.0843094991,20230.1613368998,-17900.0733099543,9423.7598587907,0.0,0.0,-17899.9440273182,9423.706987133199,0.0003609521,5.881025480599999,0.0,0.0,1500,1500,40.0433685085,-88.23492138520001,40.0433691667,-88.2349833333,0.0,0.0,0.0,0.0,0.0,0.0,0.0,0.0,0.0,0.0,0.0,184042,0.0,0.0,0.0,0.0,90.0,90.0,90.0,95.55662536620001,95.3019790649,95.81127929690001,31.995998382600003,15.6083374023,3.4000000954000003,0,2,25,1,90,5
4,1530902443668,10668, AUTO,0,39.9586186,-88.445067899,0,-17899.9542543329,9426.0843094991,20230.1613368998,-17900.0703963946,9423.7626386638,0.0,0.0,-17899.9440273182,9423.706987133199,0.0003609521,5.881025480599999,0.0,0.0,1500,1500,40.0433685335,-88.23492141930001,40.0433691667,-88.2349833333,0.0,0.0,0.0,0.0,0.0,0.0,0.0,0.0,0.0,0.0,0.0,184042,0.0,0.0,0.0,0.0,90.0,90.0,90.0,95.55662536620001,95.3019790649,95.81127929690001,31.995998382600003,15.6083374023,3.4000000954000003,0,2,25,1,71,9
5,1530902443721,10721, AUTO,0,39.9586186,-88.445067899,0,-17899.9537962879,9426.0845019311,20230.1610212768,-17900.0703963946,9423.7626386638,0.0,0.0,-17899.9435692732,9423.707179565201,0.0002922644,5.8810380744,0.0,0.0,1500,1500,40.0433685335,-88.23492141930001,40.0433691667,-88.2349833333,0.0,0.0,0.0,0.0,0.0,0.0,0.0,0.0,0.0,0.0,0.0,184042,0.0,0.0,0.0,0.0,90.0,90.0,90.0,95.4929656982,95.3019790649,95.81127929690001,31.995998382600003,15.6083374023,3.4000000954000003,0,2,25,1,82,12
6,1530902443771,10771, AUTO,0,39.9586186,-88.445067899,0,-17899.9537962879,9426.0845019311,20230.1610212768,-17900.0703963946,9423.7626386638,0.0,0.0,-17899.9435692732,9423.707179565201,0.0002922644,5.8810380744,0.0,0.0,1500,1500,40.0433685335,-88.23492141930001,40.0433691667,-88.2349833333,0.0,0.0,0.0,0.0,0.0,0.0,0.0,0.0,0.0,0.0,0.0,184042,0.0,0.0,0.0,0.0,90.0,90.0,90.0,95.4929656982,95.3019790649,95.81127929690001,31.995998382600003,15.6083374023,3.4000000954000003,0,2,25,1,79,14
7,1530902443821,10821, AUTO,0,39.9586186,-88.445067899,0,-17899.9536841889,9426.0844281967,20230.1608877339,-17900.075312076202,9423.7595066732,0.0,0.0,-17899.9434571742,9423.7071058308,8.35099e-05,5.8810750345,0.0,0.0,1500,1500,40.0433685053,-88.2349213617,40.0433691667,-88.2349833333,0.0,0.0,0.0,0.0,0.0,0.0,0.0,0.0,0.0,0.0,0.0,184042,0.0,0.0,0.0,0.0,90.0,90.0,90.0,95.4929656982,95.3019790649,95.81127929690001,32.533000946,15.6083374023,3.4000000954000003,0,2,25,1,74,17
8,1530902443872,10872, AUTO,0,39.9586186,-88.445067899,0,-17899.9536841889,9426.0844281967,20230.1608877339,-17900.0773570505,9423.7589321663,0.0,0.0,-17899.9434571742,9423.7071058308,8.35099e-05,5.8810750345,0.0,0.0,1500,1500,40.0433685002,-88.2349213377,40.0433691667,-88.2349833333,0.0,0.0,0.0,0.0,0.0,0.0,0.0,0.0,0.0,0.0,0.0,184042,0.0,0.0,0.0,0.0,90.0,90.0,90.0,95.4929656982,95.3019790649,95.81127929690001,31.995998382600003,15.6083374023,3.4000000954000003,0,2,25,1,84,19
9,1530902443923,10923, AUTO,0,39.9586186,-88.445067899,0,-17899.9536776823,9426.0843720385,20230.1608558103,-17900.0773570505,9423.7589321663,0.0,0.0,-17899.9434506676,9423.707049672601,0.0,5.881126017200001,0.0,0.0,1500,1500,40.0433685002,-88.2349213377,40.0433691667,-88.2349833333,0.0,0.0,0.0,0.0,0.0,0.0,0.0,0.0,0.0,0.0,0.0,184042,0.0,0.0,0.0,0.0,90.0,90.0,90.0,95.4929656982,95.3019790649,95.81127929690001,31.995998382600003,15.6083374023,3.4000000954000003,0,2,25,1,74,22
10,1530902443973,10973, AUTO,0,39.9586186,-88.445067899,0,-17899.9538913232,9426.0842531878,20230.1609894655,-17900.0785204426,9423.7595437377,0.0,0.0,-17899.943664308503,9423.7069308219,0.0,5.8811623349,0.0,0.0,1500,1500,40.0433685057,-88.234921324,40.0433691667,-88.2349833333,0.0,0.0,0.0,0.0,0.0,0.0,0.0,0.0,0.0,0.0,0.0,184042,0.0,0.0,0.0,0.0,90.0,90.0,90.0,95.4929656982,95.3019790649,95.81127929690001,31.995998382600003,15.6083374023,3.4000000954000003,0,2,25,1,80,24
11,1530902444024,11024, AUTO,0,39.9586186,-88.445067899,0,-17899.9538913232,9426.0842531878,20230.1609894655,-17900.0785204426,9423.7595437377,0.0,0.0,-17899.943664308503,9423.7069308219,0.0,5.8811623349,0.0,0.0,1500,1500,40.0433685057,-88.234921324,40.0433691667,-88.2349833333,0.0,0.0,0.0,0.0,0.0,0.0,0.0,0.0,0.0,0.0,0.0,184042,0.0,0.0,0.0,0.0,90.0,90.0,90.0,95.4929656982,95.3019790649,95.81127929690001,31.995998382600003,15.608480453499999,3.6199998856,0,2,25,1,71,27
12,1530902444075,11075, AUTO,0,39.9586186,-88.445067899,0,-17899.9543084287,9426.084041542299,20230.1612599123,-17900.075283138,9423.7599699861,0.0,0.0,-17899.944081414,9423.7067191764,0.0,5.8811602557,0.0,0.0,1500,1500,40.0433685095,-88.23492136200001,40.0433691667,-88.2349833333,0.0,0.0,0.0,0.0,0.0,0.0,0.0,0.0,0.0,0.0,0.0,184042,0.0,0.0,0.0,0.0,90.0,90.0,90.0,95.4929656982,95.3019790649,95.81127929690001,31.995998382600003,15.608480453499999,3.6199998856,0,2,25,1,76,29
13,1530902444125,11125, AUTO,0,39.9586186,-88.445067899,0,-17899.9543084287,9426.084041542299,20230.1612599123,-17900.075283138,9423.7599699861,0.0,0.0,-17899.944081414,9423.7067191764,0.0,5.8811602557,0.0,0.0,1500,1500,40.0433685095,-88.23492136200001,40.0433691667,-88.2349833333,0.0,0.0,0.0,0.0,0.0,0.0,0.0,0.0,0.0,0.0,0.0,184042,0.0,0.0,0.0,0.0,90.0,90.0,90.0,95.4929656982,95.3019790649,95.81127929690001,31.995998382600003,15.608480453499999,3.6199998856,0,2,25,1,75,32
14,1530902444175,11175, AUTO,0,39.9586186,-88.445067899,0,-17899.9543084287,9426.084041542299,20230.1612599123,-17900.075283138,9423.7599699861,0.0,0.0,-17899.944081414,9423.7067191764,0.0,5.8811602557,0.0,0.0,1500,1500,40.0433685095,-88.23492136200001,40.0433691667,-88.2349833333,0.0,0.0,0.0,0.0,0.0,0.0,0.0,0.0,0.0,0.0,0.0,184042,0.0,0.0,0.0,0.0,90.0,90.0,90.0,95.4929656982,95.3019790649,95.81127929690001,31.995998382600003,15.608480453499999,3.6199998856,0,2,25,1,79,34
15,1530902444226,11226, AUTO,0,39.9586186,-88.445067899,0,-17899.9543084287,9426.084041542299,20230.1612599123,-17900.075283138,9423.7599699861,0.0,0.0,-17899.944081414,9423.7067191764,0.0,5.8811602557,0.0,0.0,1500,1500,40.0433685095,-88.23492136200001,40.0433691667,-88.2349833333,0.0,0.0,0.0,0.0,0.0,0.0,0.0,0.0,0.0,0.0,0.0,184042,0.0,0.0,0.0,0.0,90.0,90.0,90.0,95.4929656982,95.3019790649,95.81127929690001,31.995998382600003,15.608480453499999,3.6199998856,0,2,25,1,76,37
16,1530902444276,11276, AUTO,0,39.9586186,-88.445067899,0,-17899.9543628644,9426.0839035024,20230.161243759198,-17900.0706543556,9423.7605815575,0.0,0.0,-17899.9441358497,9423.706581136501,0.0,5.8811452129,0.0,0.0,1500,1500,40.043368515,-88.2349214163,40.0433691667,-88.2349833333,0.0,0.0,0.0,0.0,0.0,0.0,0.0,0.0,0.0,0.0,0.0,184043,0.0,0.0,0.0,0.0,90.0,90.0,90.0,95.4929656982,95.3019790649,95.81127929690001,31.995998382600003,15.608480453499999,3.6199998856,0,2,25,1,84,39
17,1530902444327,11327, AUTO,0,39.9586186,-88.445067899,0,-17899.9542498384,9426.083726977,20230.1610615014,-17900.0672474786,9423.760340635501,0.0,0.0,-17899.9440228237,9423.706404611099,8.30975e-05,5.8811180388,0.0,0.0,1500,1500,40.0433685128,-88.23492145629999,40.0433691667,-88.2349833333,0.0,0.0,0.0,0.0,0.0,0.0,0.0,0.0,0.0,0.0,0.0,184043,0.0,0.0,0.0,0.0,90.0,90.0,90.0,95.4929656982,95.3019790649,95.81127929690001,31.995998382600003,15.608480453499999,3.6199998856,0,2,25,1,90,42
18,1530902444377,11377, AUTO,0,39.9586186,-88.445067899,0,-17899.9542498384,9426.083726977,20230.1610615014,-17900.066621064398,9423.7618417667,0.0,0.0,-17899.9440228237,9423.706404611099,8.30975e-05,5.8811180388,0.0,0.0,1500,1500,40.0433685263,-88.2349214637,40.0433691667,-88.2349833333,0.0,0.0,0.0,0.0,0.0,0.0,0.0,0.0,0.0,0.0,0.0,184043,0.0,0.0,0.0,0.0,90.0,90.0,90.0,95.4929656982,95.3019790649,95.81127929690001,31.995998382600003,15.608480453499999,3.6199998856,0,2,25,1,84,44
19,1530902444427,11427, AUTO,0,39.9586186,-88.445067899,0,-17899.9540518159,9426.0835255949,20230.1607924557,-17900.066621064398,9423.7618417667,0.0,0.0,-17899.9438248012,9423.706203229,0.0003332282,5.8810704058,0.0,0.0,1500,1500,40.0433685263,-88.2349214637,40.0433691667,-88.2349833333,0.0,0.0,0.0,0.0,0.0,0.0,0.0,0.0,0.0,0.0,0.0,184043,0.0,0.0,0.0,0.0,90.0,90.0,90.0,95.4929656982,95.3019790649,95.81127929690001,32.533000946,15.608480453499999,3.6199998856,0,2,25,1,89,47
20,1530902444478,11478, AUTO,0,39.9586186,-88.445067899,0,-17899.9540518159,9426.0835255949,20230.1607924557,-17900.0701302213,9423.759617868,0.0001,0.0,-17899.9438248012,9423.706203229,0.0003332282,5.8810704058,0.0,0.0,1500,1500,40.0433685063,-88.2349214225,40.0433691667,-88.2349833333,0.0,0.0,0.0,0.0,0.0,0.0,0.0,0.0,0.0,0.0,0.0,184043,0.0,0.0,0.0,0.0,90.0,90.0,90.0,95.4929656982,95.3019790649,95.81127929690001,32.533000946,15.608480453499999,3.6199998856,0,2,25,1,83,49
21,1530902444528,11528, AUTO,0,39.9586186,-88.445067899,0,-17899.9540751808,9426.0831448425,20230.160635720702,-17900.0701302213,9423.759617868,0.0,0.0,-17899.9438481661,9423.7058224766,0.0004769935,5.881039546,0.0,0.0,1500,1500,40.0433685063,-88.2349214225,40.043369,-88.2349828333,0.0,0.0,0.0,0.0,0.0,0.0,0.0,0.0,0.0,0.0,0.0,184043,0.0,0.0,0.0,0.0,90.0,90.0,90.0,95.4929656982,95.3019790649,95.81127929690001,31.995998382600003,15.608480453499999,3.6199998856,0,2,25,1,98,52
22,1530902444579,11579, AUTO,0,39.9586186,-88.445067899,0,-17899.9540751808,9426.0831448425,20230.160635720702,-17900.0724584475,9423.759617868,0.0001,0.0,-17899.9438481661,9423.7058224766,0.0004769935,5.881039546,0.0,0.0,1500,1500,40.0433685063,-88.2349213952,40.043369,-88.2349828333,0.0,0.0,0.0,0.0,0.0,0.0,0.0,0.0,0.0,0.0,0.0,184043,0.0,0.0,0.0,0.0,90.0,90.0,90.0,95.4929656982,95.3019790649,95.81127929690001,31.995998382600003,15.608480453499999,3.6199998856,0,2,25,1,94,54
23,1530902444629,11629, AUTO,0,39.9586186,-88.445067899,0,-17899.9540799436,9426.082936999499,20230.1605430921,-17900.0724584475,9423.759617868,0.0,0.0,-17899.9438529289,9423.7056146336,0.0004840897,5.8810321218,0.0,0.0,1500,1500,40.0433685063,-88.2349213952,40.043369,-88.2349828333,0.0,0.0,0.0,0.0,0.0,0.0,0.0,0.0,0.0,0.0,0.0,184043,0.0,0.0,0.0,0.0,90.0,90.0,90.0,95.4929656982,95.3019790649,95.81127929690001,31.995998382600003,15.608480453499999,3.6199998856,0,2,25,1,95,57
24,1530902444679,11679, AUTO,0,39.9586186,-88.445067899,0,-17899.9540799436,9426.082936999499,20230.1605430921,-17900.0724584475,9423.759617868,0.00018393400000000002,0.0,-17899.9438529289,9423.7056146336,0.0004840897,5.8810321218,0.0,0.0,1440,1750,40.0433685063,-88.2349213952,40.043369,-88.2349828333,0.0,0.0,0.0,0.0,0.0,0.0,0.0,0.0,0.0,0.0,0.0,184043,-0.1200000048,0.5,0.0,0.00036786800000000004,90.0,90.0,90.0,95.4929656982,95.3019790649,95.81127929690001,31.995998382600003,15.608480453499999,3.6199998856,0,2,25,1,92,59
25,1530902444730,11730, AUTO,0,39.9586186,-88.445067899,0,-17899.9540799436,9426.082936999499,20230.1605430921,-17900.069758511898,9423.7618232349,0.0286017358,0.0,-17899.9438529289,9423.7056146336,0.0004840897,5.8810321218,0.0,0.0,1460,1750,40.0433685262,-88.2349214268,40.043369,-88.2349828333,0.0,0.0,0.0,0.0,0.0,0.0,0.0,0.0,0.0,0.0,0.0,184043,-0.07999998330000001,0.5,0.0248310883,0.0323723815,90.0,90.0,90.0,95.55662536620001,95.36563873290001,95.81127929690001,32.533000946,15.608480453499999,3.6199998856,0,2,25,1,82,62
26,1530902444780,11780, AUTO,0,39.9586186,-88.445067899,0,-17899.9530527738,9426.0828401,20230.1595890871,-17900.0705945119,9423.7631761063,0.130869031,0.0,-17899.9428257591,9423.7055177341,0.002469235,5.8810025097,0.0,0.0,1460,1750,40.0433685383,-88.23492141700001,40.043369,-88.2349828333,0.0,0.0,0.0,0.0,0.0,0.0,0.0,0.0,0.0,0.0,0.0,184043,-0.07999998330000001,0.5,0.1204767674,0.1412613094,90.0,90.0,90.0,95.6839523315,95.4929656982,95.81127929690001,31.995998382600003,15.608480453499999,3.6199998856,0,2,25,1,90,65
27,1530902444831,11831, AUTO,0,39.9586186,-88.445067899,0,-17899.9530527738,9426.0828401,20230.1595890871,-17900.0705945119,9423.7631761063,0.1838420331,0.0,-17899.9428257591,9423.7055177341,0.002469235,5.8810025097,0.0,0.0,1450,1750,40.0433685383,-88.23492141700001,40.043369,-88.2349828333,0.0,0.0,0.0,0.0,0.0,0.0,0.0,0.0,0.0,0.0,0.0,184043,-0.1000000238,0.5,0.1734497547,0.19423429670000003,90.0,90.0,90.0,96.2569046021,96.0659179688,95.55662536620001,31.995998382600003,15.608480453499999,3.6199998856,0,2,25,1,86,67
28,1530902444881,11881, AUTO,0,39.9586186,-88.445067899,0,-17899.9530527738,9426.0828401,20230.1595890871,-17900.076347590602,9423.7602109075,0.2371828854,0.0,-17899.9428257591,9423.7055177341,0.002469235,5.8810025097,0.0,0.0,1460,1750,40.0433685117,-88.23492134950001,40.043369,-88.2349828333,0.0,0.0,0.0,0.0,0.0,0.0,0.0,0.0,0.0,0.0,0.0,184043,-0.07999998330000001,0.5,0.2102365494,0.2641292214,90.0,90.0,90.0,96.19325256350001,96.6388778687,95.3019790649,32.533000946,15.608480453499999,3.6199998856,0,2,25,1,90,70
29,1530902444931,11931, AUTO,0,39.9586186,-88.445067899,0,-17899.9492458298,9426.0811797466,20230.155447016597,-17900.076347590602,9423.7602109075,0.27534917,0.0,-17899.9390188151,9423.7038573807,0.0162252125,5.8810354024,0.0,0.0,1460,1750,40.0433685117,-88.23492134950001,40.043369,-88.2349828333,0.0,0.0,0.0,0.0,0.0,0.0,0.0,0.0,0.0,0.0,0.0,184043,-0.07999998330000001,0.5,0.2431607395,0.3075376153,90.0,90.0,90.0,94.9836730957,96.95719146729999,95.04733276370001,33.0719985962,15.608480453499999,3.6199998856,0,2,25,1,79,72
30,1530902444982,11982, AUTO,0,39.9586186,-88.445067899,0,-17899.945141905,9426.0796118524,20230.1510852536,-17900.087284530902,9423.767475644001,0.3308053017,0.0,-17899.934914890302,9423.7022894865,0.0340849242,5.8811015494,0.0,0.0,1460,1750,40.043368576999995,-88.23492122100001,40.043369,-88.2349828333,0.0,0.0,0.0,0.0,0.0,0.0,0.0,0.0,0.0,0.0,0.0,184043,-0.07999998330000001,0.5,0.2972373366,0.36437323689999995,90.0,90.0,90.0,94.85634613040001,97.08451080319999,95.04733276370001,33.0719985962,15.608480453499999,3.6199998856,0,2,25,1,76,74
31,1530902445032,12032, AUTO,0,39.9586186,-88.445067899,0,-17899.945141905,9426.0796118524,20230.1510852536,-17900.087284530902,9423.767475644001,0.376880765,0.0,-17899.934914890302,9423.7022894865,0.0340849242,5.8811015494,0.0,0.0,1450,1750,40.043368576999995,-88.23492122100001,40.043369,-88.2349828333,0.0,0.0,0.0,0.0,0.0,0.0,0.0,0.0,0.0,0.0,0.0,184043,-0.1000000238,0.5,0.33917427060000005,0.41458722950000004,90.0,90.0,90.0,95.6839523315,97.14817810059999,95.36563873290001,31.995998382600003,15.5789337158,12.4799995422,0,2,25,1,71,77
32,1530902445083,12083, AUTO,0,39.9586186,-88.445067899,0,-17899.9420745701,9426.0778365597,20230.1475440454,-17900.116662945802,9423.7745550533,0.4008841515,0.0,-17899.9318475554,9423.7005141938,0.055901923799999996,5.8811698143,0.0,0.0,1500,1750,40.0433686407,-88.234920876,40.043369,-88.2349828333,0.0,0.0,0.0,0.0,0.0,0.0,0.0,0.0,0.0,0.0,0.0,184043,0.0,0.5,0.36382144689999996,0.437946856,90.0,90.0,90.0,96.12958526610001,95.74761199950001,95.74761199950001,31.995998382600003,15.5789337158,12.4799995422,0,2,25,1,62,79
33,1530902445133,12133, AUTO,0,39.9586186,-88.445067899,0,-17899.9420745701,9426.0778365597,20230.1475440454,-17900.116662945802,9423.7745550533,0.4230481982,0.0,-17899.9318475554,9423.7005141938,0.055901923799999996,5.8811698143,0.0,0.0,1450,1750,40.0433686407,-88.234920876,40.043369,-88.2349828333,0.0,0.0,0.0,0.0,0.0,0.0,0.0,0.0,0.0,0.0,0.0,184043,-0.1000000238,0.5,0.39325088259999996,0.45284551380000004,90.0,90.0,90.0,96.8935317993,95.55662536620001,95.74761199950001,31.995998382600003,15.5789337158,12.4799995422,0,2,25,1,45,82
34,1530902445184,12184, AUTO,0,39.9586186,-88.445067899,0,-17899.9420745701,9426.0778365597,20230.1475440454,-17900.116662945802,9423.7745550533,0.4437407255,0.0,-17899.9318475554,9423.7005141938,0.055901923799999996,5.8811698143,0.0,0.0,1460,1750,40.0433686407,-88.234920876,40.043369,-88.2349828333,0.0,0.0,0.0,0.0,0.0,0.0,0.0,0.0,0.0,0.0,0.0,184043,-0.07999998330000001,0.5,0.4129317999,0.47454968090000005,90.0,90.0,90.0,97.27549743649999,95.3019790649,95.93859863280001,31.995998382600003,15.5789337158,12.4799995422,0,2,25,1,49,85
35,1530902445237,12237, AUTO,0,39.9586186,-88.445067899,0,-17899.9420745701,9426.0778365597,20230.1475440454,-17900.1636665615,9423.7754075481,0.4439246655,0.0,-17899.9318475554,9423.7005141938,0.055901923799999996,5.8811698143,0.0,0.0,1360,1750,40.043368648299996,-88.2349203242,40.043369,-88.2349828333,0.0,0.0,0.0,0.0,0.0,0.0,0.0,0.0,0.0,0.0,0.0,184044,-0.2799999714,0.5,0.4316930771,0.4561562836,90.0,90.0,90.0,97.08451080319999,95.174659729,96.0659179688,31.995998382600003,15.5789337158,12.4799995422,0,2,25,1,57,87
36,1530902445288,12288, AUTO,0,39.9586186,-88.445067899,0,-17899.945824747,9426.0728642141,20230.1485454347,-17900.2369691988,9423.7702369845,0.4407978058,0.0,-17899.9355977323,9423.6955418482,0.1020276899,5.8747884964,0.0,0.0,1510,1750,40.0433686018,-88.23491946370001,40.043369,-88.2349828333,0.0,0.0,0.0,0.0,0.0,0.0,0.0,0.0,0.0,0.0,0.0,184044,0.019999980900000002,0.5,0.40667805079999997,0.47491756079999997,90.0,90.0,90.0,96.6388778687,94.4107131958,96.3842315674,32.533000946,15.5789337158,12.4799995422,0,2,25,1,39,90
37,1530902445338,12338, AUTO,0,39.9586186,-88.445067899,0,-17899.945824747,9426.0728642141,20230.1485454347,-17900.2369691988,9423.7702369845,0.4363833964,0.0,-17899.9355977323,9423.6955418482,0.1020276899,5.8747884964,0.0,0.0,1440,1750,40.0433686018,-88.23491946370001,40.043369,-88.2349828333,0.0,0.0,0.0,0.0,0.0,0.0,0.0,0.0,0.0,0.0,0.0,184044,-0.1200000048,0.5,0.38902038340000006,0.48374640939999997,90.0,90.0,90.0,97.5938110352,94.6016998291,96.32057189940001,31.995998382600003,15.5789337158,12.4799995422,0,2,25,1,44,92
38,1530902445389,12389, AUTO,0,39.9586186,-88.445067899,0,-17899.9538072541,9426.068810357,20230.153719619,-17900.2810640173,9423.7698292693,0.4405218959,0.0,-17899.9435802394,9423.6914879911,0.1231757107,5.8612638087,0.0,0.0,1540,1750,40.043368598200004,-88.23491894600001,40.043369,-88.2349828333,0.0,0.0,0.0,0.0,0.0,0.0,0.0,0.0,0.0,0.0,0.0,184044,0.0800000429,0.5,0.40116003159999997,0.47988379,90.0,90.0,90.0,96.95719146729999,94.85634613040001,96.12958526610001,32.533000946,15.5789337158,12.4799995422,0,2,25,1,52,95
39,1530902445439,12439, AUTO,0,39.9586186,-88.445067899,0,-17899.9538072541,9426.068810357,20230.153719619,-17900.2810640173,9423.7698292693,0.4437407255,0.0,-17899.9435802394,9423.6914879911,0.1231757107,5.8612638087,0.0,0.0,1610,1750,40.043368598200004,-88.23491894600001,40.043369,-88.2349828333,0.0,0.0,0.0,0.0,0.0,0.0,0.0,0.0,0.0,0.0,0.0,184044,0.22000002859999998,0.5,0.43831467630000004,0.4491668046,90.0,90.0,90.0,96.2569046021,94.729019165,96.0659179688,32.533000946,15.5789337158,12.4799995422,0,2,25,1,61,97
40,1530902445489,12489, AUTO,0,39.9586186,-88.445067899,0,-17899.9658495276,9426.062779179,20230.161564636,-17900.330677037902,9423.7730168576,0.43822270630000004,0.0,-17899.9556225129,9423.6854568131,0.1441915912,5.835097962000001,0.0,0.0,1370,1750,40.043368626799996,-88.2349183635,40.043369,-88.2349828333,0.0,0.0,0.0,0.0,0.0,0.0,0.0,0.0,0.0,0.0,0.0,184044,-0.2599999905,0.5,0.4340842068,0.4423612356,90.0,90.0,90.0,95.62029266360001,94.4107131958,96.44789123540001,31.995998382600003,15.5789337158,12.4799995422,0,2,25,1,60,100
41,1530902445540,12540, AUTO,0,39.9586186,-88.445067899,0,-17899.9658495276,9426.062779179,20230.161564636,-17900.330677037902,9423.7730168576,0.4377629161,0.0,-17899.9556225129,9423.6854568131,0.1441915912,5.835097962000001,0.0,0.0,1480,1750,40.043368626799996,-88.2349183635,40.0433686667,-88.2349823333,0.0,0.0,0.0,0.0,0.0,0.0,0.0,0.0,0.0,0.0,0.0,184044,-0.040000021499999996,0.5,0.42966982719999997,0.445856005,90.0,90.0,90.0,94.5380325317,94.0923995972,96.76620483399999,31.995998382600003,15.5789337158,12.4799995422,0,2,25,1,43,102
42,1530902445590,12590, AUTO,0,39.9586186,-88.445067899,0,-17899.9658495276,9426.062779179,20230.161564636,-17900.330677037902,9423.7730168576,0.4609385729,0.0,-17899.9556225129,9423.6854568131,0.1441915912,5.835097962000001,0.0,0.0,1490,1750,40.043368626799996,-88.2349183635,40.0433686667,-88.2349823333,0.0,0.0,0.0,0.0,0.0,0.0,0.0,0.0,0.0,0.0,0.0,184044,-0.019999980900000002,0.5,0.4410737157,0.4808034301,90.0,90.0,90.0,94.0287399292,93.39212036129999,97.27549743649999,32.533000946,15.5789337158,12.4799995422,0,2,25,1,41,105
43,1530902445641,12641, AUTO,0,39.9586186,-88.445067899,0,-17899.9814534871,9426.0534886859,20230.171042449198,-17900.365739406,9423.775555808,0.4723424911,0.0,-17899.9712264724,9423.67616632,0.166316509,5.7911594676,0.0,0.0,1460,1750,40.0433686497,-88.2349179518,40.0433686667,-88.2349823333,0.0,0.0,0.0,0.0,0.0,0.0,0.0,0.0,0.0,0.0,0.0,184044,-0.07999998330000001,0.5,0.4592831731,0.48540180920000003,90.0,90.0,90.0,93.9014129639,94.2197265625,97.5938110352,32.533000946,15.5789337158,12.4799995422,0,2,25,1,45,107
44,1530902445691,12691, AUTO,0,39.9586186,-88.445067899,0,-17900.0017036695,9426.03974404,20230.1825559631,-17900.395475856298,9423.7799850722,0.473354131,0.0,-17899.9914766548,9423.6624216741,0.18983505829999997,5.7227594132,0.0,0.0,1530,1750,40.0433686895,-88.23491760270001,40.0433686667,-88.2349823333,0.0,0.0,0.0,0.0,0.0,0.0,0.0,0.0,0.0,0.0,0.0,184044,0.059999942800000004,0.5,0.4651690722,0.4815391898,90.0,90.0,90.0,95.74761199950001,96.2569046021,97.27549743649999,31.995998382600003,15.5789337158,12.4799995422,0,2,25,1,32,110
45,1530902445741,12741, AUTO,0,39.9586186,-88.445067899,0,-17900.0017036695,9426.03974404,20230.1825559631,-17900.395475856298,9423.7799850722,0.47473362090000004,0.0,-17899.9914766548,9423.6624216741,0.18983505829999997,5.7227594132,0.0,0.0,1620,1750,40.0433686895,-88.23491760270001,40.0433686667,-88.2349823333,0.0,0.0,0.0,0.0,0.0,0.0,0.0,0.0,0.0,0.0,0.0,184044,0.2400000095,0.5,0.4567081034,0.47804445030000003,90.0,90.0,90.0,97.53015136719999,96.5752182007,96.19325256350001,31.995998382600003,15.5789337158,12.4799995422,0,2,25,1,43,112
46,1530902445792,12792, AUTO,0,39.9586186,-88.445067899,0,-17900.0305629829,9426.0195018378,20230.1986595473,-17900.443132424498,9423.7809116966,0.4501784444,0.0,-17900.020335968202,9423.642179471899,0.21369508550000002,5.618015860700001,0.0,0.0,1510,1750,40.043368697800005,-88.2349170432,40.0433686667,-88.2349823333,0.0,0.0,0.0,0.0,0.0,0.0,0.0,0.0,0.0,0.0,0.0,184044,0.019999980900000002,0.5,0.4320609272,0.4682959318,90.0,90.0,90.0,96.8935317993,96.95719146729999,95.74761199950001,32.533000946,15.5789337158,12.4799995422,0,2,25,1,36,115
47,1530902445842,12842, AUTO,0,39.9586186,-88.445067899,0,-17900.0305629829,9426.0195018378,20230.1986595473,-17900.443132424498,9423.7809116966,0.4566161335,0.0,-17900.020335968202,9423.642179471899,0.21369508550000002,5.618015860700001,0.0,0.0,1520,1750,40.043368697800005,-88.2349170432,40.0433686667,-88.2349823333,0.0,0.0,0.0,0.0,0.0,0.0,0.0,0.0,0.0,0.0,0.0,184044,0.0399999619,0.5,0.4500864744,0.4631457925,90.0,90.0,90.0,95.8749313354,97.33916473389999,95.4929656982,32.533000946,15.5789337158,12.4799995422,0,2,25,1,36,117
48,1530902445893,12893, AUTO,0,39.9586186,-88.445067899,0,-17900.0305629829,9426.0195018378,20230.1986595473,-17900.443132424498,9423.7809116966,0.47363001109999997,0.0,-17900.020335968202,9423.642179471899,0.21369508550000002,5.618015860700001,0.0,0.0,1490,1750,40.043368697800005,-88.2349170432,40.0433686667,-88.2349823333,0.0,0.0,0.0,0.0,0.0,0.0,0.0,0.0,0.0,0.0,0.0,184044,-0.019999980900000002,0.5,0.4708710015,0.4763890207,90.0,90.0,90.0,95.74761199950001,97.65747070309999,95.04733276370001,31.995998382600003,15.5789337158,12.4799995422,0,2,25,1,39,120
49,1530902445943,12943, AUTO,0,39.9586186,-88.445067899,0,-17900.072231145,9425.9910198003,20230.222257443602,-17900.4906557395,9423.7864899761,0.4752854407,0.0,-17900.0620041303,9423.613697434399,0.2393784303,5.4603311365,0.0,0.0,1480,1750,40.043368748,-88.2349164852,40.0433686667,-88.2349823333,0.0,0.0,0.0,0.0,0.0,0.0,0.0,0.0,0.0,0.0,0.0,184044,-0.040000021499999996,0.5,0.4649851322,0.48558574909999996,90.0,90.0,90.0,94.85634613040001,97.65747070309999,94.9836730957,31.995998382600003,15.5789337158,12.4799995422,0,2,25,1,37,122
50,1530902445994,12994, AUTO,0,39.9586186,-88.445067899,0,-17900.131847454,9425.9550404579,20230.2582430618,-17900.5045632408,9423.8028356298,0.48484998939999996,0.0,-17900.1216204393,9423.577718092,0.2688153433,5.2323031256,0.0,0.0,1520,1750,40.043368895,-88.2349163217,40.0433686667,-88.2349823333,0.0,0.0,0.0,0.0,0.0,0.0,0.0,0.0,0.0,0.0,0.0,184044,0.0399999619,0.5,0.4776765704,0.4920234382,90.0,90.0,90.0,94.3470458984,95.62029266360001,95.4929656982,31.995998382600003,15.5789337158,12.4799995422,0,2,25,1,57,125
51,1530902446044,13044, AUTO,0,39.9586186,-88.445067899,0,-17900.131847454,9425.9550404579,20230.2582430618,-17900.5045632408,9423.8028356298,0.4900001287,0.0,-17900.1216204393,9423.577718092,0.2688153433,5.2323031256,0.0,0.0,1500,1750,40.043368895,-88.2349163217,40.0433686667,-88.2349823333,0.0,0.0,0.0,0.0,0.0,0.0,0.0,0.0,0.0,0.0,0.0,184044,0.0,0.5,0.4938627481,0.48613753909999996,90.0,90.0,90.0,95.4929656982,94.0923995972,95.74761199950001,32.533000946,15.5571184158,10.4899997711,0,2,25,1,51,127
52,1530902446095,13095, AUTO,0,39.9586186,-88.445067899,0,-17900.2248642964,9425.915508804599,20230.3221272301,-17900.5525684319,9423.7970534942,0.5000245571,0.0,-17900.2146372817,9423.5381864387,0.3036737155,4.9039853596,0.0,0.0,1530,1750,40.043368843,-88.2349157582,40.0433686667,-88.2349823333,0.0,0.0,0.0,0.0,0.0,0.0,0.0,0.0,0.0,0.0,0.0,184044,0.059999942800000004,0.5,0.4999325871,0.5001165271,90.0,90.0,90.0,96.5752182007,94.0287399292,95.81127929690001,32.533000946,15.5571184158,10.4899997711,0,2,25,1,44,129
53,1530902446145,13145, AUTO,0,39.9586186,-88.445067899,0,-17900.2248642964,9425.915508804599,20230.3221272301,-17900.5525684319,9423.7970534942,0.5043469667,0.0,-17900.2146372817,9423.5381864387,0.3036737155,4.9039853596,0.0,0.0,1500,1750,40.043368843,-88.2349157582,40.0433686667,-88.2349823333,0.0,0.0,0.0,0.0,0.0,0.0,0.0,0.0,0.0,0.0,0.0,184044,0.0,0.5,0.5106007457,0.4980932474,90.0,90.0,90.0,96.76620483399999,94.0923995972,95.62029266360001,32.533000946,15.5571184158,10.4899997711,0,2,25,1,57,132
54,1530902446195,13195, AUTO,0,39.9586186,-88.445067899,0,-17900.2248642964,9425.915508804599,20230.3221272301,-17900.5525684319,9423.7970534942,0.5131758451,0.0,-17900.2146372817,9423.5381864387,0.3036737155,4.9039853596,0.0,0.0,1500,1750,40.043368843,-88.2349157582,40.0433686667,-88.2349823333,0.0,0.0,0.0,0.0,0.0,0.0,0.0,0.0,0.0,0.0,0.0,184044,0.0,0.5,0.5185099244,0.5078417659000001,90.0,90.0,90.0,95.8749313354,94.3470458984,95.3019790649,31.995998382600003,15.5571184158,10.4899997711,0,2,25,1,72,134
55,1530902446246,13246, AUTO,0,39.9586186,-88.445067899,0,-17900.3674112124,9425.8943197154,20230.4383833579,-17900.6236314972,9423.7889362643,0.5175902246999999,0.0,-17900.3571841977,9423.5169973495,0.3479323097,4.4518828483999995,0.0,0.0,1510,1750,40.04336877,-88.234914924,40.0433686667,-88.2349823333,0.0,0.0,0.0,0.0,0.0,0.0,0.0,0.0,0.0,0.0,0.0,184045,0.019999980900000002,0.5,0.5175902246999999,0.5175902246999999,90.0,90.0,90.0,95.93859863280001,95.174659729,95.04733276370001,31.995998382600003,15.5571184158,10.4899997711,0,2,25,1,81,136
56,1530902446297,13297, AUTO,0,39.9586186,-88.445067899,0,-17900.5415340081,9425.9384132901,20230.6129957025,-17900.6712456235,9423.8017792782,0.5227403640999999,0.0,-17900.5313069934,9423.5610909242,0.40264613549999995,3.9203362918,0.0,0.0,1510,1750,40.0433688855,-88.23491436479999,40.0433686667,-88.2349823333,0.0,0.0,0.0,0.0,0.0,0.0,0.0,0.0,0.0,0.0,0.0,184045,0.1000000238,0.5,0.5129919052,0.5324888825,90.0,90.0,90.0,96.2569046021,95.62029266360001,95.36563873290001,31.995998382600003,15.5571184158,10.4899997711,0,2,25,1,69,138
57,1530902446348,13348, AUTO,0,39.9586186,-88.445067899,0,-17900.5415340081,9425.9384132901,20230.6129957025,-17900.737212404398,9423.7934396581,0.5235680938,0.0,-17900.5313069934,9423.5610909242,0.40264613549999995,3.9203362918,0.0,0.0,1500,1750,40.0433688105,-88.23491359049999,40.0433686667,-88.2349823333,0.0,0.0,0.0,0.0,0.0,0.0,0.0,0.0,0.0,0.0,0.0,184045,0.0,0.5,0.5118882656,0.5352479218999999,90.0,90.0,90.0,96.19325256350001,95.55662536620001,95.6839523315,31.995998382600003,15.5571184158,10.4899997711,0,2,25,1,75,140
58,1530902446399,13399, AUTO,0,39.9586186,-88.445067899,0,-17900.7292606212,9425.9929224169,20230.8044979806,-17900.737212404398,9423.7934396581,0.5250395536,0.0,-17900.7190336065,9423.615600051,0.4452736416,3.4604659088,0.0,0.0,1490,1750,40.0433688105,-88.23491359049999,40.0433686667,-88.2349823333,0.0,0.0,0.0,0.0,0.0,0.0,0.0,0.0,0.0,0.0,0.0,184045,-0.019999980900000002,0.5,0.5238440037,0.5262351036,90.0,90.0,90.0,96.0659179688,95.62029266360001,95.62029266360001,31.995998382600003,15.5571184158,10.4899997711,0,2,25,1,93,142
59,1530902446449,13449, AUTO,0,39.9586186,-88.445067899,0,-17900.7292606212,9425.9929224169,20230.8044979806,-17900.737212404398,9423.7934396581,0.5264191031000001,0.0,-17900.7190336065,9423.615600051,0.4452736416,3.4604659088,0.0,0.0,1510,1750,40.0433688105,-88.23491359049999,40.0433686667,-88.2349823333,0.0,0.0,0.0,0.0,0.0,0.0,0.0,0.0,0.0,0.0,0.0,184045,0.019999980900000002,0.5,0.5243958235,0.5284423828,90.0,90.0,90.0,95.62029266360001,95.81127929690001,95.4929656982,31.995998382600003,15.5571184158,10.4899997711,0,2,25,1,107,145
60,1530902446499,13499, AUTO,0,39.9586186,-88.445067899,0,-17900.8941258275,9426.114810064399,20231.007165156203,-17900.7716060093,9423.7972758843,0.5296379328,0.0,-17900.8838988128,9423.7374876985,0.4637370955,3.1860982441,0.0,0.0,1470,1750,40.043368845,-88.2349131867,40.0433686667,-88.2349823333,0.0,0.0,0.0,0.0,0.0,0.0,0.0,0.0,0.0,0.0,0.0,184045,-0.0600000024,0.5,0.5271548033,0.5321210623,90.0,90.0,90.0,95.42930603030001,96.19325256350001,95.1109924316,31.995998382600003,15.5571184158,10.4899997711,0,2,25,1,92,147
61,1530902446550,13550, AUTO,0,39.9586186,-88.445067899,0,-17900.8941258275,9426.114810064399,20231.007165156203,-17900.7716060093,9423.7972758843,0.5306495428,0.0,-17900.8838988128,9423.7374876985,0.4637370955,3.1860982441,0.0,0.0,1480,1750,40.043368845,-88.2349131867,40.0433685,-88.2349823333,0.0,0.0,0.0,0.0,0.0,0.0,0.0,0.0,0.0,0.0,0.0,184045,-0.040000021499999996,0.5,0.5334085822,0.5278905629999999,90.0,90.0,90.0,95.23831939700001,96.32057189940001,94.9836730957,31.995998382600003,15.5571184158,10.4899997711,0,2,25,1,82,149
62,1530902446600,13600, AUTO,0,39.9586186,-88.445067899,0,-17900.9552576014,9426.174892844101,20231.0892500906,-17900.8053889839,9423.8133064858,0.5266030431000001,0.0,-17900.9450305867,9423.7975704782,0.47660162170000003,3.114683999,0.0,0.0,1480,1750,40.0433689892,-88.23491278979999,40.0433685,-88.2349823333,0.0,0.0,0.0,0.0,0.0,0.0,0.0,0.0,0.0,0.0,0.0,184045,-0.040000021499999996,0.5,0.5319371223,0.5212689638,90.0,90.0,90.0,95.42930603030001,96.2569046021,95.4929656982,32.533000946,15.5571184158,10.4899997711,0,2,25,1,64,151
63,1530902446651,13651, AUTO,0,39.9586186,-88.445067899,0,-17900.9552576014,9426.174892844101,20231.0892500906,-17900.8053889839,9423.8133064858,0.520809114,0.0,-17900.9450305867,9423.7975704782,0.47660162170000003,3.114683999,0.0,0.0,1470,1750,40.0433689892,-88.23491278979999,40.0433685,-88.2349823333,0.0,0.0,0.0,0.0,0.0,0.0,0.0,0.0,0.0,0.0,0.0,184045,-0.0600000024,0.5,0.5209010839,0.520717144,90.0,90.0,90.0,96.32057189940001,96.00226593020001,95.93859863280001,32.533000946,15.5571184158,10.4899997711,0,2,25,1,64,153
64,1530902446701,13701, AUTO,0,39.9586186,-88.445067899,0,-17900.9985988492,9426.1922895487,20231.1357050352,-17900.847018718,9423.820608286,0.5216368437,0.0,-17900.9883718345,9423.8149671828,0.4844684687,3.0873136388,0.0,0.0,1540,1750,40.0433690548,-88.23491230100001,40.0433685,-88.2349823333,0.0,0.0,0.0,0.0,0.0,0.0,0.0,0.0,0.0,0.0,0.0,184045,0.0800000429,0.5,0.5098650455,0.5334085822,90.0,90.0,90.0,96.95719146729999,95.6839523315,96.3842315674,31.995998382600003,15.5571184158,10.4899997711,0,2,25,1,69,155
65,1530902446752,13752, AUTO,0,39.9586186,-88.445067899,0,-17900.9985988492,9426.1922895487,20231.1357050352,-17900.847018718,9423.820608286,0.5281664133,0.0,-17900.9883718345,9423.8149671828,0.4844684687,3.0873136388,0.0,0.0,1450,1750,40.0433690548,-88.23491230100001,40.0433685,-88.2349823333,0.0,0.0,0.0,0.0,0.0,0.0,0.0,0.0,0.0,0.0,0.0,184045,-0.1000000238,0.5,0.5164866446999999,0.5398462414999999,90.0,90.0,90.0,96.95719146729999,95.42930603030001,96.6388778687,31.995998382600003,15.5571184158,10.4899997711,0,2,25,1,57,157
66,1530902446802,13802, AUTO,0,39.9586186,-88.445067899,0,-17900.9985988492,9426.1922895487,20231.1357050352,-17900.9412030613,9423.8045406187,0.5354318619,0.0,-17900.9883718345,9423.8149671828,0.4844684687,3.0873136388,0.0,0.0,1510,1750,40.0433689103,-88.23491119549999,40.0433685,-88.2349823333,0.0,0.0,0.0,0.0,0.0,0.0,0.0,0.0,0.0,0.0,0.0,184045,0.019999980900000002,0.5,0.5310174227000001,0.5398462414999999,90.0,90.0,90.0,95.8749313354,95.23831939700001,96.8298721313,31.995998382600003,15.5571184158,10.4899997711,0,2,25,1,52,160
67,1530902446853,13853, AUTO,0,39.9586186,-88.445067899,0,-17901.0517967005,9426.1980117943,20231.1854419287,-17900.9412030613,9423.8045406187,0.5411337614,0.0,-17901.0415696858,9423.8206894284,0.4900715994,3.0796109641000005,0.0,0.0,1470,1750,40.0433689103,-88.23491119549999,40.0433685,-88.2349823333,0.0,0.0,0.0,0.0,0.0,0.0,0.0,0.0,0.0,0.0,0.0,184045,-0.0600000024,0.5,0.5464679003,0.5357996821000001,90.0,90.0,90.0,96.12958526610001,95.174659729,96.95719146729999,31.995998382600003,15.5571184158,10.4899997711,0,2,25,1,60,162
68,1530902446903,13903, AUTO,0,39.9586186,-88.445067899,0,-17901.109331903797,9426.1997064149,20231.237140076002,-17900.994283500502,9423.8047815414,0.5461000203999999,0.0,-17901.099104889097,9423.8223840489,0.49635031630000004,3.081993779,0.0,0.0,1500,1750,40.0433689125,-88.2349105723,40.0433685,-88.2349823333,0.0,0.0,0.0,0.0,0.0,0.0,0.0,0.0,0.0,0.0,0.0,184045,0.0,0.5,0.5540091991,0.5381909013,90.0,90.0,90.0,96.2569046021,95.04733276370001,97.02085876459999,33.0719985962,15.5571184158,10.4899997711,0,2,25,1,60,164
69,1530902446954,13954, AUTO,0,39.9586186,-88.445067899,0,-17901.109331903797,9426.1997064149,20231.237140076002,-17901.0310672034,9423.8163458142,0.5453642607,0.0,-17901.099104889097,9423.8223840489,0.49635031630000004,3.081993779,0.0,0.0,1500,1750,40.0433690165,-88.2349101403,40.0433685,-88.2349823333,0.0,0.0,0.0,0.0,0.0,0.0,0.0,0.0,0.0,0.0,0.0,184045,0.0,0.5,0.5540091991,0.5367193818,90.0,90.0,90.0,96.00226593020001,95.04733276370001,96.95719146729999,33.0719985962,15.5571184158,10.4899997711,0,2,25,1,67,166
70,1530902447004,14004, AUTO,0,39.9586186,-88.445067899,0,-17901.1644090067,9426.2017673271,20231.2868339275,-17901.0310672034,9423.8163458142,0.5493189096,0.0,-17901.154181992,9423.8244449612,0.5031590168,3.0846587361,0.0,0.0,1480,1750,40.0433690165,-88.2349101403,40.0433685,-88.2349823333,0.0,0.0,0.0,0.0,0.0,0.0,0.0,0.0,0.0,0.0,0.0,184045,-0.040000021499999996,0.5,0.5578718185,0.5407659411,90.0,90.0,90.0,95.6839523315,94.9836730957,96.76620483399999,31.995998382600003,15.5571184158,10.4899997711,0,2,25,1,68,168
71,1530902447055,14055, AUTO,0,39.9586186,-88.445067899,0,-17901.1644090067,9426.2017673271,20231.2868339275,-17901.0310672034,9423.8163458142,0.5461000203999999,0.0,-17901.154181992,9423.8244449612,0.5031590168,3.0846587361,0.0,0.0,1500,1750,40.0433690165,-88.2349101403,40.0433685,-88.2349823333,0.0,0.0,0.0,0.0,0.0,0.0,0.0,0.0,0.0,0.0,0.0,184045,0.0,0.5,0.5488590002,0.5433409810000001,90.0,90.0,90.0,95.62029266360001,95.04733276370001,96.6388778687,31.995998382600003,15.541255950899998,12.0900001526,0,2,25,1,71,170
72,1530902447108,14108, AUTO,0,39.9586186,-88.445067899,0,-17901.215253733502,9426.2058687808,20231.3337336207,-17901.0579272,9423.8282066067,0.5415936708,0.0,-17901.2050267188,9423.8285464149,0.5093378946,3.0839043343,0.0,0.0,1490,1750,40.0433691232,-88.2349098248,40.0433685,-88.2349823333,0.0,0.0,0.0,0.0,0.0,0.0,0.0,0.0,0.0,0.0,0.0,184045,-0.019999980900000002,0.5,0.5477554202,0.5354318619,90.0,90.0,90.0,96.19325256350001,95.174659729,96.51155853270001,32.533000946,15.541255950899998,12.0900001526,0,2,25,1,59,173
73,1530902447158,14158, AUTO,0,39.9586186,-88.445067899,0,-17901.215253733502,9426.2058687808,20231.3337336207,-17901.0579272,9423.8282066067,0.5381908417,0.0,-17901.2050267188,9423.8285464149,0.5093378946,3.0839043343,0.0,0.0,1510,1750,40.0433691232,-88.2349098248,40.0433685,-88.2349823333,0.0,0.0,0.0,0.0,0.0,0.0,0.0,0.0,0.0,0.0,0.0,184045,0.019999980900000002,0.5,0.5518019795,0.5245797634,90.0,90.0,90.0,96.95719146729999,95.3019790649,96.44789123540001,31.995998382600003,15.541255950899998,12.0900001526,0,2,25,1,60,175
74,1530902447209,14209, AUTO,0,39.9586186,-88.445067899,0,-17901.215253733502,9426.2058687808,20231.3337336207,-17901.0579272,9423.8282066067,0.5435249805,0.0,-17901.2050267188,9423.8285464149,0.5093378946,3.0839043343,0.0,0.0,1480,1750,40.0433691232,-88.2349098248,40.0433685,-88.2349823333,0.0,0.0,0.0,0.0,0.0,0.0,0.0,0.0,0.0,0.0,0.0,184045,-0.040000021499999996,0.5,0.5632058978,0.5238440037,90.0,90.0,90.0,96.5752182007,95.36563873290001,96.3842315674,31.995998382600003,15.541255950899998,12.0900001526,0,2,25,1,62,177
75,1530902447259,14259, AUTO,0,39.9586186,-88.445067899,0,-17901.215253733502,9426.2058687808,20231.3337336207,-17901.0579272,9423.8282066067,0.5401221514,0.0,-17901.2050267188,9423.8285464149,0.5093378946,3.0839043343,0.0,0.0,1450,1750,40.0433691232,-88.2349098248,40.0433685,-88.2349823333,0.0,0.0,0.0,0.0,0.0,0.0,0.0,0.0,0.0,0.0,0.0,184045,-0.1000000238,0.5,0.5481233001,0.5321210623,90.0,90.0,90.0,95.93859863280001,95.4929656982,96.2569046021,31.995998382600003,15.541255950899998,12.0900001526,0,2,25,1,56,179
76,1530902447309,14309, AUTO,0,39.9586186,-88.445067899,0,-17901.273244121498,9426.2081156285,20231.3860919079,-17901.1716120953,9423.8287996454,0.542329371,0.0,-17901.263017106798,9423.8307932626,0.5143759032,3.0863235505,0.0,0.0,1490,1750,40.0433691285,-88.2349084902,40.0433685,-88.2349823333,0.0,0.0,0.0,0.0,0.0,0.0,0.0,0.0,0.0,0.0,0.0,184046,-0.019999980900000002,0.5,0.5306495428,0.5540091991,90.0,90.0,90.0,96.0659179688,95.55662536620001,96.12958526610001,32.533000946,15.541255950899998,12.0900001526,0,2,25,1,71,182
77,1530902447360,14360, AUTO,0,39.9586186,-88.445067899,0,-17901.325053555,9426.2110151872,20231.4332852587,-17901.1716120953,9423.8287996454,0.5477553606000001,0.0,-17901.3148265403,9423.8336928213,0.5185913426,3.0869209349,0.0,0.0,1540,1750,40.0433691285,-88.2349084902,40.0433685,-88.2349823333,0.0,0.0,0.0,0.0,0.0,0.0,0.0,0.0,0.0,0.0,0.0,184046,0.0800000429,0.5,0.5359836221000001,0.5595271587,90.0,90.0,90.0,95.8749313354,95.4929656982,96.19325256350001,33.0719985962,15.541255950899998,12.0900001526,0,2,25,1,68,184
78,1530902447411,14411, AUTO,0,39.9586186,-88.445067899,0,-17901.3748411607,9426.2131602692,20231.478338138702,-17901.212299336497,9423.8287440484,0.5560324192,0.0,-17901.364614146,9423.8358379033,0.5237506753,3.0887286098,0.0,0.0,1470,1750,40.043369128,-88.2349080125,40.0433685,-88.2349823333,0.0,0.0,0.0,0.0,0.0,0.0,0.0,0.0,0.0,0.0,0.0,184046,-0.0600000024,0.5,0.5628380179,0.5492268801,90.0,90.0,90.0,95.8749313354,95.55662536620001,96.12958526610001,33.0719985962,15.541255950899998,12.0900001526,0,2,25,1,71,186
79,1530902447461,14461, AUTO,0,39.9586186,-88.445067899,0,-17901.3748411607,9426.2131602692,20231.478338138702,-17901.2150060092,9423.856950494,0.5575039386999999,0.0,-17901.364614146,9423.8358379033,0.5237506753,3.0887286098,0.0,0.0,1510,1750,40.0433693817,-88.23490798030001,40.0433685,-88.2349823333,0.0,0.0,0.0,0.0,0.0,0.0,0.0,0.0,0.0,0.0,0.0,184046,0.019999980900000002,0.5,0.5650452375,0.5499626397999999,90.0,90.0,90.0,95.93859863280001,95.55662536620001,96.19325256350001,33.0719985962,15.541255950899998,12.0900001526,0,2,25,1,65,189
80,1530902447511,14511, AUTO,0,39.9586186,-88.445067899,0,-17901.4143753693,9426.2213633853,20231.5171410901,-17901.2150060092,9423.856950494,0.5656889677,0.0,-17901.4041483546,9423.8440410194,0.5288892878,3.0807725607,0.0,0.0,1540,1750,40.0433693817,-88.23490798030001,40.0433685,-88.2349823333,0.0,0.0,0.0,0.0,0.0,0.0,0.0,0.0,0.0,0.0,0.0,184046,0.0800000429,0.5,0.5689077973,0.5624701381,90.0,90.0,90.0,95.4929656982,95.3019790649,96.3842315674,32.533000946,15.541255950899998,12.0900001526,0,2,25,1,56,191
81,1530902447562,14562, AUTO,0,39.9586186,-88.445067899,0,-17901.4143753693,9426.2213633853,20231.5171410901,-17901.2150060092,9423.856950494,0.5644013882,0.0,-17901.4041483546,9423.8440410194,0.5288892878,3.0807725607,0.0,0.0,1410,1750,40.0433693817,-88.23490798030001,40.0433683333,-88.234982,0.0,0.0,0.0,0.0,0.0,0.0,0.0,0.0,0.0,0.0,0.0,184046,-0.18000000719999998,0.5,0.5733222365,0.5554805993999999,90.0,90.0,90.0,95.42930603030001,95.23831939700001,96.3842315674,32.533000946,15.541255950899998,12.0900001526,0,2,25,1,53,193
82,1530902447612,14612, AUTO,0,39.9586186,-88.445067899,0,-17901.450931012,9426.2314848399,20231.5542023152,-17901.265104484,9423.8577844555,0.554377079,0.0,-17901.4407039973,9423.854162474001,0.5337284378,3.0663578962,0.0,0.0,1570,1750,40.0433693892,-88.2349073922,40.0433683333,-88.234982,0.0,0.0,0.0,0.0,0.0,0.0,0.0,0.0,0.0,0.0,0.0,184046,0.1399999857,0.5,0.5481233001,0.5606307983,90.0,90.0,90.0,95.62029266360001,95.174659729,96.3842315674,32.533000946,15.541255950899998,12.0900001526,0,2,25,1,62,196
83,1530902447663,14663, AUTO,0,39.9586186,-88.445067899,0,-17901.450931012,9426.2314848399,20231.5542023152,-17901.323310079,9423.8578400539,0.5450884104,0.0,-17901.4407039973,9423.854162474001,0.5337284378,3.0663578962,0.0,0.0,1500,1750,40.0433693897,-88.2349067088,40.0433683333,-88.234982,0.0,0.0,0.0,0.0,0.0,0.0,0.0,0.0,0.0,0.0,0.0,184046,0.0,0.5,0.5455482006,0.5446285605,90.0,90.0,90.0,95.74761199950001,95.42930603030001,96.12958526610001,32.533000946,15.541255950899998,12.0900001526,0,2,25,1,67,200
84,1530902447713,14713, AUTO,0,39.9586186,-88.445067899,0,-17901.4896740672,9426.240481391,20231.5926749168,-17901.323310079,9423.8578400539,0.5460080504,0.0,-17901.4794470525,9423.8631590251,0.5370566344,3.054336232,0.0,0.0,1550,1750,40.0433693897,-88.2349067088,40.0433683333,-88.234982,0.0,0.0,0.0,0.0,0.0,0.0,0.0,0.0,0.0,0.0,0.0,184046,0.1000000238,0.5,0.5532734394,0.5387426614999999,90.0,90.0,90.0,95.8749313354,95.4929656982,96.12958526610001,31.995998382600003,15.541255950899998,12.0900001526,0,2,25,1,84,203
85,1530902447763,14763, AUTO,0,39.9586186,-88.445067899,0,-17901.4896740672,9426.240481391,20231.5926749168,-17901.323310079,9423.8578400539,0.5447205305,0.0,-17901.4794470525,9423.8631590251,0.5370566344,3.054336232,0.0,0.0,1520,1750,40.0433693897,-88.2349067088,40.0433683333,-88.234982,0.0,0.0,0.0,0.0,0.0,0.0,0.0,0.0,0.0,0.0,0.0,184046,0.0399999619,0.5,0.5575039386999999,0.5319371223,90.0,90.0,90.0,95.93859863280001,95.4929656982,96.12958526610001,31.995998382600003,15.541255950899998,12.0900001526,0,2,25,1,56,206
86,1530902447814,14814, AUTO,0,39.9586186,-88.445067899,0,-17901.5300088939,9426.251547526,20231.6335202218,-17901.3661024142,9423.8784667127,0.5526296496,0.0,-17901.5197818792,9423.8742251601,0.5391893317,3.0419847338,0.0,0.0,1540,1750,40.043369575199996,-88.23490620620001,40.0433683333,-88.234982,0.0,0.0,0.0,0.0,0.0,0.0,0.0,0.0,0.0,0.0,0.0,184046,0.0800000429,0.5,0.5690917373,0.536167562,90.0,90.0,90.0,95.93859863280001,95.55662536620001,96.0659179688,32.533000946,15.541255950899998,12.0900001526,0,2,25,1,64,208
87,1530902447864,14864, AUTO,0,39.9586186,-88.445067899,0,-17901.5724343607,9426.2647371511,20231.677204758,-17901.4207745612,9423.889308218,0.5568601489,0.0,-17901.562207346,9423.8874147852,0.5414670144,3.0251917599,0.0,0.0,1510,1750,40.0433696727,-88.2349055642,40.0433683333,-88.234982,0.0,0.0,0.0,0.0,0.0,0.0,0.0,0.0,0.0,0.0,0.0,184046,0.019999980900000002,0.5,0.5665166974,0.5472036004,90.0,90.0,90.0,95.81127929690001,95.42930603030001,96.12958526610001,32.533000946,15.541255950899998,12.0900001526,0,2,25,1,42,211
88,1530902447915,14915, AUTO,0,39.9586186,-88.445067899,0,-17901.5724343607,9426.2647371511,20231.677204758,-17901.4207745612,9423.889308218,0.5611826181,0.0,-17901.562207346,9423.8874147852,0.5414670144,3.0251917599,0.0,0.0,1530,1750,40.0433696727,-88.2349055642,40.0433683333,-88.234982,0.0,0.0,0.0,0.0,0.0,0.0,0.0,0.0,0.0,0.0,0.0,184046,0.059999942800000004,0.5,0.5668845773,0.5554805993999999,90.0,90.0,90.0,95.23831939700001,95.62029266360001,95.8749313354,32.533000946,15.541255950899998,12.0900001526,0,2,25,1,51,213
89,1530902447965,14965, AUTO,0,39.9586186,-88.445067899,0,-17901.5724343607,9426.2647371511,20231.677204758,-17901.4207745612,9423.889308218,0.5602629185,0.0,-17901.562207346,9423.8874147852,0.5414670144,3.0251917599,0.0,0.0,1520,1750,40.0433696727,-88.2349055642,40.0433683333,-88.234982,0.0,0.0,0.0,0.0,0.0,0.0,0.0,0.0,0.0,0.0,0.0,184046,0.0399999619,0.5,0.5643094778,0.5562163591,90.0,90.0,90.0,95.04733276370001,96.00226593020001,95.55662536620001,32.533000946,15.541255950899998,12.0900001526,0,2,25,1,43,216
90,1530902448016,15016, AUTO,0,39.9586186,-88.445067899,0,-17901.634079664298,9426.2699519352,20231.7341799697,-17901.543574821102,9423.864789736701,0.5602629185,0.0,-17901.623852649598,9423.8926295693,0.5438827062,3.0262718149000003,0.0,0.0,1530,1750,40.0433694522,-88.2349041228,40.0433683333,-88.234982,0.0,0.0,0.0,0.0,0.0,0.0,0.0,0.0,0.0,0.0,0.0,184046,0.059999942800000004,0.5,0.5657809377,0.5547449589,90.0,90.0,90.0,95.04733276370001,96.12958526610001,95.36563873290001,32.533000946,15.541255950899998,12.0900001526,0,2,25,1,31,218
91,1530902448066,15066, AUTO,0,39.9586186,-88.445067899,0,-17901.634079664298,9426.2699519352,20231.7341799697,-17901.5917392265,9423.868459169,0.55042243,0.0,-17901.623852649598,9423.8926295693,0.5438827062,3.0262718149000003,0.0,0.0,1440,1750,40.0433694852,-88.2349035573,40.0433683333,-88.234982,0.0,0.0,0.0,0.0,0.0,0.0,0.0,0.0,0.0,0.0,0.0,184046,-0.1200000048,0.5,0.5884048343,0.5124400854,90.0,90.0,90.0,95.62029266360001,95.93859863280001,95.62029266360001,32.533000946,15.524583816500002,16.4799995422,0,2,25,1,33,221
92,1530902448116,15116, AUTO,0,39.9586186,-88.445067899,0,-17901.694011113,9426.2724917775,20231.7883924472,-17901.5917392265,9423.868459169,0.5296379328,0.0,-17901.683784098303,9423.8951694116,0.545528928,3.0321229377999996,0.0,0.0,1670,1750,40.0433694852,-88.2349035573,40.0433683333,-88.234982,0.0,0.0,0.0,0.0,0.0,0.0,0.0,0.0,0.0,0.0,0.0,184046,0.3400000334,0.5,0.5788402557,0.48043558,90.0,90.0,90.0,95.81127929690001,95.6839523315,95.8749313354,32.533000946,15.524583816500002,16.4799995422,0,2,25,1,38,223
93,1530902448167,15167, AUTO,0,39.9586186,-88.445067899,0,-17901.694011113,9426.2724917775,20231.7883924472,-17901.5917392265,9423.868459169,0.5254074335,0.0,-17901.683784098303,9423.8951694116,0.545528928,3.0321229377999996,0.0,0.0,1370,1750,40.0433694852,-88.2349035573,40.0433683333,-88.234982,0.0,0.0,0.0,0.0,0.0,0.0,0.0,0.0,0.0,0.0,0.0,184046,-0.2599999905,0.5,0.5847260952000001,0.4660887122,90.0,90.0,90.0,96.12958526610001,95.55662536620001,96.00226593020001,32.533000946,15.524583816500002,16.4799995422,0,2,25,1,31,226
94,1530902448217,15217, AUTO,0,39.9586186,-88.445067899,0,-17901.694011113,9426.2724917775,20231.7883924472,-17901.686146346798,9423.8560979999,0.5092212558,0.0,-17901.683784098303,9423.8951694116,0.545528928,3.0321229377999996,0.0,0.0,1530,1750,40.043369374,-88.2349024492,40.0433683333,-88.234982,0.0,0.0,0.0,0.0,0.0,0.0,0.0,0.0,0.0,0.0,0.0,184047,0.059999942800000004,0.5,0.5639415979,0.45450088380000003,90.0,90.0,90.0,96.51155853270001,95.81127929690001,95.74761199950001,31.995998382600003,15.524583816500002,16.4799995422,0,2,25,1,35,228
95,1530902448268,15268, AUTO,0,39.9586186,-88.445067899,0,-17901.8259665204,9426.2728685668,20231.9053261986,-17901.7346455926,9423.8647526715,0.48190706969999997,0.0,-17901.815739505702,9423.8955462009,0.5426194225,3.0462466167,0.0,0.0,1500,1750,40.0433694518,-88.23490187969999,40.0433683333,-88.234982,0.0,0.0,0.0,0.0,0.0,0.0,0.0,0.0,0.0,0.0,0.0,184047,0.0,0.5,0.5374551415,0.42635899780000003,90.0,90.0,90.0,96.3842315674,96.12958526610001,95.42930603030001,33.0719985962,15.524583816500002,16.4799995422,0,2,25,1,28,230
96,1530902448318,15318, AUTO,0,39.9586186,-88.445067899,0,-17901.8259665204,9426.2728685668,20231.9053261986,-17901.7346455926,9423.8647526715,0.48494195939999996,0.0,-17901.815739505702,9423.8955462009,0.5426194225,3.0462466167,0.0,0.0,1520,1750,40.0433694518,-88.23490187969999,40.0433683333,-88.234982,0.0,0.0,0.0,0.0,0.0,0.0,0.0,0.0,0.0,0.0,0.0,184047,0.0399999619,0.5,0.5354318619,0.4344520867,90.0,90.0,90.0,96.2569046021,96.2569046021,95.3019790649,33.0719985962,15.524583816500002,16.4799995422,0,2,25,1,31,233
97,1530902448369,15369, AUTO,0,39.9586186,-88.445067899,0,-17901.8259665204,9426.2728685668,20231.9053261986,-17901.7346455926,9423.8647526715,0.48724114890000003,0.0,-17901.815739505702,9423.8955462009,0.5426194225,3.0462466167,0.0,0.0,1520,1750,40.0433694518,-88.23490187969999,40.0433683333,-88.234982,0.0,0.0,0.0,0.0,0.0,0.0,0.0,0.0,0.0,0.0,0.0,184047,0.0399999619,0.5,0.5192456840999999,0.4552366138,90.0,90.0,90.0,96.00226593020001,96.44789123540001,95.174659729,33.0719985962,15.524583816500002,16.4799995422,0,2,25,1,35,235
98,1530902448419,15419, AUTO,0,39.9586186,-88.445067899,0,-17901.8935960688,9426.2719772862,20231.9647517175,-17901.7839609211,9423.8675696091,0.4907358885,0.0,-17901.8833690541,9423.894654920301,0.5398220267,3.0580538862999997,0.0,0.0,1530,1750,40.043369477199995,-88.2349013007,40.0433683333,-88.234982,0.0,0.0,0.0,0.0,0.0,0.0,0.0,0.0,0.0,0.0,0.0,184047,0.059999942800000004,0.5,0.5109686255,0.4705031514,90.0,90.0,90.0,95.74761199950001,96.32057189940001,95.4929656982,31.995998382600003,15.524583816500002,16.4799995422,0,2,25,1,28,237
99,1530902448469,15469, AUTO,0,39.9586186,-88.445067899,0,-17901.8935960688,9426.2719772862,20231.9647517175,-17901.8197983784,9423.862917955401,0.49717354770000005,0.0,-17901.8833690541,9423.894654920301,0.5398220267,3.0580538862999997,0.0,0.0,1530,1750,40.0433694353,-88.23490088,40.0433683333,-88.234982,0.0,0.0,0.0,0.0,0.0,0.0,0.0,0.0,0.0,0.0,0.0,184047,0.059999942800000004,0.5,0.5048987865,0.4894483387,90.0,90.0,90.0,95.74761199950001,95.93859863280001,95.36563873290001,31.995998382600003,15.524583816500002,16.4799995422,0,2,25,1,32,240
100,1530902448520,15520, AUTO,0,39.9586186,-88.445067899,0,-17901.9577784986,9426.2677130918,20232.019555695,-17901.8197983784,9423.862917955401,0.5005763769,0.0,-17901.9475514839,9423.8903907259,0.5369390445000001,3.0742921120999998,0.0,0.0,1500,1750,40.0433694353,-88.23490088,40.0433683333,-88.234982,0.0,0.0,0.0,0.0,0.0,0.0,0.0,0.0,0.0,0.0,0.0,184047,0.0,0.5,0.5047148466,0.4964378476,90.0,90.0,90.0,95.6839523315,95.74761199950001,95.23831939700001,33.0719985962,15.524583816500002,16.4799995422,0,2,25,1,48,242
101,1530902448570,15570, AUTO,0,39.9586186,-88.445067899,0,-17901.9577784986,9426.2677130918,20232.019555695,-17901.8197983784,9423.862917955401,0.5130838752,0.0,-17901.9475514839,9423.8903907259,0.5369390445000001,3.0742921120999998,0.0,0.0,1500,1750,40.0433694353,-88.23490088,40.0433685,-88.234981,0.0,0.0,0.0,0.0,0.0,0.0,0.0,0.0,0.0,0.0,0.0,184047,0.0,0.5,0.514647305,0.5115204453,90.0,90.0,90.0,95.62029266360001,95.74761199950001,95.3019790649,33.0719985962,15.524583816500002,16.4799995422,0,2,25,1,44,244
102,1530902448621,15621, AUTO,0,39.9586186,-88.445067899,0,-17902.0150712103,9426.2635086796,20232.0682913267,-17901.8486295097,9423.8645858791,0.520717144,0.0,-17902.004844195602,9423.8861863137,0.5349828585999999,3.0877568894,0.0,0.0,1500,1750,40.043369450300005,-88.2349005415,40.0433685,-88.234981,0.0,0.0,0.0,0.0,0.0,0.0,0.0,0.0,0.0,0.0,0.0,184047,0.0,0.5,0.5247637033,0.5166705846999999,90.0,90.0,90.0,95.8749313354,95.74761199950001,95.62029266360001,33.0719985962,15.524583816500002,16.4799995422,0,2,25,1,51,247
103,1530902448672,15672, AUTO,0,39.9586186,-88.445067899,0,-17902.0150712103,9426.2635086796,20232.0682913267,-17901.894907196398,9423.8790968174,0.5280745029,0.0,-17902.004844195602,9423.8861863137,0.5349828585999999,3.0877568894,0.0,0.0,1540,1750,40.0433695808,-88.23489999799999,40.0433685,-88.234981,0.0,0.0,0.0,0.0,0.0,0.0,0.0,0.0,0.0,0.0,0.0,184047,0.0800000429,0.5,0.5354318619,0.520717144,90.0,90.0,90.0,96.12958526610001,95.93859863280001,95.42930603030001,32.533000946,15.524583816500002,16.4799995422,0,2,25,1,41,249
104,1530902448722,15722, AUTO,0,39.9586186,-88.445067899,0,-17902.068147498,9426.2635717005,20232.115284389598,-17901.894907196398,9423.8790968174,0.5315692425,0.0,-17902.0579204833,9423.8862493346,0.5339514349,3.0932432832999996,0.0,0.0,1500,1750,40.0433695808,-88.23489999799999,40.0433685,-88.234981,0.0,0.0,0.0,0.0,0.0,0.0,0.0,0.0,0.0,0.0,0.0,184047,0.0,0.5,0.5413177609000001,0.521820724,90.0,90.0,90.0,96.3842315674,96.0659179688,95.42930603030001,32.533000946,15.524583816500002,16.4799995422,0,2,25,1,38,251
105,1530902448772,15772, AUTO,0,39.9586186,-88.445067899,0,-17902.068147498,9426.2635717005,20232.115284389598,-17901.960771692902,9423.8852681356,0.5383747816,0.0,-17902.0579204833,9423.8862493346,0.5339514349,3.0932432832999996,0.0,0.0,1510,1750,40.0433696363,-88.23489922469999,40.0433685,-88.234981,0.0,0.0,0.0,0.0,0.0,0.0,0.0,0.0,0.0,0.0,0.0,184047,0.019999980900000002,0.5,0.5523537397,0.5243958235,90.0,90.0,90.0,96.76620483399999,96.2569046021,95.3019790649,32.533000946,15.524583816500002,16.4799995422,0,2,25,1,34,254
106,1530902448823,15823, AUTO,0,39.9586186,-88.445067899,0,-17902.1277755033,9426.2640784657,20232.1682814132,-17901.960771692902,9423.8852681356,0.5425133109,0.0,-17902.1175484886,9423.8867560998,0.5337614837,3.1000834153,0.0,0.0,1550,1750,40.0433696363,-88.23489922469999,40.0433685,-88.234981,0.0,0.0,0.0,0.0,0.0,0.0,0.0,0.0,0.0,0.0,0.0,184047,0.1000000238,0.5,0.5613665581,0.5236600637,90.0,90.0,90.0,96.3842315674,96.12958526610001,95.36563873290001,32.533000946,15.524583816500002,16.4799995422,0,2,25,1,32,256
107,1530902448873,15873, AUTO,0,39.9586186,-88.445067899,0,-17902.188033431798,9426.2647343688,20232.2219053359,-17902.02517681,9423.8890116983,0.5537332892,0.0,-17902.1778064171,9423.8874120029,0.5337500259,3.1059425126,0.0,0.0,1560,1750,40.04336967,-88.2348984685,40.0433685,-88.234981,0.0,0.0,0.0,0.0,0.0,0.0,0.0,0.0,0.0,0.0,0.0,184047,0.1200000048,0.5,0.575897336,0.5315692425,90.0,90.0,90.0,96.00226593020001,95.93859863280001,95.6839523315,32.533000946,15.524583816500002,16.4799995422,0,2,25,1,35,258
108,1530902448924,15924, AUTO,0,39.9586186,-88.445067899,0,-17902.188033431798,9426.2647343688,20232.2219053359,-17902.02517681,9423.8890116983,0.5612745285,0.0,-17902.1778064171,9423.8874120029,0.5337500259,3.1059425126,0.0,0.0,1850,1750,40.04336967,-88.2348984685,40.0433685,-88.234981,0.0,0.0,0.0,0.0,0.0,0.0,0.0,0.0,0.0,0.0,0.0,184047,0.7000000476999999,0.5,0.5893244743,0.5332246423,90.0,90.0,90.0,96.12958526610001,95.42930603030001,96.2569046021,32.533000946,15.524583816500002,16.4799995422,0,2,25,1,33,261
109,1530902448974,15974, AUTO,0,39.9586186,-88.445067899,0,-17902.2500019996,9426.2630031201,20232.275930752,-17902.093112603998,9423.8843229794,0.5722186565,0.0,-17902.2397749849,9423.8856807542,0.5346502743,3.1153698065,0.0,0.0,1540,1750,40.043369627800004,-88.234897671,40.0433685,-88.234981,0.0,0.0,0.0,0.0,0.0,0.0,0.0,0.0,0.0,0.0,0.0,184047,0.0800000429,0.5,0.5979693532,0.5464679003,90.0,90.0,90.0,95.42930603030001,94.729019165,96.76620483399999,32.533000946,15.524583816500002,16.4799995422,0,2,25,1,31,263
110,1530902449025,16025, AUTO,0,39.9586186,-88.445067899,0,-17902.2500019996,9426.2630031201,20232.275930752,-17902.093112603998,9423.8843229794,0.5602629185,0.0,-17902.2397749849,9423.8856807542,0.5346502743,3.1153698065,0.0,0.0,1540,1750,40.043369627800004,-88.234897671,40.0433685,-88.234981,0.0,0.0,0.0,0.0,0.0,0.0,0.0,0.0,0.0,0.0,0.0,184047,0.0800000429,0.5,0.6191217899,0.5014040470000001,90.0,90.0,90.0,95.3019790649,94.2197265625,97.08451080319999,32.533000946,15.5141048431,7.9200000763,0,2,25,1,30,265
111,1530902449075,16075, AUTO,0,39.9586186,-88.445067899,0,-17902.2500019996,9426.2630031201,20232.275930752,-17902.093112603998,9423.8843229794,0.5507903099,0.0,-17902.2397749849,9423.8856807542,0.5346502743,3.1153698065,0.0,0.0,1470,1750,40.043369627800004,-88.234897671,40.0433685,-88.234981,0.0,0.0,0.0,0.0,0.0,0.0,0.0,0.0,0.0,0.0,0.0,184047,-0.0600000024,0.5,0.6145234108,0.487057209,90.0,90.0,90.0,95.23831939700001,94.28338623049999,96.8935317993,32.533000946,15.5141048431,7.9200000763,0,2,25,1,29,268
