,(0)linux time (ms),    (1)uptime  (ms),      (2)drive mode,(3)mpc step counter,(4)mpc origin latitude  (deg),(5)mpc origin longitude  (deg),(6)closest trajectory point index to robot,(7)mpc error x (W;E)  (m),(8)mpc error y (W;E)  (m),(9)abs mpc error (m),(10)input [x] for mhe (m),(11)input [y] for mhe (m),(12)input [speed] for mhe (m/s),(13)input [vyaw] for mhe (rad/s),(14)mhe output x  (m),(15)mhe output y  (m),(16)mhe output speed  (m/s),(17)mhe output yaw  (rad),(18)mpc reference heading (rad),(19)mpc turn rate command (rad/s),(20)turn rate command as PWM,(21)throttle command as PWM,(22)primary gps latitude (deg),(23)primary gps longitude (deg),(24)secondary gps latitude  (deg),(25)secondary gps longitude (deg),(26)accelerometer x (m/s^2),(27)accelerometer y (m/s^2),(28)accelerometer z (m/s^2),(29)gyro yaw rate (rad/s),(30)gyro pitch rate   (rad/s),(31)gyro roll rate (rad/s),      (32)yaw (rad),  (33)pitch   (rad),     (34)roll (rad),(35)sonar1 measurement (m),(36)ultrasonic sensor measurement (m),(37)primary gps time (s),(38)normalized turn rate command,(39)normalized throttle command,(40)speed calculation from encoder left (m/s),(41)speed calculation from encoder right (m/s),(42)front gimbal target angle (degrees from straight down),(43)left gimbal target angle  (degrees from straight down),(44)right gimbal target angle  (degrees from straight down),(45)front gimbal measured angle  (degrees from straight down),(46)left gimbal measured angle    (degrees from straight down),(47)right gimbal measured angle  (degrees from straight down),(48)internal temperature (C),(49)battery voltage (V),(50)primary gps type,(51)secondary gps type,    (52)MPC R value, (53)MPC Q[0] value,Unnamed: 54,weed_num,start
0,1530905128682,366682, RC,0,39.9586186,-88.445067899,0,-17844.0683895278,9453.7864104086,20193.6835219276,-17844.0437896359,9451.6290139056,0.0804711208,0.0,-17844.0581625131,9451.4090880427,0.5034545383,4.6800371730000005,0.0,0.0,1500,1500,40.0436191418,-88.23557878620001,40.0437483333,-88.2355636667,0.0,0.0,0.0,0.0,0.0,0.0,0.0,0.0,0.0,0.0,0.0,192523,0.0,0.0,0.0838738978,0.0770683438,90.0,90.0,90.0,96.95719146729999,97.46648406979999,96.8298721313,49.2119979858,16.0565471649,5.2199997902,0,2,25,1,80,9724
1,1530905128751,366751, RC,0,39.9586186,-88.445067899,0,-17844.0675657275,9453.7656024061,20193.6730526045,-17844.0418697354,9451.6318864415,0.0590428114,0.0,-17844.0573387128,9451.3882800402,0.47110482299999995,4.6807553639999995,0.0,0.0,1500,1500,40.0436191677,-88.23557880870001,40.0437483333,-88.2355636667,0.0,0.0,0.0,0.0,0.0,0.0,0.0,0.0,0.0,0.0,0.0,192523,0.0,0.0,0.062169685999999995,0.055915933099999995,90.0,90.0,90.0,94.729019165,97.27549743649999,97.5938110352,49.2119979858,16.0565471649,5.2199997902,0,2,25,1,86,9727
2,1530905128801,366801, RC,0,39.9586186,-88.445067899,0,-17844.0675657275,9453.7656024061,20193.6730526045,-17844.0418697354,9451.6318864415,0.049478244000000005,0.0,-17844.0573387128,9451.3882800402,0.47110482299999995,4.6807553639999995,0.0,0.0,1500,1500,40.0436191677,-88.23557880870001,40.0437483333,-88.2355636667,0.0,0.0,0.0,0.0,0.0,0.0,0.0,0.0,0.0,0.0,0.0,192523,0.0,0.0,0.0518693849,0.04708710309999999,90.0,90.0,90.0,95.4929656982,96.8298721313,97.53015136719999,49.2119979858,16.0699958801,2.9600000381,0,2,25,1,93,9728
3,1530905128852,366852, RC,0,39.9586186,-88.445067899,0,-17844.0634423081,9453.7595560511,20193.6665783296,-17844.028751184498,9451.6569052995,0.037246637,0.0,-17844.0532152934,9451.3822336852,0.43638571719999997,4.6863496176999995,0.0,0.0,1500,1500,40.0436193927,-88.2355789623,40.0437483333,-88.2355636667,0.0,0.0,0.0,0.0,0.0,0.0,0.0,0.0,0.0,0.0,0.0,192523,0.0,0.0,0.0389940068,0.0354992636,90.0,90.0,90.0,96.8298721313,96.44789123540001,97.53015136719999,49.2119979858,16.0699958801,2.9600000381,0,2,25,1,108,9730
4,1530905128905,366905, RC,0,39.9586186,-88.445067899,0,-17844.0634423081,9453.7595560511,20193.6665783296,-17844.0234250896,9451.6589624058,0.028049932799999996,0.0,-17844.0532152934,9451.3822336852,0.43638571719999997,4.6863496176999995,0.0,0.0,1500,1500,40.0436194112,-88.23557902479999,40.0437483333,-88.2355636667,0.0,0.0,0.0,0.0,0.0,0.0,0.0,0.0,0.0,0.0,0.0,192523,0.0,0.0,0.029429437599999997,0.026670428,90.0,90.0,90.0,96.5752182007,96.2569046021,97.53015136719999,49.2119979858,16.0699958801,2.9600000381,0,2,25,1,102,9731
5,1530905128955,366955, RC,0,39.9586186,-88.445067899,0,-17844.056067555,9453.7605798513,20193.660540951798,-17844.0234250896,9451.6589624058,0.0228078142,0.0,-17844.0458405403,9451.3832574854,0.4014588906,4.7006573105000005,0.0,0.0,1500,1500,40.0436194112,-88.23557902479999,40.0437483333,-88.2355636667,0.0,0.0,0.0,0.0,0.0,0.0,0.0,0.0,0.0,0.0,0.0,192523,0.0,0.0,0.024279287099999998,0.021336343100000002,90.0,90.0,90.0,96.76620483399999,96.2569046021,97.53015136719999,49.75,16.0699958801,2.9600000381,0,2,25,1,99,9733
6,1530905129006,367006, RC,0,39.9586186,-88.445067899,0,-17844.056067555,9453.7605798513,20193.660540951798,-17844.015114923503,9451.6634102034,0.0171058606,0.0,-17844.0458405403,9451.3832574854,0.4014588906,4.7006573105000005,0.0,0.0,1500,1500,40.0436194512,-88.2355791223,40.0437483333,-88.2355636667,0.0,0.0,0.0,0.0,0.0,0.0,0.0,0.0,0.0,0.0,0.0,192523,0.0,0.0,0.0182094648,0.016002256399999998,90.0,90.0,90.0,96.70254516600001,96.2569046021,97.53015136719999,49.75,16.0699958801,2.9600000381,0,2,25,1,98,9734
7,1530905129056,367056, RC,0,39.9586186,-88.445067899,0,-17844.045438949,9453.7695140679,20193.6553316233,-17844.015114923503,9451.6634102034,0.0141629167,0.0,-17844.0352119343,9451.392191702,0.36764205,4.724666936499999,0.0,0.0,1500,1500,40.0436194512,-88.2355791223,40.0437483333,-88.2355636667,0.0,0.0,0.0,0.0,0.0,0.0,0.0,0.0,0.0,0.0,0.0,192523,0.0,0.0,0.0150825866,0.013243246799999999,90.0,90.0,90.0,96.6388778687,96.2569046021,97.53015136719999,49.2119979858,16.0699958801,2.9600000381,0,2,25,1,110,9736
8,1530905129107,367107, RC,0,39.9586186,-88.445067899,0,-17844.045438949,9453.7695140679,20193.6553316233,-17844.015114923503,9451.6634102034,0.0106681716,0.0,-17844.0352119343,9451.392191702,0.36764205,4.724666936499999,0.0,0.0,1500,1500,40.0436194512,-88.2355791223,40.0437483333,-88.2355636667,0.0,0.0,0.0,0.0,0.0,0.0,0.0,0.0,0.0,0.0,0.0,192523,0.0,0.0,0.011219973700000002,0.0101163695,90.0,90.0,90.0,96.70254516600001,96.2569046021,97.72113800049999,49.2119979858,16.0699958801,2.9600000381,0,2,25,1,102,9738
9,1530905129157,367157, RC,0,39.9586186,-88.445067899,0,-17844.045438949,9453.7695140679,20193.6553316233,-17844.0107821663,9451.6658194264,0.0088288318,0.0,-17844.0352119343,9451.392191702,0.36764205,4.724666936499999,0.0,0.0,1500,1500,40.0436194728,-88.2355791732,40.0437483333,-88.2355636667,0.0,0.0,0.0,0.0,0.0,0.0,0.0,0.0,0.0,0.0,0.0,192524,0.0,0.0,0.009380633900000001,0.008277029699999999,90.0,90.0,90.0,96.70254516600001,96.2569046021,97.7847976685,49.2119979858,16.0699958801,2.9600000381,0,2,25,1,93,9739
10,1530905129208,367208, RC,0,39.9586186,-88.445067899,0,-17844.033126729,9453.784565545,20193.6514984175,-17844.0107821663,9451.6658194264,0.006621623399999999,0.0,-17844.0228997143,9451.407243179101,0.3333818488,4.7584673481,0.0,0.0,1500,1500,40.0436194728,-88.2355791732,40.0437483333,-88.2355636667,0.0,0.0,0.0,0.0,0.0,0.0,0.0,0.0,0.0,0.0,0.0,192524,0.0,0.0,0.006989491600000001,0.0062537556999999995,90.0,90.0,90.0,96.70254516600001,96.2569046021,97.4028244019,49.2119979858,16.0699958801,2.9600000381,0,2,25,1,103,9741
11,1530905129258,367258, RC,0,39.9586186,-88.445067899,0,-17844.0232140997,9453.8011386905,20193.6504979965,-17844.014502622802,9451.6649854649,0.0055180201,0.0,-17844.012987085,9451.4238163246,0.29818679239999996,4.7919728487999995,0.0,0.0,1500,1500,40.043619465300004,-88.23557912950001,40.0437483333,-88.2355636667,0.0,0.0,0.0,0.0,0.0,0.0,0.0,0.0,0.0,0.0,0.0,192524,0.0,0.0,0.0058858879,0.0051501519,90.0,90.0,90.0,96.70254516600001,96.2569046021,97.08451080319999,49.2119979858,16.0699958801,2.9600000381,0,2,25,1,102,9742
12,1530905129309,367309, RC,0,39.9586186,-88.445067899,0,-17844.0232140997,9453.8011386905,20193.6504979965,-17844.0149453501,9451.6627430336,0.0041385149,0.0,-17844.012987085,9451.4238163246,0.29818679239999996,4.7919728487999995,0.0,0.0,1500,1500,40.0436194452,-88.2355791243,40.0437483333,-88.2355636667,0.0,0.0,0.0,0.0,0.0,0.0,0.0,0.0,0.0,0.0,0.0,192524,0.0,0.0,0.0044144159,0.0038626138000000003,90.0,90.0,90.0,96.76620483399999,96.0659179688,96.70254516600001,49.2119979858,16.0699958801,2.9600000381,0,2,25,1,95,9744
13,1530905129359,367359, RC,0,39.9586186,-88.445067899,0,-17844.0159639096,9453.8197901408,20193.6528232194,-17844.0149453501,9451.6627430336,0.0033108116999999997,0.0,-17844.0057368949,9451.4424677749,0.2624475296,4.8222059409,0.0,0.0,1500,1500,40.0436194452,-88.2355791243,40.0437483333,-88.2355636667,0.0,0.0,0.0,0.0,0.0,0.0,0.0,0.0,0.0,0.0,0.0,192524,0.0,0.0,0.0034947458000000003,0.0031268778000000004,90.0,90.0,90.0,96.76620483399999,95.81127929690001,96.8298721313,49.2119979858,16.0699958801,2.9600000381,0,2,25,1,90,9745
14,1530905129409,367409, RC,0,39.9586186,-88.445067899,0,-17844.0112030053,9453.839356283801,20193.657776326698,-17844.0160100194,9451.662798630601,0.0027590101,0.0,-17844.0009759906,9451.4620339179,0.225980972,4.8505770058,0.0,0.0,1500,1500,40.0436194457,-88.2355791118,40.0437521667,-88.2355628333,0.0,0.0,0.0,0.0,0.0,0.0,0.0,0.0,0.0,0.0,0.0,192524,0.0,0.0,0.0029429439000000003,0.002575076,90.0,90.0,90.0,96.76620483399999,95.81127929690001,96.8935317993,49.2119979858,16.0699958801,2.9600000381,0,2,25,1,97,9747
15,1530905129461,367461, RC,0,39.9586186,-88.445067899,0,-17844.0112030053,9453.839356283801,20193.657776326698,-17844.0160100194,9451.662798630601,0.0021152408,0.0,-17844.0009759906,9451.4620339179,0.225980972,4.8505770058,0.0,0.0,1500,1500,40.0436194457,-88.2355791118,40.0437521667,-88.2355628333,0.0,0.0,0.0,0.0,0.0,0.0,0.0,0.0,0.0,0.0,0.0,192524,0.0,0.0,0.002207208,0.0020232738,90.0,90.0,90.0,96.8298721313,95.81127929690001,96.95719146729999,49.2119979858,16.0699958801,2.9600000381,0,2,25,1,94,9749
16,1530905129512,367512, RC,0,39.9586186,-88.445067899,0,-17844.0112030053,9453.839356283801,20193.657776326698,-17844.0160100194,9451.662798630601,0.0015634389000000002,0.0,-17844.0009759906,9451.4620339179,0.225980972,4.8505770058,0.0,0.0,1500,1500,40.0436194457,-88.2355791118,40.0437521667,-88.2355628333,0.0,0.0,0.0,0.0,0.0,0.0,0.0,0.0,0.0,0.0,0.0,192524,0.0,0.0,0.0016554058999999999,0.0014714720000000001,90.0,90.0,90.0,96.8298721313,95.81127929690001,96.5752182007,49.2119979858,16.0699958801,2.9600000381,0,2,25,1,98,9750
17,1530905129566,367566, RC,0,39.9586186,-88.445067899,0,-17844.008300061,9453.857951640699,20193.6639167449,-17844.015275286998,9451.6598334332,0.0011955709,0.0,-17843.9980730463,9451.4806292748,0.1890078065,4.879317377,0.0,0.0,1500,1500,40.043619419,-88.23557912049999,40.0437521667,-88.2355628333,0.0,0.0,0.0,0.0,0.0,0.0,0.0,0.0,0.0,0.0,0.0,192524,0.0,0.0,0.001287538,0.001103604,90.0,90.0,90.0,96.8298721313,95.81127929690001,96.51155853270001,49.2119979858,16.0699958801,2.9600000381,0,2,25,1,92,9752
18,1530905129617,367617, RC,0,39.9586186,-88.445067899,0,-17844.008300061,9453.857951640699,20193.6639167449,-17844.0116248327,9451.661501356899,0.0009196699,0.0,-17843.9980730463,9451.4806292748,0.1890078065,4.879317377,0.0,0.0,1500,1500,40.043619434,-88.2355791633,40.0437521667,-88.2355628333,0.0,0.0,0.0,0.0,0.0,0.0,0.0,0.0,0.0,0.0,0.0,192524,0.0,0.0,0.0009196699,0.0009196699,90.0,90.0,90.0,96.8935317993,95.81127929690001,96.51155853270001,49.2119979858,16.0699958801,2.9600000381,0,2,25,1,94,9753
19,1530905129668,367668, RC,0,39.9586186,-88.445067899,0,-17844.0051547118,9453.8639608472,20193.6639506452,-17844.0116248327,9451.661501356899,0.0008277028999999999,0.0,-17843.9949276971,9451.4866384813,0.1503377564,4.9081920529000005,0.0,0.0,1500,1500,40.043619434,-88.2355791633,40.0437521667,-88.2355628333,0.0,0.0,0.0,0.0,0.0,0.0,0.0,0.0,0.0,0.0,0.0,192524,0.0,0.0,0.0009196699,0.0007357360000000001,90.0,90.0,90.0,96.8935317993,95.81127929690001,96.5752182007,49.2119979858,16.0699958801,2.9600000381,0,2,25,1,91,9755
20,1530905129718,367718, RC,0,39.9586186,-88.445067899,0,-17844.0051547118,9453.8639608472,20193.6639506452,-17844.0077355008,9451.661075109201,0.000551802,0.0,-17843.9949276971,9451.4866384813,0.1503377564,4.9081920529000005,0.0,0.0,1500,1500,40.0436194302,-88.235579209,40.0437521667,-88.2355628333,0.0,0.0,0.0,0.0,0.0,0.0,0.0,0.0,0.0,0.0,0.0,192524,0.0,0.0,0.000551802,0.000551802,90.0,90.0,90.0,96.8935317993,95.81127929690001,96.6388778687,49.2119979858,16.0699958801,2.9600000381,0,2,25,1,99,9757
21,1530905129769,367769, RC,0,39.9586186,-88.445067899,0,-17844.0001630603,9453.866591928001,20193.6607715706,-17844.0077355008,9451.661075109201,0.000459835,0.0,-17843.9899360456,9451.4892695621,0.11247206189999999,4.9303943826,0.0,0.0,1500,1500,40.0436194302,-88.235579209,40.0437521667,-88.2355628333,0.0,0.0,0.0,0.0,0.0,0.0,0.0,0.0,0.0,0.0,0.0,192524,0.0,0.0,0.000551802,0.00036786800000000004,90.0,90.0,90.0,96.8935317993,95.81127929690001,96.70254516600001,49.2119979858,16.0699958801,2.9600000381,0,2,25,1,96,9758
22,1530905129819,367819, RC,0,39.9586186,-88.445067899,0,-17844.0001630603,9453.866591928001,20193.6607715706,-17844.0083746669,9451.6607971227,0.00036786800000000004,0.0,-17843.9899360456,9451.4892695621,0.11247206189999999,4.9303943826,0.0,0.0,1500,1500,40.0436194277,-88.2355792015,40.0437521667,-88.2355628333,0.0,0.0,0.0,0.0,0.0,0.0,0.0,0.0,0.0,0.0,0.0,192524,0.0,0.0,0.00036786800000000004,0.00036786800000000004,90.0,90.0,90.0,96.8935317993,95.81127929690001,96.70254516600001,49.2119979858,16.088911056500002,2.8000001907,0,2,25,1,97,9760
23,1530905129870,367870, RC,0,39.9586186,-88.445067899,0,-17843.9958654383,9453.8729644621,20193.6599573719,-17844.0083746669,9451.6607971227,0.000275901,0.0,-17843.9856384236,9451.4956420962,0.07516599730000001,4.9454452328,0.0,0.0,1500,1500,40.0436194277,-88.2355792015,40.0437521667,-88.2355628333,0.0,0.0,0.0,0.0,0.0,0.0,0.0,0.0,0.0,0.0,0.0,192524,0.0,0.0,0.00036786800000000004,0.00018393400000000002,90.0,90.0,90.0,96.8935317993,95.81127929690001,96.70254516600001,49.2119979858,16.088911056500002,2.8000001907,0,2,25,1,99,9761
24,1530905129920,367920, RC,0,39.9586186,-88.445067899,0,-17843.9958654383,9453.8729644621,20193.6599573719,-17844.0076199466,9451.6627615662,0.00018393400000000002,0.0,-17843.9856384236,9451.4956420962,0.07516599730000001,4.9454452328,0.0,0.0,1500,1500,40.0436194453,-88.2355792103,40.0437521667,-88.2355628333,0.0,0.0,0.0,0.0,0.0,0.0,0.0,0.0,0.0,0.0,0.0,192524,0.0,0.0,0.00018393400000000002,0.00018393400000000002,90.0,90.0,90.0,96.76620483399999,95.81127929690001,96.76620483399999,49.2119979858,16.088911056500002,2.8000001907,0,2,25,1,93,9763
25,1530905129970,367970, RC,0,39.9586186,-88.445067899,0,-17843.9932902674,9453.880545457,20193.6612309625,-17844.0076199466,9451.6627615662,0.00018393400000000002,0.0,-17843.9830632527,9451.5032230911,0.0428864854,4.9544711481,0.0,0.0,1500,1500,40.0436194453,-88.2355792103,40.0437521667,-88.2355628333,0.0,0.0,0.0,0.0,0.0,0.0,0.0,0.0,0.0,0.0,0.0,192524,0.0,0.0,0.00018393400000000002,0.00018393400000000002,90.0,90.0,90.0,96.6388778687,95.81127929690001,96.76620483399999,49.2119979858,16.088911056500002,2.8000001907,0,2,25,1,94,9764
26,1530905130021,368021, RC,0,39.9586186,-88.445067899,0,-17843.9932902674,9453.880545457,20193.6612309625,-17844.0076199466,9451.6627615662,0.00018393400000000002,0.0,-17843.9830632527,9451.5032230911,0.0428864854,4.9544711481,0.0,0.0,1500,1500,40.0436194453,-88.2355792103,40.0437521667,-88.2355628333,0.0,0.0,0.0,0.0,0.0,0.0,0.0,0.0,0.0,0.0,0.0,192524,0.0,0.0,0.00018393400000000002,0.00018393400000000002,90.0,90.0,90.0,96.6388778687,95.81127929690001,96.8298721313,49.2119979858,16.088911056500002,2.8000001907,0,2,25,1,97,9766
27,1530905130071,368071, RC,0,39.9586186,-88.445067899,0,-17843.992920110803,9453.8885126442,20193.6646338022,-17844.0119955326,9451.6601484855,0.00018393400000000002,0.0,-17843.982693096103,9451.5111902783,0.027512717000000003,4.9593094686,0.0,0.0,1500,1500,40.043619421799995,-88.235579159,40.0437521667,-88.2355628333,0.0,0.0,0.0,0.0,0.0,0.0,0.0,0.0,0.0,0.0,0.0,192524,0.0,0.0,0.00018393400000000002,0.00018393400000000002,90.0,90.0,90.0,96.6388778687,95.81127929690001,96.8298721313,49.2119979858,16.088911056500002,2.8000001907,0,2,25,1,87,9768
28,1530905130122,368122, RC,0,39.9586186,-88.445067899,0,-17843.992920110803,9453.8885126442,20193.6646338022,-17844.0119955326,9451.6601484855,0.0,0.0,-17843.982693096103,9451.5111902783,0.027512717000000003,4.9593094686,0.0,0.0,1500,1500,40.043619421799995,-88.235579159,40.0437521667,-88.2355628333,0.0,0.0,0.0,0.0,0.0,0.0,0.0,0.0,0.0,0.0,0.0,192524,0.0,0.0,0.0,0.0,90.0,90.0,90.0,96.6388778687,95.81127929690001,96.8935317993,49.2119979858,16.088911056500002,2.8000001907,0,2,25,1,86,9769
29,1530905130172,368172, RC,0,39.9586186,-88.445067899,0,-17843.992920110803,9453.8885126442,20193.6646338022,-17844.0119955326,9451.6601484855,0.0,0.0,-17843.982693096103,9451.5111902783,0.027512717000000003,4.9593094686,0.0,0.0,1500,1500,40.043619421799995,-88.235579159,40.0437521667,-88.2355628333,0.0,0.0,0.0,0.0,0.0,0.0,0.0,0.0,0.0,0.0,0.0,192524,0.0,0.0,0.0,0.0,90.0,90.0,90.0,96.6388778687,95.81127929690001,96.8935317993,49.2119979858,16.088911056500002,2.8000001907,0,2,25,1,87,9771
30,1530905130223,368223, RC,0,39.9586186,-88.445067899,0,-17843.9919694843,9453.8941581638,20193.6664368011,-17844.0107488546,9451.6579245867,0.0,0.0,-17843.9817424696,9451.5168357979,0.0173707013,4.9620441647,0.0,0.0,1500,1500,40.0436194018,-88.2355791737,40.0437521667,-88.2355628333,0.0,0.0,0.0,0.0,0.0,0.0,0.0,0.0,0.0,0.0,0.0,192525,0.0,0.0,0.0,0.0,90.0,90.0,90.0,96.70254516600001,95.81127929690001,96.8935317993,49.2119979858,16.088911056500002,2.8000001907,0,2,25,1,85,9772
31,1530905130273,368273, RC,0,39.9586186,-88.445067899,0,-17843.990114353797,9453.8978272415,20193.6665152487,-17844.0093294683,9451.6577021966,0.0,0.0,-17843.979887339097,9451.5205048756,0.0110672409,4.9633717475,0.0,0.0,1500,1500,40.0436193998,-88.2355791903,40.0437521667,-88.2355628333,0.0,0.0,0.0,0.0,0.0,0.0,0.0,0.0,0.0,0.0,0.0,192525,0.0,0.0,0.0,0.0,90.0,90.0,90.0,96.70254516600001,95.81127929690001,96.95719146729999,49.2119979858,16.088911056500002,2.8000001907,0,2,25,1,85,9774
32,1530905130324,368324, RC,0,39.9586186,-88.445067899,0,-17843.9881361933,9453.9006899887,20193.6661074896,-17844.0069980222,9451.6604450052,0.0,0.0,-17843.9779091786,9451.5233676228,0.0073891153000000005,4.963956443,0.0,0.0,1500,1500,40.0436194245,-88.2355792177,40.0437521667,-88.2355628333,0.0,0.0,0.0,0.0,0.0,0.0,0.0,0.0,0.0,0.0,0.0,192525,0.0,0.0,0.0,0.0,90.0,90.0,90.0,96.70254516600001,95.81127929690001,96.95719146729999,49.2119979858,16.088911056500002,2.8000001907,0,2,25,1,87,9775
33,1530905130374,368374, RC,0,39.9586186,-88.445067899,0,-17843.9881361933,9453.9006899887,20193.6661074896,-17844.0069980222,9451.6604450052,0.0,0.0,-17843.9779091786,9451.5233676228,0.0073891153000000005,4.963956443,0.0,0.0,1500,1500,40.0436194245,-88.2355792177,40.0437521667,-88.2355628333,0.0,0.0,0.0,0.0,0.0,0.0,0.0,0.0,0.0,0.0,0.0,192525,0.0,0.0,0.0,0.0,90.0,90.0,90.0,96.70254516600001,95.81127929690001,96.95719146729999,49.2119979858,16.088911056500002,2.8000001907,0,2,25,1,87,9777
34,1530905130425,368425, RC,0,39.9586186,-88.445067899,0,-17843.9866116797,9453.9013935627,20193.6650897506,-17844.0023303659,9451.6579060542,0.0,0.0,-17843.976384665,9451.5240711968,0.0051835794,4.9642288845,0.0,0.0,1500,1500,40.0436194017,-88.2355792725,40.0437476667,-88.23556,0.0,0.0,0.0,0.0,0.0,0.0,0.0,0.0,0.0,0.0,0.0,192525,0.0,0.0,0.0,0.0,90.0,90.0,90.0,96.70254516600001,95.81127929690001,96.95719146729999,49.2119979858,16.088911056500002,2.8000001907,0,2,25,1,89,9779
35,1530905130475,368475, RC,0,39.9586186,-88.445067899,0,-17843.9866116797,9453.9013935627,20193.6650897506,-17844.0023303659,9451.6579060542,0.0,0.0,-17843.976384665,9451.5240711968,0.0051835794,4.9642288845,0.0,0.0,1500,1500,40.0436194017,-88.2355792725,40.0437476667,-88.23556,0.0,0.0,0.0,0.0,0.0,0.0,0.0,0.0,0.0,0.0,0.0,192525,0.0,0.0,0.0,0.0,90.0,90.0,90.0,96.70254516600001,95.81127929690001,97.02085876459999,49.2119979858,16.088911056500002,2.8000001907,0,2,25,1,92,9780
36,1530905130526,368526, RC,0,39.9586186,-88.445067899,0,-17843.9866116797,9453.9013935627,20193.6650897506,-17844.0023303659,9451.6579060542,0.0,0.0,-17843.976384665,9451.5240711968,0.0051835794,4.9642288845,0.0,0.0,1500,1500,40.0436194017,-88.2355792725,40.0437476667,-88.23556,0.0,0.0,0.0,0.0,0.0,0.0,0.0,0.0,0.0,0.0,0.0,192525,0.0,0.0,0.0,0.0,90.0,90.0,90.0,96.70254516600001,95.81127929690001,96.76620483399999,49.2119979858,16.088911056500002,2.8000001907,0,2,25,1,83,9782
37,1530905130576,368576, RC,0,39.9586186,-88.445067899,0,-17843.9848919344,9453.9019401966,20193.6638260232,-17843.9944766441,9451.660519134799,0.0,0.0,-17843.9746649197,9451.524617830699,0.0036521920000000003,4.9643820768,0.0,0.0,1500,1500,40.0436194252,-88.23557936469999,40.0437476667,-88.23556,0.0,0.0,0.0,0.0,0.0,0.0,0.0,0.0,0.0,0.0,0.0,192525,0.0,0.0,0.0,0.0,90.0,90.0,90.0,96.70254516600001,95.81127929690001,96.76620483399999,49.75,16.088911056500002,2.8000001907,0,2,25,1,90,9783
38,1530905130627,368627, RC,0,39.9586186,-88.445067899,0,-17843.9832944892,9453.902317574499,20193.6625911262,-17843.988382762098,9451.6635769958,0.0,0.0,-17843.9730674745,9451.5249952086,0.0024183188,4.9644670866,0.0,0.0,1500,1500,40.0436194527,-88.23557943620001,40.0437476667,-88.23556,0.0,0.0,0.0,0.0,0.0,0.0,0.0,0.0,0.0,0.0,0.0,192525,0.0,0.0,0.0,0.0,90.0,90.0,90.0,96.70254516600001,95.81127929690001,96.76620483399999,49.75,16.088911056500002,2.8000001907,0,2,25,1,85,9785
39,1530905130677,368677, RC,0,39.9586186,-88.445067899,0,-17843.9832944892,9453.902317574499,20193.6625911262,-17843.988382762098,9451.6635769958,0.0,0.0,-17843.9730674745,9451.5249952086,0.0024183188,4.9644670866,0.0,0.0,1500,1500,40.0436194527,-88.23557943620001,40.0437476667,-88.23556,0.0,0.0,0.0,0.0,0.0,0.0,0.0,0.0,0.0,0.0,0.0,192525,0.0,0.0,0.0,0.0,90.0,90.0,90.0,96.70254516600001,95.81127929690001,96.8298721313,49.75,16.088911056500002,2.8000001907,0,2,25,1,92,9786
40,1530905130728,368728, RC,0,39.9586186,-88.445067899,0,-17843.9832944892,9453.902317574499,20193.6625911262,-17843.9777053131,9451.6650225294,0.0,0.0,-17843.9730674745,9451.5249952086,0.0024183188,4.9644670866,0.0,0.0,1500,1500,40.043619465700004,-88.23557956149999,40.0437476667,-88.23556,0.0,0.0,0.0,0.0,0.0,0.0,0.0,0.0,0.0,0.0,0.0,192525,0.0,0.0,0.0,0.0,90.0,90.0,90.0,96.70254516600001,95.81127929690001,96.8298721313,49.75,16.088911056500002,2.8000001907,0,2,25,1,89,9788
41,1530905130778,368778, RC,0,39.9586186,-88.445067899,0,-17843.9812549169,9453.902439014399,20193.6608457265,-17843.9777053131,9451.6650225294,0.0,0.0,-17843.9710279022,9451.5251166485,0.0018529135999999999,4.9644834077999995,0.0,0.0,1500,1500,40.043619465700004,-88.23557956149999,40.0437476667,-88.23556,0.0,0.0,0.0,0.0,0.0,0.0,0.0,0.0,0.0,0.0,0.0,192525,0.0,0.0,0.0,0.0,90.0,90.0,90.0,96.70254516600001,95.81127929690001,96.8298721313,49.2119979858,16.088911056500002,2.8000001907,0,2,25,1,90,9790
42,1530905130829,368829, RC,0,39.9586186,-88.445067899,0,-17843.9784650413,9453.9025416425,20193.6584285199,-17843.969627953,9451.6646518793,0.0,0.0,-17843.9682380266,9451.5252192766,0.00144924,4.9645054241,0.0,0.0,1500,1500,40.0436194623,-88.23557965629999,40.0437476667,-88.23556,0.0,0.0,0.0,0.0,0.0,0.0,0.0,0.0,0.0,0.0,0.0,192525,0.0,0.0,0.0,0.0,90.0,90.0,90.0,96.70254516600001,95.81127929690001,96.8298721313,49.2119979858,16.102903366099998,3.0599999427999998,0,2,25,1,93,9793
43,1530905130879,368879, RC,0,39.9586186,-88.445067899,0,-17843.9784650413,9453.9025416425,20193.6584285199,-17843.969627953,9451.6646518793,0.0,0.0,-17843.9682380266,9451.5252192766,0.00144924,4.9645054241,0.0,0.0,1500,1500,40.0436194623,-88.23557965629999,40.0437476667,-88.23556,0.0,0.0,0.0,0.0,0.0,0.0,0.0,0.0,0.0,0.0,0.0,192525,0.0,0.0,0.0,0.0,90.0,90.0,90.0,96.70254516600001,95.81127929690001,96.8298721313,49.2119979858,16.102903366099998,3.0599999427999998,0,2,25,1,85,9795
44,1530905130930,368930, RC,0,39.9586186,-88.445067899,0,-17843.9784650413,9453.9025416425,20193.6584285199,-17843.9648287825,9451.6653005165,0.0001,0.0,-17843.9682380266,9451.5252192766,0.00144924,4.9645054241,0.0,0.0,1500,1500,40.0436194682,-88.2355797127,40.0437476667,-88.23556,0.0,0.0,0.0,0.0,0.0,0.0,0.0,0.0,0.0,0.0,0.0,192525,0.0,0.0,0.0,0.0,90.0,90.0,90.0,96.70254516600001,95.81127929690001,96.8298721313,49.2119979858,16.102903366099998,3.0599999427999998,0,2,25,1,86,9797
45,1530905130980,368980, RC,0,39.9586186,-88.445067899,0,-17843.9753355701,9453.902774042701,20193.655771986498,-17843.9648287825,9451.6653005165,0.0,0.0,-17843.9651085554,9451.5254516768,0.0012169442,4.9645295211,0.0,0.0,1500,1500,40.0436194682,-88.2355797127,40.0437476667,-88.23556,0.0,0.0,0.0,0.0,0.0,0.0,0.0,0.0,0.0,0.0,0.0,192525,0.0,0.0,0.0,0.0,90.0,90.0,90.0,96.70254516600001,95.81127929690001,96.8298721313,49.2119979858,16.102903366099998,3.0599999427999998,0,2,25,1,82,9799
46,1530905131031,369031, RC,0,39.9586186,-88.445067899,0,-17843.9713264164,9453.9027602301,20193.652222861,-17843.9520553273,9451.6624279806,0.0,0.0,-17843.9610994017,9451.5254378642,0.0011954794,4.9645288605,0.0,0.0,1500,1500,40.0436194423,-88.2355798627,40.0437476667,-88.23556,0.0,0.0,0.0,0.0,0.0,0.0,0.0,0.0,0.0,0.0,0.0,192525,0.0,0.0,0.0,0.0,90.0,90.0,90.0,96.70254516600001,95.81127929690001,96.8298721313,49.2119979858,16.102903366099998,3.0599999427999998,0,2,25,1,85,9801
47,1530905131081,369081, RC,0,39.9586186,-88.445067899,0,-17843.9713264164,9453.9027602301,20193.652222861,-17843.9520553273,9451.6624279806,0.0,0.0,-17843.9610994017,9451.5254378642,0.0011954794,4.9645288605,0.0,0.0,1500,1500,40.0436194423,-88.2355798627,40.0437476667,-88.23556,0.0,0.0,0.0,0.0,0.0,0.0,0.0,0.0,0.0,0.0,0.0,192525,0.0,0.0,0.0,0.0,90.0,90.0,90.0,96.70254516600001,95.81127929690001,96.8298721313,49.2119979858,16.102903366099998,3.0599999427999998,0,2,25,1,86,9802
48,1530905131132,369132, RC,0,39.9586186,-88.445067899,0,-17843.9713264164,9453.9027602301,20193.652222861,-17843.9520553273,9451.6624279806,0.0,0.0,-17843.9610994017,9451.5254378642,0.0011954794,4.9645288605,0.0,0.0,1500,1500,40.0436194423,-88.2355798627,40.0437476667,-88.23556,0.0,0.0,0.0,0.0,0.0,0.0,0.0,0.0,0.0,0.0,0.0,192525,0.0,0.0,0.0,0.0,90.0,90.0,90.0,96.70254516600001,95.81127929690001,96.8298721313,49.2119979858,16.102903366099998,3.0599999427999998,0,2,25,1,85,9804
49,1530905131182,369182, RC,0,39.9586186,-88.445067899,0,-17843.9663774203,9453.903139538299,20193.6480272951,-17843.9364913072,9451.6664124659,0.0,0.0,-17843.9561504056,9451.5258171724,0.0013124058999999999,4.9645167433,0.0,0.0,1500,1500,40.0436194782,-88.23558004530001,40.0437476667,-88.23556,0.0,0.0,0.0,0.0,0.0,0.0,0.0,0.0,0.0,0.0,0.0,192526,0.0,0.0,0.0,0.0,90.0,90.0,90.0,96.70254516600001,95.81127929690001,96.8298721313,49.2119979858,16.102903366099998,3.0599999427999998,0,2,25,1,89,9806
50,1530905131233,369233, RC,0,39.9586186,-88.445067899,0,-17843.9611427251,9453.9039329451,20193.643773139098,-17843.928149394298,9451.6737142654,0.0,0.0,-17843.9509157104,9451.5266105792,0.0012287119,4.9645589094,0.0,0.0,1500,1500,40.0436195438,-88.2355801432,40.0437476667,-88.23556,0.0,0.0,0.0,0.0,0.0,0.0,0.0,0.0,0.0,0.0,0.0,192526,0.0,0.0,0.0,0.0,90.0,90.0,90.0,96.70254516600001,95.81127929690001,96.8298721313,49.2119979858,16.102903366099998,3.0599999427999998,0,2,25,1,88,9807
51,1530905131283,369283, RC,0,39.9586186,-88.445067899,0,-17843.9611427251,9453.9039329451,20193.643773139098,-17843.928149394298,9451.6737142654,0.0,0.0,-17843.9509157104,9451.5266105792,0.0012287119,4.9645589094,0.0,0.0,1500,1500,40.0436195438,-88.2355801432,40.0437476667,-88.23556,0.0,0.0,0.0,0.0,0.0,0.0,0.0,0.0,0.0,0.0,0.0,192526,0.0,0.0,0.0,0.0,90.0,90.0,90.0,96.70254516600001,95.81127929690001,96.8298721313,49.2119979858,16.102903366099998,3.0599999427999998,0,2,25,1,89,9809
52,1530905131334,369334, RC,0,39.9586186,-88.445067899,0,-17843.9611427251,9453.9039329451,20193.643773139098,-17843.928149394298,9451.6737142654,0.0,0.0,-17843.9509157104,9451.5266105792,0.0012287119,4.9645589094,0.0,0.0,1500,1500,40.0436195438,-88.2355801432,40.0437476667,-88.23556,0.0,0.0,0.0,0.0,0.0,0.0,0.0,0.0,0.0,0.0,0.0,192526,0.0,0.0,0.0,0.0,90.0,90.0,90.0,96.70254516600001,95.81127929690001,96.8298721313,49.2119979858,16.102903366099998,3.0599999427999998,0,2,25,1,89,9810
53,1530905131384,369384, RC,0,39.9586186,-88.445067899,0,-17843.9554919361,9453.9048141759,20193.6391924213,-17843.9177134602,9451.675011539799,0.0,0.0,-17843.9452649214,9451.52749181,0.0012137773,4.9646123026,0.0,0.0,1500,1500,40.0436195555,-88.2355802657,40.0437476667,-88.23556,0.0,0.0,0.0,0.0,0.0,0.0,0.0,0.0,0.0,0.0,0.0,192526,0.0,0.0,0.0,0.0,90.0,90.0,90.0,96.70254516600001,95.81127929690001,96.8298721313,49.2119979858,16.102903366099998,3.0599999427999998,0,2,25,1,84,9812
54,1530905131435,369435, RC,0,39.9586186,-88.445067899,0,-17843.949166315,9453.9057106628,20193.6340225363,-17843.9077189011,9451.6752153981,0.0,0.0,-17843.9389393003,9451.5283882969,0.0012530836,4.9647250075,0.0,0.0,1500,1500,40.0436195573,-88.235580383,40.0437508333,-88.2355603333,0.0,0.0,0.0,0.0,0.0,0.0,0.0,0.0,0.0,0.0,0.0,192526,0.0,0.0,0.0,0.0,90.0,90.0,90.0,96.70254516600001,95.81127929690001,96.8298721313,49.2119979858,16.102903366099998,3.0599999427999998,0,2,25,1,89,9814
55,1530905131486,369486, RC,0,39.9586186,-88.445067899,0,-17843.949166315,9453.9057106628,20193.6340225363,-17843.9077189011,9451.6752153981,0.0,0.0,-17843.9389393003,9451.5283882969,0.0012530836,4.9647250075,0.0,0.0,1500,1500,40.0436195573,-88.235580383,40.0437508333,-88.2355603333,0.0,0.0,0.0,0.0,0.0,0.0,0.0,0.0,0.0,0.0,0.0,192526,0.0,0.0,0.0,0.0,90.0,90.0,90.0,96.70254516600001,95.81127929690001,96.8298721313,49.2119979858,16.102903366099998,3.0599999427999998,0,2,25,1,88,9815
56,1530905131537,369537, RC,0,39.9586186,-88.445067899,0,-17843.949166315,9453.9057106628,20193.6340225363,-17843.9001673569,9451.6743814352,0.0,0.0,-17843.9389393003,9451.5283882969,0.0012530836,4.9647250075,0.0,0.0,1500,1500,40.0436195498,-88.2355804717,40.0437508333,-88.2355603333,0.0,0.0,0.0,0.0,0.0,0.0,0.0,0.0,0.0,0.0,0.0,192526,0.0,0.0,0.0,0.0,90.0,90.0,90.0,96.70254516600001,95.81127929690001,96.8298721313,49.2119979858,16.102903366099998,3.0599999427999998,0,2,25,1,85,9817
57,1530905131587,369587, RC,0,39.9586186,-88.445067899,0,-17843.942408196002,9453.906437453199,20193.628391033002,-17843.9001673569,9451.6743814352,0.0,0.0,-17843.9321811813,9451.5291150873,0.0012820327,4.9649235943,0.0,0.0,1500,1500,40.0436195498,-88.2355804717,40.0437508333,-88.2355603333,0.0,0.0,0.0,0.0,0.0,0.0,0.0,0.0,0.0,0.0,0.0,192526,0.0,0.0,0.0,0.0,90.0,90.0,90.0,96.70254516600001,95.81127929690001,96.8298721313,49.2119979858,16.102903366099998,3.0599999427999998,0,2,25,1,88,9819
58,1530905131638,369638, RC,0,39.9586186,-88.445067899,0,-17843.9360163599,9453.9072049554,20193.6231022532,-17843.910561703702,9451.6722316674,0.0,0.0,-17843.9257893452,9451.529882589499,0.0012821661,4.965317425199999,0.0,0.0,1500,1500,40.0436195305,-88.23558034969999,40.0437508333,-88.2355603333,0.0,0.0,0.0,0.0,0.0,0.0,0.0,0.0,0.0,0.0,0.0,192526,0.0,0.0,0.0,0.0,90.0,90.0,90.0,96.70254516600001,95.81127929690001,96.8298721313,49.2119979858,16.102903366099998,3.0599999427999998,0,2,25,1,95,9820
59,1530905131688,369688, RC,0,39.9586186,-88.445067899,0,-17843.9360163599,9453.9072049554,20193.6231022532,-17843.910561703702,9451.6722316674,0.0,0.0,-17843.9257893452,9451.529882589499,0.0012821661,4.965317425199999,0.0,0.0,1500,1500,40.0436195305,-88.23558034969999,40.0437508333,-88.2355603333,0.0,0.0,0.0,0.0,0.0,0.0,0.0,0.0,0.0,0.0,0.0,192526,0.0,0.0,0.0,0.0,90.0,90.0,90.0,96.70254516600001,95.81127929690001,96.8298721313,49.2119979858,16.102903366099998,3.0599999427999998,0,2,25,1,90,9822
60,1530905131739,369739, RC,0,39.9586186,-88.445067899,0,-17843.929556573898,9453.908260485501,20193.6178882747,-17843.9082591744,9451.6745296951,0.0,0.0,-17843.919329559198,9451.5309381196,0.0012673377000000001,4.9657636307,0.0,0.0,1500,1500,40.043619551199995,-88.2355803767,40.0437508333,-88.2355603333,0.0,0.0,0.0,0.0,0.0,0.0,0.0,0.0,0.0,0.0,0.0,192526,0.0,0.0,0.0,0.0,90.0,90.0,90.0,96.70254516600001,95.81127929690001,96.8298721313,49.2119979858,16.102903366099998,3.0599999427999998,0,2,25,1,85,9824
61,1530905131790,369790, RC,0,39.9586186,-88.445067899,0,-17843.929556573898,9453.908260485501,20193.6178882747,-17843.9082591744,9451.6745296951,0.0,0.0,-17843.919329559198,9451.5309381196,0.0012673377000000001,4.9657636307,0.0,0.0,1500,1500,40.043619551199995,-88.2355803767,40.0437508333,-88.2355603333,0.0,0.0,0.0,0.0,0.0,0.0,0.0,0.0,0.0,0.0,0.0,192526,0.0,0.0,0.0,0.0,90.0,90.0,90.0,96.70254516600001,95.81127929690001,96.8298721313,49.2119979858,16.1150550842,2.9500000476999997,0,2,25,1,86,9825
62,1530905131840,369840, RC,0,39.9586186,-88.445067899,0,-17843.929556573898,9453.908260485501,20193.6178882747,-17843.9034060696,9451.672750576601,0.0,0.0,-17843.919329559198,9451.5309381196,0.0012673377000000001,4.9657636307,0.0,0.0,1500,1500,40.0436195352,-88.23558043370001,40.0437508333,-88.2355603333,0.0,0.0,0.0,0.0,0.0,0.0,0.0,0.0,0.0,0.0,0.0,192526,0.0,0.0,0.0,0.0,90.0,90.0,90.0,96.70254516600001,95.81127929690001,96.8298721313,49.2119979858,16.1150550842,2.9500000476999997,0,2,25,1,90,9827
63,1530905131891,369891, RC,0,39.9586186,-88.445067899,0,-17843.9228758174,9453.9091974348,20193.612423523,-17843.9034060696,9451.672750576601,0.0,0.0,-17843.9126488027,9451.5318750689,0.0013232623999999999,4.966234153,0.0,0.0,1500,1500,40.0436195352,-88.23558043370001,40.0437508333,-88.2355603333,0.0,0.0,0.0,0.0,0.0,0.0,0.0,0.0,0.0,0.0,0.0,192526,0.0,0.0,0.0,0.0,90.0,90.0,90.0,96.70254516600001,95.81127929690001,96.8298721313,48.6740036011,16.1150550842,2.9500000476999997,0,2,25,1,94,9829
64,1530905131941,369941, RC,0,39.9586186,-88.445067899,0,-17843.9159335938,9453.9100701765,20193.6066976691,-17843.8968033139,9451.673936655601,0.0,0.0,-17843.9057065791,9451.532747810601,0.0012730992,4.9667295169,0.0,0.0,1500,1500,40.0436195458,-88.23558051120001,40.0437508333,-88.2355603333,0.0,0.0,0.0,0.0,0.0,0.0,0.0,0.0,0.0,0.0,0.0,192526,0.0,0.0,0.0,0.0,90.0,90.0,90.0,96.70254516600001,95.81127929690001,96.8298721313,49.2119979858,16.1150550842,2.9500000476999997,0,2,25,1,90,9830
65,1530905131992,369992, RC,0,39.9586186,-88.445067899,0,-17843.9159335938,9453.9100701765,20193.6066976691,-17843.8968033139,9451.673936655601,0.0,0.0,-17843.9057065791,9451.532747810601,0.0012730992,4.9667295169,0.0,0.0,1500,1500,40.0436195458,-88.23558051120001,40.0437508333,-88.2355603333,0.0,0.0,0.0,0.0,0.0,0.0,0.0,0.0,0.0,0.0,0.0,192526,0.0,0.0,0.0,0.0,90.0,90.0,90.0,96.70254516600001,95.81127929690001,96.8298721313,49.2119979858,16.1150550842,2.9500000476999997,0,2,25,1,90,9832
66,1530905132042,370042, RC,0,39.9586186,-88.445067899,0,-17843.9091559431,9453.9110190746,20193.6011528932,-17843.8948593323,9451.673139759201,0.0,0.0,-17843.8989289284,9451.5336967087,0.0013277734,4.9672256721,0.0,0.0,1500,1500,40.0436195387,-88.235580534,40.0437508333,-88.2355603333,0.0,0.0,0.0,0.0,0.0,0.0,0.0,0.0,0.0,0.0,0.0,192526,0.0,0.0,0.0,0.0,90.0,90.0,90.0,96.70254516600001,95.81127929690001,96.8298721313,49.2119979858,16.1150550842,2.9500000476999997,0,2,25,1,95,9834
67,1530905132093,370093, RC,0,39.9586186,-88.445067899,0,-17843.9091559431,9453.9110190746,20193.6011528932,-17843.8948593323,9451.673139759201,0.0,0.0,-17843.8989289284,9451.5336967087,0.0013277734,4.9672256721,0.0,0.0,1500,1500,40.0436195387,-88.235580534,40.0437508333,-88.2355603333,0.0,0.0,0.0,0.0,0.0,0.0,0.0,0.0,0.0,0.0,0.0,192526,0.0,0.0,0.0,0.0,90.0,90.0,90.0,96.70254516600001,95.81127929690001,96.8298721313,49.2119979858,16.1150550842,2.9500000476999997,0,2,25,1,96,9835
68,1530905132143,370143, RC,0,39.9586186,-88.445067899,0,-17843.9091559431,9453.9110190746,20193.6011528932,-17843.8854058087,9451.672009278,0.0,0.0,-17843.8989289284,9451.5336967087,0.0013277734,4.9672256721,0.0,0.0,1500,1500,40.0436195285,-88.235580645,40.0437508333,-88.2355603333,0.0,0.0,0.0,0.0,0.0,0.0,0.0,0.0,0.0,0.0,0.0,192527,0.0,0.0,0.0,0.0,90.0,90.0,90.0,96.70254516600001,95.81127929690001,96.8298721313,49.2119979858,16.1150550842,2.9500000476999997,0,2,25,1,88,9837
69,1530905132193,370193, RC,0,39.9586186,-88.445067899,0,-17843.9022765117,9453.9117220048,20193.5954030271,-17843.8854058087,9451.672009278,0.0,0.0,-17843.892049497,9451.5343996389,0.0014196766000000001,4.967691868999999,0.0,0.0,1500,1500,40.0436195285,-88.235580645,40.0437508333,-88.2355603333,0.0,0.0,0.0,0.0,0.0,0.0,0.0,0.0,0.0,0.0,0.0,192527,0.0,0.0,0.0,0.0,90.0,90.0,90.0,96.70254516600001,95.81127929690001,96.8298721313,49.2119979858,16.1150550842,2.9500000476999997,0,2,25,1,92,9839
70,1530905132244,370244, RC,0,39.9586186,-88.445067899,0,-17843.8951357875,9453.912383348299,20193.5894028032,-17843.8750259181,9451.673936655601,0.0,0.0,-17843.8849087728,9451.5350609824,0.0014171804999999998,4.9681428677,0.0,0.0,1500,1500,40.0436195458,-88.2355807668,40.0437508333,-88.2355603333,0.0,0.0,0.0,0.0,0.0,0.0,0.0,0.0,0.0,0.0,0.0,192527,0.0,0.0,0.0,0.0,90.0,90.0,90.0,96.70254516600001,95.81127929690001,96.8298721313,49.2119979858,16.1150550842,2.9500000476999997,0,2,25,1,96,9840
71,1530905132294,370294, RC,0,39.9586186,-88.445067899,0,-17843.8951357875,9453.912383348299,20193.5894028032,-17843.8750259181,9451.673936655601,0.0,0.0,-17843.8849087728,9451.5350609824,0.0014171804999999998,4.9681428677,0.0,0.0,1500,1500,40.0436195458,-88.2355807668,40.0437508333,-88.2355603333,0.0,0.0,0.0,0.0,0.0,0.0,0.0,0.0,0.0,0.0,0.0,192527,0.0,0.0,0.0,0.0,90.0,90.0,90.0,96.70254516600001,95.81127929690001,96.8298721313,49.2119979858,16.1150550842,2.9500000476999997,0,2,25,1,95,9842
72,1530905132345,370345, RC,0,39.9586186,-88.445067899,0,-17843.8951357875,9453.912383348299,20193.5894028032,-17843.8718170576,9451.6743258382,0.0,0.0,-17843.8849087728,9451.5350609824,0.0014171804999999998,4.9681428677,0.0,0.0,1500,1500,40.0436195493,-88.2355808045,40.0437508333,-88.2355603333,0.0,0.0,0.0,0.0,0.0,0.0,0.0,0.0,0.0,0.0,0.0,192527,0.0,0.0,0.0,0.0,90.0,90.0,90.0,96.70254516600001,95.81127929690001,96.8298721313,49.2119979858,16.1150550842,2.9500000476999997,0,2,25,1,88,9844
73,1530905132395,370395, RC,0,39.9586186,-88.445067899,0,-17843.888466237,9453.912983709499,20193.583790378998,-17843.8718170576,9451.6743258382,0.0,0.0,-17843.8782392223,9451.5356613436,0.0013963256,4.9685725269,0.0,0.0,1500,1500,40.0436195493,-88.2355808045,40.0437508333,-88.2355603333,0.0,0.0,0.0,0.0,0.0,0.0,0.0,0.0,0.0,0.0,0.0,192527,0.0,0.0,0.0,0.0,90.0,90.0,90.0,96.70254516600001,95.81127929690001,96.8298721313,49.2119979858,16.1150550842,2.9500000476999997,0,2,25,1,92,9845
74,1530905132446,370446, RC,0,39.9586186,-88.445067899,0,-17843.8821320114,9453.9136366868,20193.578498895302,-17843.8690764832,9451.6748818125,0.0,0.0,-17843.8719049967,9451.5363143209,0.0013903332000000002,4.9689866675,0.0,0.0,1500,1500,40.0436195543,-88.2355808367,40.0437441667,-88.235559,0.0,0.0,0.0,0.0,0.0,0.0,0.0,0.0,0.0,0.0,0.0,192527,0.0,0.0,0.0,0.0,90.0,90.0,90.0,96.70254516600001,95.81127929690001,96.8298721313,49.2119979858,16.1150550842,2.9500000476999997,0,2,25,1,91,9847
75,1530905132496,370496, RC,0,39.9586186,-88.445067899,0,-17843.8821320114,9453.9136366868,20193.578498895302,-17843.8690764832,9451.6748818125,0.0,0.0,-17843.8719049967,9451.5363143209,0.0013903332000000002,4.9689866675,0.0,0.0,1500,1500,40.0436195543,-88.2355808367,40.0437441667,-88.235559,0.0,0.0,0.0,0.0,0.0,0.0,0.0,0.0,0.0,0.0,0.0,192527,0.0,0.0,0.0,0.0,90.0,90.0,90.0,96.70254516600001,95.81127929690001,96.8298721313,49.2119979858,16.1150550842,2.9500000476999997,0,2,25,1,90,9849
76,1530905132547,370547, RC,0,39.9586186,-88.445067899,0,-17843.8821320114,9453.9136366868,20193.578498895302,-17843.8775002215,9451.6704340164,0.0001,0.0,-17843.8719049967,9451.5363143209,0.0013903332000000002,4.9689866675,0.0,0.0,1500,1500,40.0436195143,-88.2355807378,40.0437441667,-88.235559,0.0,0.0,0.0,0.0,0.0,0.0,0.0,0.0,0.0,0.0,0.0,192527,0.0,0.0,0.0,0.0,90.0,90.0,90.0,96.70254516600001,95.81127929690001,96.8298721313,49.2119979858,16.1150550842,2.9500000476999997,0,2,25,1,92,9850
77,1530905132597,370597, RC,0,39.9586186,-88.445067899,0,-17843.8766230484,9453.9139639827,20193.573784176002,-17843.8775002215,9451.6704340164,0.0,0.0,-17843.8663960337,9451.5366416168,0.0014069107999999998,4.9694521543,0.0,0.0,1500,1500,40.0436195143,-88.2355807378,40.0437441667,-88.235559,0.0,0.0,0.0,0.0,0.0,0.0,0.0,0.0,0.0,0.0,0.0,192527,0.0,0.0,0.0,0.0,90.0,90.0,90.0,96.70254516600001,95.81127929690001,96.8298721313,49.2119979858,16.1150550842,2.9500000476999997,0,2,25,1,93,9852
78,1530905132647,370647, RC,0,39.9586186,-88.445067899,0,-17843.8719893497,9453.9142746263,20193.5698350807,-17843.8788939805,9451.668302779799,0.0,0.0,-17843.861762335,9451.5369522604,0.0016190104,4.9698749762,0.0,0.0,1500,1500,40.0436194952,-88.2355807215,40.0437441667,-88.235559,0.0,0.0,0.0,0.0,0.0,0.0,0.0,0.0,0.0,0.0,0.0,192527,0.0,0.0,0.0,0.0,90.0,90.0,90.0,96.70254516600001,95.81127929690001,96.8298721313,49.2119979858,16.1150550842,2.9500000476999997,0,2,25,1,92,9854
79,1530905132701,370701, RC,0,39.9586186,-88.445067899,0,-17843.8719893497,9453.9142746263,20193.5698350807,-17843.8788939805,9451.668302779799,0.0,0.0,-17843.861762335,9451.5369522604,0.0016190104,4.9698749762,0.0,0.0,1500,1500,40.0436194952,-88.2355807215,40.0437441667,-88.235559,0.0,0.0,0.0,0.0,0.0,0.0,0.0,0.0,0.0,0.0,0.0,192527,0.0,0.0,0.0,0.0,90.0,90.0,90.0,96.70254516600001,95.81127929690001,96.8298721313,49.2119979858,16.1150550842,2.9500000476999997,0,2,25,1,96,9855
80,1530905132752,370752, RC,0,39.9586186,-88.445067899,0,-17843.8719893497,9453.9142746263,20193.5698350807,-17843.8744640269,9451.668858753399,0.0,0.0,-17843.861762335,9451.5369522604,0.0016190104,4.9698749762,0.0,0.0,1500,1500,40.0436195002,-88.2355807735,40.0437441667,-88.235559,0.0,0.0,0.0,0.0,0.0,0.0,0.0,0.0,0.0,0.0,0.0,192527,0.0,0.0,0.0,0.0,90.0,90.0,90.0,96.70254516600001,95.81127929690001,96.8298721313,49.2119979858,16.1150550842,2.9500000476999997,0,2,25,1,104,9857
81,1530905132802,370802, RC,0,39.9586186,-88.445067899,0,-17843.868057568,9453.9143783076,20193.5664093361,-17843.8744640269,9451.668858753399,0.0,0.0,-17843.8578305533,9451.5370559417,0.0018007958999999999,4.9702309769,0.0,0.0,1500,1500,40.0436195002,-88.2355807735,40.0437441667,-88.235559,0.0,0.0,0.0,0.0,0.0,0.0,0.0,0.0,0.0,0.0,0.0,192527,0.0,0.0,0.0,0.0,90.0,90.0,90.0,96.70254516600001,95.81127929690001,96.8298721313,49.2119979858,16.133571624800002,3.0199999808999998,0,2,25,1,100,9859
82,1530905132853,370853, RC,0,39.9586186,-88.445067899,0,-17843.8647085199,9453.9140564104,20193.5632992782,-17843.875131958503,9451.6682657147,0.0,0.0,-17843.8544815052,9451.5367340445,0.0017635052,4.9705710188,0.0,0.0,1500,1500,40.0436194948,-88.23558076569999,40.0437441667,-88.235559,0.0,0.0,0.0,0.0,0.0,0.0,0.0,0.0,0.0,0.0,0.0,192527,0.0,0.0,0.0,0.0,90.0,90.0,90.0,96.70254516600001,95.81127929690001,96.8298721313,49.2119979858,16.133571624800002,3.0199999808999998,0,2,25,1,95,9860
83,1530905132903,370903, RC,0,39.9586186,-88.445067899,0,-17843.8647085199,9453.9140564104,20193.5632992782,-17843.875131958503,9451.6682657147,0.0,0.0,-17843.8544815052,9451.5367340445,0.0017635052,4.9705710188,0.0,0.0,1500,1500,40.0436194948,-88.23558076569999,40.0437441667,-88.235559,0.0,0.0,0.0,0.0,0.0,0.0,0.0,0.0,0.0,0.0,0.0,192527,0.0,0.0,0.0,0.0,90.0,90.0,90.0,96.70254516600001,95.81127929690001,96.8298721313,49.2119979858,16.133571624800002,3.0199999808999998,0,2,25,1,97,9862
84,1530905132954,370954, RC,0,39.9586186,-88.445067899,0,-17843.8620802624,9453.9134475008,20193.5606917716,-17843.876200221202,9451.6652634514,0.0,0.0,-17843.8518532477,9451.5361251349,0.0017802519,4.9708612554,0.0,0.0,1500,1500,40.0436194678,-88.2355807532,40.0437441667,-88.235559,0.0,0.0,0.0,0.0,0.0,0.0,0.0,0.0,0.0,0.0,0.0,192527,0.0,0.0,0.0,0.0,90.0,90.0,90.0,96.70254516600001,95.81127929690001,96.8298721313,49.2119979858,16.133571624800002,3.0199999808999998,0,2,25,1,95,9864
85,1530905133004,371004, RC,0,39.9586186,-88.445067899,0,-17843.8620802624,9453.9134475008,20193.5606917716,-17843.8722679506,9451.6651337248,0.0001,0.0,-17843.8518532477,9451.5361251349,0.0017802519,4.9708612554,0.0,0.0,1500,1500,40.0436194667,-88.23558079930001,40.0437441667,-88.235559,0.0,0.0,0.0,0.0,0.0,0.0,0.0,0.0,0.0,0.0,0.0,192527,0.0,0.0,0.0,0.0,90.0,90.0,90.0,96.70254516600001,95.81127929690001,96.8298721313,49.2119979858,16.133571624800002,3.0199999808999998,0,2,25,1,94,9865
86,1530905133054,371054, RC,0,39.9586186,-88.445067899,0,-17843.859832675,9453.912804796,20193.558404819,-17843.8722679506,9451.6651337248,0.0,0.0,-17843.8496056603,9451.5354824301,0.001832845,4.9710881634,0.0,0.0,1500,1500,40.0436194667,-88.23558079930001,40.0437441667,-88.235559,0.0,0.0,0.0,0.0,0.0,0.0,0.0,0.0,0.0,0.0,0.0,192527,0.0,0.0,0.0,0.0,90.0,90.0,90.0,96.70254516600001,95.81127929690001,96.8298721313,49.2119979858,16.133571624800002,3.0199999808999998,0,2,25,1,96,9867
87,1530905133105,371105, RC,0,39.9586186,-88.445067899,0,-17843.859832675,9453.912804796,20193.558404819,-17843.8722679506,9451.6651337248,0.0,0.0,-17843.8496056603,9451.5354824301,0.001832845,4.9710881634,0.0,0.0,1500,1500,40.0436194667,-88.23558079930001,40.0437441667,-88.235559,0.0,0.0,0.0,0.0,0.0,0.0,0.0,0.0,0.0,0.0,0.0,192527,0.0,0.0,0.0,0.0,90.0,90.0,90.0,96.70254516600001,95.81127929690001,96.8298721313,49.2119979858,16.133571624800002,3.0199999808999998,0,2,25,1,99,9869
88,1530905133155,371155, RC,0,39.9586186,-88.445067899,0,-17843.859832675,9453.912804796,20193.558404819,-17843.8722679506,9451.6651337248,0.0,0.0,-17843.8496056603,9451.5354824301,0.001832845,4.9710881634,0.0,0.0,1500,1500,40.0436194667,-88.23558079930001,40.0437441667,-88.235559,0.0,0.0,0.0,0.0,0.0,0.0,0.0,0.0,0.0,0.0,0.0,192527,0.0,0.0,0.0,0.0,90.0,90.0,90.0,96.70254516600001,95.81127929690001,96.8298721313,49.2119979858,16.133571624800002,3.0199999808999998,0,2,25,1,104,9870
89,1530905133206,371206, RC,0,39.9586186,-88.445067899,0,-17843.859832675,9453.912804796,20193.558404819,-17843.8728181275,9451.6680989222,0.0,0.0,-17843.8496056603,9451.5354824301,0.001832845,4.9710881634,0.0,0.0,1500,1500,40.0436194933,-88.23558079280001,40.0437441667,-88.235559,0.0,0.0,0.0,0.0,0.0,0.0,0.0,0.0,0.0,0.0,0.0,192528,0.0,0.0,0.0,0.0,90.0,90.0,90.0,96.70254516600001,95.81127929690001,96.8298721313,49.2119979858,16.133571624800002,3.0199999808999998,0,2,25,1,102,9872
90,1530905133257,371257, RC,0,39.9586186,-88.445067899,0,-17843.8580994873,9453.9124234099,20193.5566947515,-17843.878852851598,9451.6670611024,0.0001,0.0,-17843.8478724726,9451.535101044,0.0018084704,4.9712960974,0.0,0.0,1500,1500,40.043619484000004,-88.23558072200001,40.0437441667,-88.235559,0.0,0.0,0.0,0.0,0.0,0.0,0.0,0.0,0.0,0.0,0.0,192528,0.0,0.0,0.0,0.0,90.0,90.0,90.0,96.70254516600001,95.81127929690001,96.8298721313,49.2119979858,16.133571624800002,3.0199999808999998,0,2,25,1,98,9874
91,1530905133307,371307, RC,0,39.9586186,-88.445067899,0,-17843.856100265,9453.912143286801,20193.5547970125,-17843.8712518768,9451.6720463424,0.0001,0.0,-17843.8458732503,9451.5348209209,0.0016884029999999998,4.9715734483,0.0,0.0,1500,1500,40.0436195288,-88.23558081120001,40.0437441667,-88.235559,0.0,0.0,0.0,0.0,0.0,0.0,0.0,0.0,0.0,0.0,0.0,192528,0.0,0.0,0.0,0.0,90.0,90.0,90.0,96.70254516600001,95.81127929690001,96.8298721313,48.6740036011,16.133571624800002,3.0199999808999998,0,2,25,1,96,9875
92,1530905133358,371358, RC,0,39.9586186,-88.445067899,0,-17843.853794922,9453.9120988911,20193.5527391321,-17843.8712518768,9451.6720463424,0.0,0.0,-17843.8435679073,9451.5347765251,0.0013565345000000001,4.9717642225,0.0,0.0,1500,1500,40.0436195288,-88.23558081120001,40.0437441667,-88.235559,0.0,0.0,0.0,0.0,0.0,0.0,0.0,0.0,0.0,0.0,0.0,192528,0.0,0.0,0.0,0.0,90.0,90.0,90.0,96.70254516600001,95.81127929690001,96.8298721313,49.2119979858,16.133571624800002,3.0199999808999998,0,2,25,1,101,9877
93,1530905133408,371408, RC,0,39.9586186,-88.445067899,0,-17843.853794922,9453.9120988911,20193.5527391321,-17843.8688202072,9451.6755119179,0.0,0.0,-17843.8435679073,9451.5347765251,0.0013565345000000001,4.9717642225,0.0,0.0,1500,1500,40.04361956,-88.23558083969999,40.0437353333,-88.2355598333,0.0,0.0,0.0,0.0,0.0,0.0,0.0,0.0,0.0,0.0,0.0,192528,0.0,0.0,0.0,0.0,90.0,90.0,90.0,96.70254516600001,95.81127929690001,96.8298721313,49.2119979858,16.133571624800002,3.0199999808999998,0,2,25,1,96,9879
94,1530905133458,371458, RC,0,39.9586186,-88.445067899,0,-17843.8516504142,9453.9123937064,20193.5509821791,-17843.8688202072,9451.6755119179,0.0,0.0,-17843.8414233995,9451.5350713405,0.0009891212,4.9718952572,0.0,0.0,1500,1500,40.04361956,-88.23558083969999,40.0437353333,-88.2355598333,0.0,0.0,0.0,0.0,0.0,0.0,0.0,0.0,0.0,0.0,0.0,192528,0.0,0.0,0.0,0.0,90.0,90.0,90.0,96.70254516600001,95.81127929690001,96.8298721313,49.2119979858,16.133571624800002,3.0199999808999998,0,2,25,1,102,9880
95,1530905133509,371509, RC,0,39.9586186,-88.445067899,0,-17843.8516504142,9453.9123937064,20193.5509821791,-17843.8688202072,9451.6755119179,0.0,0.0,-17843.8414233995,9451.5350713405,0.0009891212,4.9718952572,0.0,0.0,1500,1500,40.04361956,-88.23558083969999,40.0437353333,-88.2355598333,0.0,0.0,0.0,0.0,0.0,0.0,0.0,0.0,0.0,0.0,0.0,192528,0.0,0.0,0.0,0.0,90.0,90.0,90.0,96.70254516600001,95.81127929690001,96.8298721313,49.2119979858,16.133571624800002,3.0199999808999998,0,2,25,1,100,9882
96,1530905133559,371559, RC,0,39.9586186,-88.445067899,0,-17843.849834296798,9453.912688395601,20193.549515346298,-17843.8673425538,9451.6765497363,0.0,0.0,-17843.839607282098,9451.5353660297,0.0005915126,4.9719739596,0.0,0.0,1500,1500,40.0436195693,-88.235580857,40.0437353333,-88.2355598333,0.0,0.0,0.0,0.0,0.0,0.0,0.0,0.0,0.0,0.0,0.0,192528,0.0,0.0,0.0,0.0,90.0,90.0,90.0,96.70254516600001,95.81127929690001,96.8298721313,49.2119979858,16.133571624800002,3.0199999808999998,0,2,25,1,100,9884
97,1530905133610,371610, RC,0,39.9586186,-88.445067899,0,-17843.849834296798,9453.912688395601,20193.549515346298,-17843.8676835082,9451.6763458794,0.0,0.0,-17843.839607282098,9451.5353660297,0.0005915126,4.9719739596,0.0,0.0,1500,1500,40.0436195675,-88.23558085299999,40.0437353333,-88.2355598333,0.0,0.0,0.0,0.0,0.0,0.0,0.0,0.0,0.0,0.0,0.0,192528,0.0,0.0,0.0,0.0,90.0,90.0,90.0,96.70254516600001,95.81127929690001,96.8298721313,49.2119979858,16.133571624800002,3.0199999808999998,0,2,25,1,105,9885
98,1530905133660,371660, RC,0,39.9586186,-88.445067899,0,-17843.8481607439,9453.913011085,20193.548187598102,-17843.8676835082,9451.6763458794,0.0,0.0,-17843.8379337292,9451.535688719101,0.0002207682,4.9720436769,0.0,0.0,1500,1500,40.0436195675,-88.23558085299999,40.0437353333,-88.2355598333,0.0,0.0,0.0,0.0,0.0,0.0,0.0,0.0,0.0,0.0,0.0,192528,0.0,0.0,0.0,0.0,90.0,90.0,90.0,96.70254516600001,95.81127929690001,96.8298721313,49.2119979858,16.133571624800002,3.0199999808999998,0,2,25,1,96,9887
99,1530905133710,371710, RC,0,39.9586186,-88.445067899,0,-17843.8481607439,9453.913011085,20193.548187598102,-17843.8723692391,9451.675586048199,0.0001,0.0,-17843.8379337292,9451.535688719101,0.0002207682,4.9720436769,0.0,0.0,1500,1500,40.0436195607,-88.23558079799999,40.0437353333,-88.2355598333,0.0,0.0,0.0,0.0,0.0,0.0,0.0,0.0,0.0,0.0,0.0,192528,0.0,0.0,0.0,0.0,90.0,90.0,90.0,96.70254516600001,95.81127929690001,96.8298721313,49.2119979858,16.133571624800002,3.0199999808999998,0,2,25,1,94,9889
100,1530905133761,371761, RC,0,39.9586186,-88.445067899,0,-17843.847360758202,9453.913307406801,20193.5476194254,-17843.8723692391,9451.675586048199,0.0,0.0,-17843.837133743502,9451.5359850409,-0.0,4.9720971956,0.0,0.0,1500,1500,40.0436195607,-88.23558079799999,40.0437353333,-88.2355598333,0.0,0.0,0.0,0.0,0.0,0.0,0.0,0.0,0.0,0.0,0.0,192528,0.0,0.0,0.0,0.0,90.0,90.0,90.0,96.70254516600001,95.81127929690001,96.8298721313,49.2119979858,16.133571624800002,3.0199999808999998,0,2,25,1,98,9890
101,1530905133811,371811, RC,0,39.9586186,-88.445067899,0,-17843.847360758202,9453.913307406801,20193.5476194254,-17843.874175218898,9451.6730100312,0.0,0.0,-17843.837133743502,9451.5359850409,-0.0,4.9720971956,0.0,0.0,1500,1500,40.0436195375,-88.2355807768,40.0437353333,-88.2355598333,0.0,0.0,0.0,0.0,0.0,0.0,0.0,0.0,0.0,0.0,0.0,192528,0.0,0.0,0.0,0.0,90.0,90.0,90.0,96.70254516600001,95.81127929690001,96.8298721313,49.2119979858,16.1526203156,2.9000000954000003,0,2,25,1,95,9892
102,1530905133862,371862, RC,0,39.9586186,-88.445067899,0,-17843.8473074637,9453.9132495244,20193.5475452337,-17843.874175218898,9451.6730100312,0.0,0.0,-17843.837080449,9451.5359271585,-0.0,4.9721085979,0.0,0.0,1500,1500,40.0436195375,-88.2355807768,40.0437353333,-88.2355598333,0.0,0.0,0.0,0.0,0.0,0.0,0.0,0.0,0.0,0.0,0.0,192528,0.0,0.0,0.0,0.0,90.0,90.0,90.0,96.70254516600001,95.81127929690001,96.8298721313,49.75,16.1526203156,2.9000000954000003,0,2,25,1,101,9894
103,1530905133912,371912, RC,0,39.9586186,-88.445067899,0,-17843.8473074637,9453.9132495244,20193.5475452337,-17843.8790603743,9451.6716756924,0.0,0.0,-17843.837080449,9451.5359271585,-0.0,4.9721085979,0.0,0.0,1500,1500,40.0436195255,-88.2355807195,40.0437353333,-88.2355598333,0.0,0.0,0.0,0.0,0.0,0.0,0.0,0.0,0.0,0.0,0.0,192528,0.0,0.0,0.0,0.0,90.0,90.0,90.0,96.70254516600001,95.81127929690001,96.8298721313,49.75,16.1526203156,2.9000000954000003,0,2,25,1,103,9895
104,1530905133962,371962, RC,0,39.9586186,-88.445067899,0,-17843.8477600788,9453.9130839098,20193.547867648,-17843.8790603743,9451.6716756924,0.0,0.0,-17843.8375330641,9451.5357615439,0.0,4.9721326827,0.0,0.0,1500,1500,40.0436195255,-88.2355807195,40.0437353333,-88.2355598333,0.0,0.0,0.0,0.0,0.0,0.0,0.0,0.0,0.0,0.0,0.0,192528,0.0,0.0,0.0,0.0,90.0,90.0,90.0,96.70254516600001,95.81127929690001,96.8298721313,49.2119979858,16.1526203156,2.9000000954000003,0,2,25,1,100,9897
105,1530905134013,372013, RC,0,39.9586186,-88.445067899,0,-17843.8477600788,9453.9130839098,20193.547867648,-17843.8873644207,9451.6724355243,0.0001,0.0,-17843.8375330641,9451.5357615439,0.0,4.9721326827,0.0,0.0,1500,1500,40.0436195323,-88.23558062200001,40.0437353333,-88.2355598333,0.0,0.0,0.0,0.0,0.0,0.0,0.0,0.0,0.0,0.0,0.0,192528,0.0,0.0,0.0,0.0,90.0,90.0,90.0,96.70254516600001,95.81127929690001,96.8298721313,49.2119979858,16.1526203156,2.9000000954000003,0,2,25,1,91,9899
106,1530905134063,372063, RC,0,39.9586186,-88.445067899,0,-17843.8489022439,9453.912931200799,20193.548805418897,-17843.8873644207,9451.6724355243,0.0,0.0,-17843.8386752292,9451.5356088349,0.0,4.9721825789,0.0,0.0,1500,1500,40.0436195323,-88.23558062200001,40.0437353333,-88.2355598333,0.0,0.0,0.0,0.0,0.0,0.0,0.0,0.0,0.0,0.0,0.0,192528,0.0,0.0,0.0,0.0,90.0,90.0,90.0,96.70254516600001,95.81127929690001,96.8298721313,49.75,16.1526203156,2.9000000954000003,0,2,25,1,88,9900
107,1530905134114,372114, RC,0,39.9586186,-88.445067899,0,-17843.8489022439,9453.912931200799,20193.548805418897,-17843.8873644207,9451.6724355243,0.0,0.0,-17843.8386752292,9451.5356088349,0.0,4.9721825789,0.0,0.0,1500,1500,40.0436195323,-88.23558062200001,40.0437353333,-88.2355598333,0.0,0.0,0.0,0.0,0.0,0.0,0.0,0.0,0.0,0.0,0.0,192528,0.0,0.0,0.0,0.0,90.0,90.0,90.0,96.70254516600001,95.81127929690001,96.8298721313,49.75,16.1526203156,2.9000000954000003,0,2,25,1,102,9902
108,1530905134164,372164, RC,0,39.9586186,-88.445067899,0,-17843.8489022439,9453.912931200799,20193.548805418897,-17843.8873644207,9451.6724355243,0.0,0.0,-17843.8386752292,9451.5356088349,0.0,4.9721825789,0.0,0.0,1500,1500,40.0436195323,-88.23558062200001,40.0437353333,-88.2355598333,0.0,0.0,0.0,0.0,0.0,0.0,0.0,0.0,0.0,0.0,0.0,192528,0.0,0.0,0.0,0.0,90.0,90.0,90.0,96.70254516600001,95.81127929690001,96.8298721313,49.2119979858,16.1526203156,2.9000000954000003,0,2,25,1,105,9904
109,1530905134215,372215, RC,0,39.9586186,-88.445067899,0,-17843.8501717167,9453.9129345052,20193.5499287242,-17843.897943125,9451.6704525483,0.0,0.0,-17843.839944702,9451.5356121393,-0.0,4.9723404869,0.0,0.0,1500,1500,40.0436195145,-88.2355804978,40.0437353333,-88.2355598333,0.0,0.0,0.0,0.0,0.0,0.0,0.0,0.0,0.0,0.0,0.0,192529,0.0,0.0,0.0,0.0,90.0,90.0,90.0,96.70254516600001,95.81127929690001,96.8298721313,49.2119979858,16.1526203156,2.9000000954000003,0,2,25,1,101,9905
110,1530905134265,372265, RC,0,39.9586186,-88.445067899,0,-17843.8518165094,9453.9128739401,20193.5513537762,-17843.9054000012,9451.6672834926,0.0,0.0,-17843.8415894947,9451.535551574201,-0.0,4.9725431242,0.0,0.0,1500,1500,40.043619486,-88.2355804103,40.0437353333,-88.2355598333,0.0,0.0,0.0,0.0,0.0,0.0,0.0,0.0,0.0,0.0,0.0,192529,0.0,0.0,0.0,0.0,90.0,90.0,90.0,96.70254516600001,95.81127929690001,96.8298721313,49.2119979858,16.1526203156,2.9000000954000003,0,2,25,1,95,9907
111,1530905134315,372315, RC,0,39.9586186,-88.445067899,0,-17843.8544263618,9453.9126110542,20193.5535368751,-17843.9164338201,9451.6645962816,0.0,0.0,-17843.8441993471,9451.5352886883,0.0,4.9727680562,0.0,0.0,1500,1500,40.0436194618,-88.2355802808,40.0437353333,-88.2355598333,0.0,0.0,0.0,0.0,0.0,0.0,0.0,0.0,0.0,0.0,0.0,192529,0.0,0.0,0.0,0.0,90.0,90.0,90.0,96.70254516600001,95.81127929690001,96.8298721313,49.2119979858,16.1526203156,2.9000000954000003,0,2,25,1,97,9909
112,1530905134367,372367, RC,0,39.9586186,-88.445067899,0,-17843.8544263618,9453.9126110542,20193.5535368751,-17843.9164338201,9451.6645962816,0.0,0.0,-17843.8441993471,9451.5352886883,0.0,4.9727680562,0.0,0.0,1500,1500,40.0436194618,-88.2355802808,40.0437353333,-88.2355598333,0.0,0.0,0.0,0.0,0.0,0.0,0.0,0.0,0.0,0.0,0.0,192529,0.0,0.0,0.0,0.0,90.0,90.0,90.0,96.70254516600001,95.81127929690001,96.8298721313,49.2119979858,16.1526203156,2.9000000954000003,0,2,25,1,96,9910
113,1530905134417,372417, RC,0,39.9586186,-88.445067899,0,-17843.8575272114,9453.9124078194,20193.556181766002,-17843.9249938834,9451.6649483991,0.0,0.0,-17843.8473001967,9451.535085453499,-0.0,4.9730145592,0.0,0.0,1500,1500,40.043619465,-88.2355801803,40.0437353333,-88.2355598333,0.0,0.0,0.0,0.0,0.0,0.0,0.0,0.0,0.0,0.0,0.0,192529,0.0,0.0,0.0,0.0,90.0,90.0,90.0,96.70254516600001,95.81127929690001,96.8298721313,49.2119979858,16.1526203156,2.9000000954000003,0,2,25,1,104,9912
114,1530905134468,372468, RC,0,39.9586186,-88.445067899,0,-17843.8575272114,9453.9124078194,20193.556181766002,-17843.9249938834,9451.6649483991,0.0,0.0,-17843.8473001967,9451.535085453499,-0.0,4.9730145592,0.0,0.0,1500,1500,40.043619465,-88.2355801803,40.0437325,-88.2355581667,0.0,0.0,0.0,0.0,0.0,0.0,0.0,0.0,0.0,0.0,0.0,192529,0.0,0.0,0.0,0.0,90.0,90.0,90.0,96.70254516600001,95.81127929690001,96.8298721313,49.2119979858,16.1526203156,2.9000000954000003,0,2,25,1,80,9914
115,1530905134518,372518, RC,0,39.9586186,-88.445067899,0,-17843.8575272114,9453.9124078194,20193.556181766002,-17843.9270491256,9451.6677097403,0.0001,0.0,-17843.8473001967,9451.535085453499,-0.0,4.9730145592,0.0,0.0,1500,1500,40.0436194898,-88.23558015620002,40.0437325,-88.2355581667,0.0,0.0,0.0,0.0,0.0,0.0,0.0,0.0,0.0,0.0,0.0,192529,0.0,0.0,0.0,0.0,90.0,90.0,90.0,96.70254516600001,95.81127929690001,96.8298721313,49.2119979858,16.1526203156,2.9000000954000003,0,2,25,1,82,9915
116,1530905134568,372568, RC,0,39.9586186,-88.445067899,0,-17843.8606892975,9453.9125648978,20193.5590494541,-17843.9270491256,9451.6677097403,0.0,0.0,-17843.8504622828,9451.5352425319,-0.0,4.9732399332,0.0,0.0,1500,1500,40.0436194898,-88.23558015620002,40.0437325,-88.2355581667,0.0,0.0,0.0,0.0,0.0,0.0,0.0,0.0,0.0,0.0,0.0,192529,0.0,0.0,0.0,0.0,90.0,90.0,90.0,96.70254516600001,95.81127929690001,96.8298721313,49.2119979858,16.1526203156,2.9000000954000003,0,2,25,1,100,9917
