,(0)linux time (ms),    (1)uptime  (ms),      (2)drive mode,(3)mpc step counter,(4)mpc origin latitude  (deg),(5)mpc origin longitude  (deg),(6)closest trajectory point index to robot,(7)mpc error x (W;E)  (m),(8)mpc error y (W;E)  (m),(9)abs mpc error (m),(10)input [x] for mhe (m),(11)input [y] for mhe (m),(12)input [speed] for mhe (m/s),(13)input [vyaw] for mhe (rad/s),(14)mhe output x  (m),(15)mhe output y  (m),(16)mhe output speed  (m/s),(17)mhe output yaw  (rad),(18)mpc reference heading (rad),(19)mpc turn rate command (rad/s),(20)turn rate command as PWM,(21)throttle command as PWM,(22)primary gps latitude (deg),(23)primary gps longitude (deg),(24)secondary gps latitude  (deg),(25)secondary gps longitude (deg),(26)accelerometer x (m/s^2),(27)accelerometer y (m/s^2),(28)accelerometer z (m/s^2),(29)gyro yaw rate (rad/s),(30)gyro pitch rate   (rad/s),(31)gyro roll rate (rad/s),      (32)yaw (rad),  (33)pitch   (rad),     (34)roll (rad),(35)sonar1 measurement (m),(36)ultrasonic sensor measurement (m),(37)primary gps time (s),(38)normalized turn rate command,(39)normalized throttle command,(40)speed calculation from encoder left (m/s),(41)speed calculation from encoder right (m/s),(42)front gimbal target angle (degrees from straight down),(43)left gimbal target angle  (degrees from straight down),(44)right gimbal target angle  (degrees from straight down),(45)front gimbal measured angle  (degrees from straight down),(46)left gimbal measured angle    (degrees from straight down),(47)right gimbal measured angle  (degrees from straight down),(48)internal temperature (C),(49)battery voltage (V),(50)primary gps type,(51)secondary gps type,    (52)MPC R value, (53)MPC Q[0] value,Unnamed: 54,weed_num,start
0,1530572480254,71254, RC,0,39.9586186,-88.445067899,0,0.0,0.0,0.0,0.0,0.0,0.3159066439,0.0,0.0,0.0,0.0,0.0,0.0,0.0,1500,1500,0.0,0.0,40.0636528333,-88.2016453333,0.0,0.0,0.0,0.0,0.0,0.0,0.0,0.0,0.0,0.0,0.0,0,0.0,0.0,0.3980331421,0.2337801158,90.0,90.0,90.0,89.3814163208,90.0816955566,88.681137085,44.3690032959,16.258728027300002,27.770000457800002,0,2,25,1,138,1280
1,1530572480305,71305, RC,0,39.9586186,-88.445067899,0,0.0,0.0,0.0,0.0,0.0,0.233228296,0.0,0.0,0.0,0.0,0.0,0.0,0.0,1500,1500,0.0,0.0,40.0636528333,-88.2016453333,0.0,0.0,0.0,0.0,0.0,0.0,0.0,0.0,0.0,0.0,0.0,0,0.0,0.0,0.2963176668,0.1701389402,90.0,90.0,90.0,89.6997299194,90.01803588870001,88.8084564209,44.3690032959,16.258728027300002,27.770000457800002,0,2,25,1,148,1282
2,1530572480355,71355, RC,0,39.9586186,-88.445067899,0,0.0,0.0,0.0,0.0,0.0,0.1710586101,0.0,0.0,0.0,0.0,0.0,0.0,0.0,1500,1500,0.0,0.0,40.0636528333,-88.2016453333,0.0,0.0,0.0,0.0,0.0,0.0,0.0,0.0,0.0,0.0,0.0,0,0.0,0.0,0.2198011279,0.1223160997,90.0,90.0,90.0,89.7633895874,90.3363494873,88.55381011959999,44.3690032959,16.258728027300002,27.770000457800002,0,2,25,1,161,1284
3,1530572480406,71406, RC,0,39.9586186,-88.445067899,0,0.0,0.0,0.0,0.0,0.0,0.1379504949,0.0,0.0,0.0,0.0,0.0,0.0,0.0,1500,1500,0.0,0.0,40.0636528333,-88.2016453333,0.0,0.0,0.0,0.0,0.0,0.0,0.0,0.0,0.0,0.0,0.0,0,0.0,0.0,0.1795195788,0.096381411,90.0,90.0,90.0,89.7633895874,90.2726821899,88.4901504517,44.3690032959,16.258728027300002,27.770000457800002,0,2,25,1,148,1287
4,1530572480456,71456, RC,0,39.9586186,-88.445067899,0,0.0,0.0,0.0,0.0,0.0,0.1115559638,0.0,0.0,0.0,0.0,0.0,0.0,0.0,1500,1500,0.0,0.0,40.0636528333,-88.2016453333,0.0,0.0,0.0,0.0,0.0,0.0,0.0,0.0,0.0,0.0,0.0,0,0.0,0.0,0.1465953887,0.0765165389,90.0,90.0,90.0,89.63606262209998,89.8907089233,88.74479675290002,44.3690032959,16.258728027300002,27.770000457800002,0,2,25,1,158,1289
5,1530572480507,71507, RC,0,39.9586186,-88.445067899,0,0.0,0.0,0.0,0.0,0.0,0.0797353834,0.0,0.0,0.0,0.0,0.0,0.0,0.0,1500,1500,0.0,0.0,40.0636528333,-88.2016453333,0.0,0.0,0.0,0.0,0.0,0.0,0.0,0.0,0.0,0.0,0.0,0,0.0,0.0,0.1085210517,0.0509497151,90.0,90.0,90.0,89.5724029541,89.6997299194,88.93578338620001,44.3690032959,16.258728027300002,27.770000457800002,0,2,25,1,150,1291
6,1530572480558,71558, RC,0,39.9586186,-88.445067899,0,0.0,0.0,0.0,0.0,0.0,0.0629973933,0.0,0.0,0.0,0.0,0.0,0.0,0.0,1500,1500,0.0,0.0,40.0636528333,-88.2016453333,0.0,0.0,0.0,0.0,0.0,0.0,0.0,0.0,0.0,0.0,0.0,0,0.0,0.0,0.08865617960000001,0.0373386033,90.0,90.0,90.0,89.44507598879999,89.5724029541,89.3814163208,44.3690032959,16.258728027300002,27.770000457800002,0,2,25,1,158,1294
7,1530572480608,71608, RC,0,39.9586186,-88.445067899,0,0.0,0.0,0.0,0.0,0.0,0.044512025999999996,0.0,0.0,0.0,0.0,0.0,0.0,0.0,1500,1500,0.0,0.0,40.0636528333,-88.2016453333,0.0,0.0,0.0,0.0,0.0,0.0,0.0,0.0,0.0,0.0,0.0,0,0.0,0.0,0.0658483654,0.0231756829,90.0,90.0,90.0,89.3177566528,89.6997299194,89.44507598879999,44.3690032959,16.258728027300002,27.770000457800002,0,2,25,1,145,1296
8,1530572480659,71659, RC,0,39.9586186,-88.445067899,0,0.0,0.0,0.0,0.0,0.0,0.0315446779,0.0,0.0,0.0,0.0,0.0,0.0,0.0,1500,1500,0.0,0.0,40.0636528333,-88.2016453333,0.0,0.0,0.0,0.0,0.0,0.0,0.0,0.0,0.0,0.0,0.0,0,0.0,0.0,0.0500300452,0.013059313400000001,90.0,90.0,90.0,89.1904296875,89.5087432861,89.5724029541,44.3690032959,16.258728027300002,27.770000457800002,0,2,25,1,165,1298
9,1530572480709,71709, RC,0,39.9586186,-88.445067899,0,0.0,0.0,0.0,0.0,0.0,0.0247391239,0.0,0.0,0.0,0.0,0.0,0.0,0.0,1500,1500,0.0,0.0,40.0636528333,-88.2016453333,0.0,0.0,0.0,0.0,0.0,0.0,0.0,0.0,0.0,0.0,0.0,0,0.0,0.0,0.0410172828,0.008460964100000001,90.0,90.0,90.0,89.1904296875,89.3814163208,89.6997299194,44.3690032959,16.258728027300002,27.770000457800002,0,2,25,1,148,1300
10,1530572480760,71760, RC,0,39.9586186,-88.445067899,0,0.0,0.0,0.0,0.0,0.0,0.0167379938,0.0,0.0,0.0,0.0,0.0,0.0,0.0,1500,1500,0.0,0.0,40.0636528333,-88.2016453333,0.0,0.0,0.0,0.0,0.0,0.0,0.0,0.0,0.0,0.0,0.0,0,0.0,0.0,0.030716976200000003,0.0027590097999999996,90.0,90.0,90.0,89.82704925540001,89.3177566528,89.7633895874,44.3690032959,16.269657135,2.7999999523000003,0,2,25,1,141,1303
11,1530572480810,71810, RC,0,39.9586186,-88.445067899,0,0.0,0.0,0.0,0.0,0.0,0.013059313400000001,0.0,0.0,0.0,0.0,0.0,0.0,0.0,1500,1500,0.0,0.0,40.0636528333,-88.2016453333,0.0,0.0,0.0,0.0,0.0,0.0,0.0,0.0,0.0,0.0,0.0,0,0.0,0.0,0.025382891299999998,0.0007357360000000001,90.0,90.0,90.0,89.7633895874,89.25408935549999,89.82704925540001,44.3690032959,16.269657135,2.7999999523000003,0,2,25,1,159,1305
12,1530572480861,71861, RC,0,39.9586186,-88.445067899,0,0.0,0.0,0.0,0.0,0.0,0.0081850626,0.0,0.0,0.0,0.0,0.0,0.0,0.0,1500,1500,0.0,0.0,40.0636528333,-88.2016453333,0.0,0.0,0.0,0.0,0.0,0.0,0.0,0.0,0.0,0.0,0.0,0,0.0,0.0,0.0182094648,-0.0018393398,90.0,90.0,90.0,89.6997299194,89.5087432861,89.8907089233,44.3690032959,16.269657135,2.7999999523000003,0,2,25,1,152,1307
13,1530572480912,71912, RC,0,39.9586186,-88.445067899,0,0.0,0.0,0.0,0.0,0.0,0.005701954,0.0,0.0,0.0,0.0,0.0,0.0,0.0,1500,1500,0.0,0.0,40.0636515,-88.2016483333,0.0,0.0,0.0,0.0,0.0,0.0,0.0,0.0,0.0,0.0,0.0,0,0.0,0.0,0.014346852,-0.0029429439000000003,90.0,90.0,90.0,89.63606262209998,89.63606262209998,89.8907089233,44.3690032959,16.269657135,2.7999999523000003,0,2,25,1,141,1310
14,1530572480962,71962, RC,0,39.9586186,-88.445067899,0,0.0,0.0,0.0,0.0,0.0,0.0031268778000000004,0.0,0.0,0.0,0.0,0.0,0.0,0.0,1500,1500,0.0,0.0,40.0636515,-88.2016483333,0.0,0.0,0.0,0.0,0.0,0.0,0.0,0.0,0.0,0.0,0.0,0,0.0,0.0,0.0099324351,-0.0036786796999999996,90.0,90.0,90.0,89.5724029541,89.63606262209998,89.8907089233,44.3690032959,16.269657135,2.7999999523000003,0,2,25,1,137,1312
15,1530572481013,72013, RC,0,39.9586186,-88.445067899,0,0.0,0.0,0.0,0.0,0.0,0.0012875381,0.0,0.0,0.0,0.0,0.0,0.0,0.0,1500,1500,0.0,0.0,40.0636515,-88.2016483333,0.0,0.0,0.0,0.0,0.0,0.0,0.0,0.0,0.0,0.0,0.0,0,0.0,0.0,0.007173426,-0.0045983498,90.0,90.0,90.0,89.5087432861,89.5724029541,89.8907089233,44.3690032959,16.269657135,2.7999999523000003,0,2,25,1,135,1314
16,1530572481063,72063, RC,0,39.9586186,-88.445067899,0,0.0,0.0,0.0,0.0,0.0,0.0001839341,0.0,0.0,0.0,0.0,0.0,0.0,0.0,1500,1500,0.0,0.0,40.0636515,-88.2016483333,0.0,0.0,0.0,0.0,0.0,0.0,0.0,0.0,0.0,0.0,0.0,0,0.0,0.0,0.0053340858,-0.0049662176,90.0,90.0,90.0,89.5087432861,89.5724029541,89.8907089233,44.3690032959,16.269657135,2.7999999523000003,0,2,25,1,145,1317
17,1530572481114,72114, RC,0,39.9586186,-88.445067899,0,0.0,0.0,0.0,0.0,0.0,0.00018393389999999998,0.0,0.0,0.0,0.0,0.0,0.0,0.0,1500,1500,0.0,0.0,40.0636515,-88.2016483333,0.0,0.0,0.0,0.0,0.0,0.0,0.0,0.0,0.0,0.0,0.0,0,0.0,0.0,0.0044144159,-0.0047822837,90.0,90.0,90.0,89.5087432861,89.5724029541,89.8907089233,44.3690032959,16.269657135,2.7999999523000003,0,2,25,1,132,1319
18,1530572481164,72164, RC,0,39.9586186,-88.445067899,0,0.0,0.0,0.0,0.0,0.0,0.0011955709,0.0,0.0,0.0,0.0,0.0,0.0,0.0,1500,1500,0.0,0.0,40.0636515,-88.2016483333,0.0,0.0,0.0,0.0,0.0,0.0,0.0,0.0,0.0,0.0,0.0,0,0.0,0.0,0.0033108116999999997,-0.0057019535,90.0,90.0,90.0,89.44507598879999,89.5087432861,89.9543762207,44.3690032959,16.269657135,2.7999999523000003,0,2,25,1,129,1321
19,1530572481215,72215, RC,0,39.9586186,-88.445067899,0,0.0,0.0,0.0,0.0,0.0,0.0020232738,0.0,0.0,0.0,0.0,0.0,0.0,0.0,1500,1500,0.0,0.0,40.0636515,-88.2016483333,0.0,0.0,0.0,0.0,0.0,0.0,0.0,0.0,0.0,0.0,0.0,0,0.0,0.0,0.0023911418,-0.0064376895,90.0,90.0,90.0,89.3814163208,89.44507598879999,90.01803588870001,44.3690032959,16.269657135,2.7999999523000003,0,2,25,1,128,1324
20,1530572481265,72265, RC,0,39.9586186,-88.445067899,0,0.0,0.0,0.0,0.0,0.0,0.0022991749,0.0,0.0,0.0,0.0,0.0,0.0,0.0,1500,1500,0.0,0.0,40.0636515,-88.2016483333,0.0,0.0,0.0,0.0,0.0,0.0,0.0,0.0,0.0,0.0,0.0,0,0.0,0.0,0.0009196699,-0.0055180197,90.0,90.0,90.0,89.3177566528,89.3814163208,90.01803588870001,44.3690032959,16.269657135,2.7999999523000003,0,2,25,1,143,1326
21,1530572481316,72316, RC,0,39.9586186,-88.445067899,0,0.0,0.0,0.0,0.0,0.0,0.0028509768,0.0,0.0,0.0,0.0,0.0,0.0,0.0,1500,1500,0.0,0.0,40.0636515,-88.2016483333,0.0,0.0,0.0,0.0,0.0,0.0,0.0,0.0,0.0,0.0,0.0,0,0.0,0.0,0.0,-0.0057019535,90.0,90.0,90.0,89.3177566528,89.3814163208,90.01803588870001,44.3690032959,16.269657135,2.7999999523000003,0,2,25,1,149,1328
22,1530572481367,72367, RC,0,39.9586186,-88.445067899,0,0.0,0.0,0.0,0.0,0.0,0.0033108116999999997,0.0,0.0,0.0,0.0,0.0,0.0,0.0,1500,1500,0.0,0.0,40.0636515,-88.2016483333,0.0,0.0,0.0,0.0,0.0,0.0,0.0,0.0,0.0,0.0,0.0,0,0.0,0.0,-0.001103604,-0.0055180197,90.0,90.0,90.0,89.3814163208,89.3814163208,90.01803588870001,44.3690032959,16.269657135,2.7999999523000003,0,2,25,1,140,1331
23,1530572481417,72417, RC,0,39.9586186,-88.445067899,0,0.0,0.0,0.0,0.0,0.0,0.0034947458000000003,0.0,0.0,0.0,0.0,0.0,0.0,0.0,1500,1500,0.0,0.0,40.0636515,-88.2016483333,0.0,0.0,0.0,0.0,0.0,0.0,0.0,0.0,0.0,0.0,0.0,0,0.0,0.0,-0.0016554058999999999,-0.0053340858,90.0,90.0,90.0,89.3177566528,89.44507598879999,90.01803588870001,44.3690032959,16.269657135,2.7999999523000003,0,2,25,1,137,1333
24,1530572481468,72468, RC,0,39.9586186,-88.445067899,0,0.0,0.0,0.0,0.0,0.0,0.0030349107000000003,0.0,0.0,0.0,0.0,0.0,0.0,0.0,1500,1500,0.0,0.0,40.0636515,-88.2016483333,0.0,0.0,0.0,0.0,0.0,0.0,0.0,0.0,0.0,0.0,0.0,0,0.0,0.0,-0.0020232738,-0.0040465477,90.0,90.0,90.0,89.3177566528,89.44507598879999,90.01803588870001,44.3690032959,16.269657135,2.7999999523000003,0,2,25,1,149,1335
25,1530572481518,72518, RC,0,39.9586186,-88.445067899,0,0.0,0.0,0.0,0.0,0.0,0.0035867128000000004,0.0,0.0,0.0,0.0,0.0,0.0,0.0,1500,1500,0.0,0.0,40.0636515,-88.2016483333,0.0,0.0,0.0,0.0,0.0,0.0,0.0,0.0,0.0,0.0,0.0,0,0.0,0.0,-0.002575076,-0.0045983498,90.0,90.0,90.0,89.3177566528,89.44507598879999,90.01803588870001,44.3690032959,16.269657135,2.7999999523000003,0,2,25,1,131,1338
26,1530572481569,72569, RC,0,39.9586186,-88.445067899,0,0.0,0.0,0.0,0.0,0.0,0.0027590097999999996,0.0,0.0,0.0,0.0,0.0,0.0,0.0,1500,1500,0.0,0.0,40.0636515,-88.2016483333,0.0,0.0,0.0,0.0,0.0,0.0,0.0,0.0,0.0,0.0,0.0,0,0.0,0.0,-0.0018393398,-0.0036786796999999996,90.0,90.0,90.0,89.3814163208,89.44507598879999,89.9543762207,44.3690032959,16.269657135,2.7999999523000003,0,2,25,1,142,1340
27,1530572481619,72619, RC,0,39.9586186,-88.445067899,0,0.0,0.0,0.0,0.0,0.0,0.0022991749,0.0,0.0,0.0,0.0,0.0,0.0,0.0,1500,1500,0.0,0.0,40.0636515,-88.2016483333,0.0,0.0,0.0,0.0,0.0,0.0,0.0,0.0,0.0,0.0,0.0,0,0.0,0.0,-0.0014714720000000001,-0.0031268778000000004,90.0,90.0,90.0,89.3177566528,89.44507598879999,89.9543762207,44.3690032959,16.269657135,2.7999999523000003,0,2,25,1,132,1342
28,1530572481670,72670, RC,0,39.9586186,-88.445067899,0,0.0,0.0,0.0,0.0,0.0,0.001655406,0.0,0.0,0.0,0.0,0.0,0.0,0.0,1500,1500,0.0,0.0,40.0636515,-88.2016483333,0.0,0.0,0.0,0.0,0.0,0.0,0.0,0.0,0.0,0.0,0.0,0,0.0,0.0,-0.001103604,-0.002207208,90.0,90.0,90.0,89.3177566528,89.44507598879999,89.9543762207,44.3690032959,16.269657135,2.7999999523000003,0,2,25,1,130,1344
29,1530572481721,72721, RC,0,39.9586186,-88.445067899,0,0.0,0.0,0.0,0.0,0.0,0.0013795048999999998,0.0,0.0,0.0,0.0,0.0,0.0,0.0,1500,1500,0.0,0.0,40.0636515,-88.2016483333,0.0,0.0,0.0,0.0,0.0,0.0,0.0,0.0,0.0,0.0,0.0,0,0.0,0.0,-0.0009196699,-0.0018393398,90.0,90.0,90.0,89.3177566528,89.44507598879999,89.9543762207,44.3690032959,16.277648925799998,2.0199999809,0,2,25,1,134,1347
30,1530572481771,72771, RC,0,39.9586186,-88.445067899,0,0.0,0.0,0.0,0.0,0.0,0.001103604,0.0,0.0,0.0,0.0,0.0,0.0,0.0,1500,1500,0.0,0.0,40.0636515,-88.2016483333,0.0,0.0,0.0,0.0,0.0,0.0,0.0,0.0,0.0,0.0,0.0,0,0.0,0.0,-0.0007357360000000001,-0.0014714720000000001,90.0,90.0,90.0,89.3177566528,89.44507598879999,89.9543762207,44.3690032959,16.277648925799998,2.0199999809,0,2,25,1,129,1349
31,1530572481822,72822, RC,0,39.9586186,-88.445067899,0,0.0,0.0,0.0,0.0,0.0,0.000827703,0.0,0.0,0.0,0.0,0.0,0.0,0.0,1500,1500,0.0,0.0,40.0636515,-88.2016483333,0.0,0.0,0.0,0.0,0.0,0.0,0.0,0.0,0.0,0.0,0.0,0,0.0,0.0,-0.000551802,-0.001103604,90.0,90.0,90.0,89.3177566528,89.44507598879999,89.8907089233,44.3690032959,16.277648925799998,2.0199999809,0,2,25,1,134,1351
32,1530572481872,72872, RC,0,39.9586186,-88.445067899,0,0.0,0.0,0.0,0.0,0.0,0.0006437689,0.0,0.0,0.0,0.0,0.0,0.0,0.0,1500,1500,0.0,0.0,40.0636515,-88.2016483333,0.0,0.0,0.0,0.0,0.0,0.0,0.0,0.0,0.0,0.0,0.0,0,0.0,0.0,-0.00036786800000000004,-0.0009196699,90.0,90.0,90.0,89.25408935549999,89.44507598879999,89.8907089233,44.3690032959,16.277648925799998,2.0199999809,0,2,25,1,133,1354
33,1530572481923,72923, RC,0,39.9586186,-88.445067899,0,0.0,0.0,0.0,0.0,0.0,0.000551802,0.0,0.0,0.0,0.0,0.0,0.0,0.0,1500,1500,0.0,0.0,40.0636515,-88.2016483333,0.0,0.0,0.0,0.0,0.0,0.0,0.0,0.0,0.0,0.0,0.0,0,0.0,0.0,-0.00036786800000000004,-0.0007357360000000001,90.0,90.0,90.0,89.25408935549999,89.44507598879999,89.8907089233,44.3690032959,16.277648925799998,2.0199999809,0,2,25,1,130,1356
34,1530572481974,72974, RC,0,39.9586186,-88.445067899,0,0.0,0.0,0.0,0.0,0.0,0.000459835,0.0,0.0,0.0,0.0,0.0,0.0,0.0,1500,1500,0.0,0.0,40.063654,-88.2016455,0.0,0.0,0.0,0.0,0.0,0.0,0.0,0.0,0.0,0.0,0.0,0,0.0,0.0,-0.00036786800000000004,-0.000551802,90.0,90.0,90.0,89.25408935549999,89.44507598879999,89.8907089233,44.3690032959,16.277648925799998,2.0199999809,0,2,25,1,138,1359
35,1530572482024,73024, RC,0,39.9586186,-88.445067899,0,0.0,0.0,0.0,0.0,0.0,0.000459835,0.0,0.0,0.0,0.0,0.0,0.0,0.0,1500,1500,0.0,0.0,40.063654,-88.2016455,0.0,0.0,0.0,0.0,0.0,0.0,0.0,0.0,0.0,0.0,0.0,0,0.0,0.0,-0.00036786800000000004,-0.000551802,90.0,90.0,90.0,89.25408935549999,89.5087432861,89.82704925540001,44.3690032959,16.277648925799998,2.0199999809,0,2,25,1,144,1361
36,1530572482075,73075, RC,0,39.9586186,-88.445067899,0,0.0,0.0,0.0,0.0,0.0,0.000459835,0.0,0.0,0.0,0.0,0.0,0.0,0.0,1500,1500,0.0,0.0,40.063654,-88.2016455,0.0,0.0,0.0,0.0,0.0,0.0,0.0,0.0,0.0,0.0,0.0,0,0.0,0.0,-0.00036786800000000004,-0.000551802,90.0,90.0,90.0,89.1904296875,89.5087432861,89.82704925540001,43.293998718299996,16.277648925799998,2.0199999809,0,2,25,1,141,1363
37,1530572482125,73125, RC,0,39.9586186,-88.445067899,0,0.0,0.0,0.0,0.0,0.0,0.000459835,0.0,0.0,0.0,0.0,0.0,0.0,0.0,1500,1500,0.0,0.0,40.063654,-88.2016455,0.0,0.0,0.0,0.0,0.0,0.0,0.0,0.0,0.0,0.0,0.0,0,0.0,0.0,-0.00036786800000000004,-0.000551802,90.0,90.0,90.0,89.3814163208,89.44507598879999,89.82704925540001,43.293998718299996,16.277648925799998,2.0199999809,0,2,25,1,133,1365
38,1530572482176,73176, RC,0,39.9586186,-88.445067899,0,0.0,0.0,0.0,0.0,0.0,0.000459835,0.0,0.0,0.0,0.0,0.0,0.0,0.0,1500,1500,0.0,0.0,40.063654,-88.2016455,0.0,0.0,0.0,0.0,0.0,0.0,0.0,0.0,0.0,0.0,0.0,0,0.0,0.0,-0.00036786800000000004,-0.000551802,90.0,90.0,90.0,89.9543762207,89.5087432861,89.82704925540001,43.293998718299996,16.277648925799998,2.0199999809,0,2,25,1,136,1368
39,1530572482227,73227, RC,0,39.9586186,-88.445067899,0,0.0,0.0,0.0,0.0,0.0,0.000459835,0.0,0.0,0.0,0.0,0.0,0.0,0.0,1500,1500,0.0,0.0,40.063654,-88.2016455,0.0,0.0,0.0,0.0,0.0,0.0,0.0,0.0,0.0,0.0,0.0,0,0.0,0.0,-0.00036786800000000004,-0.000551802,90.0,90.0,90.0,90.01803588870001,89.5087432861,89.82704925540001,43.293998718299996,16.277648925799998,2.0199999809,0,2,25,1,142,1370
40,1530572482277,73277, RC,0,39.9586186,-88.445067899,0,0.0,0.0,0.0,0.0,0.0,0.000459835,0.0,0.0,0.0,0.0,0.0,0.0,0.0,1500,1500,0.0,0.0,40.063654,-88.2016455,0.0,0.0,0.0,0.0,0.0,0.0,0.0,0.0,0.0,0.0,0.0,0,0.0,0.0,-0.00036786800000000004,-0.000551802,90.0,90.0,90.0,89.9543762207,89.5087432861,89.7633895874,43.293998718299996,16.277648925799998,2.0199999809,0,2,25,1,140,1373
41,1530572482328,73328, RC,0,39.9586186,-88.445067899,0,0.0,0.0,0.0,0.0,0.0,0.0,0.0,0.0,0.0,0.0,0.0,0.0,0.0,1500,1500,0.0,0.0,40.063654,-88.2016455,0.0,0.0,0.0,0.0,0.0,0.0,0.0,0.0,0.0,0.0,0.0,0,0.0,0.0,0.0,0.0,90.0,90.0,90.0,89.9543762207,89.5087432861,89.7633895874,43.293998718299996,16.277648925799998,2.0199999809,0,2,25,1,149,1375
42,1530572482378,73378, RC,0,39.9586186,-88.445067899,0,0.0,0.0,0.0,0.0,0.0,0.0,0.0,0.0,0.0,0.0,0.0,0.0,0.0,1500,1500,0.0,0.0,40.063654,-88.2016455,0.0,0.0,0.0,0.0,0.0,0.0,0.0,0.0,0.0,0.0,0.0,0,0.0,0.0,0.0,0.0,90.0,90.0,90.0,89.9543762207,89.5087432861,89.7633895874,43.293998718299996,16.277648925799998,2.0199999809,0,2,25,1,139,1377
43,1530572482429,73429, RC,0,39.9586186,-88.445067899,0,0.0,0.0,0.0,0.0,0.0,0.0,0.0,0.0,0.0,0.0,0.0,0.0,0.0,1500,1500,0.0,0.0,40.063654,-88.2016455,0.0,0.0,0.0,0.0,0.0,0.0,0.0,0.0,0.0,0.0,0.0,0,0.0,0.0,0.0,0.0,90.0,90.0,90.0,89.9543762207,89.5087432861,89.7633895874,43.293998718299996,16.277648925799998,2.0199999809,0,2,25,1,149,1380
44,1530572482480,73480, RC,0,39.9586186,-88.445067899,0,0.0,0.0,0.0,0.0,0.0,0.0,0.0,0.0,0.0,0.0,0.0,0.0,0.0,1500,1500,0.0,0.0,40.063654,-88.2016455,0.0,0.0,0.0,0.0,0.0,0.0,0.0,0.0,0.0,0.0,0.0,0,0.0,0.0,0.0,0.0,90.0,90.0,90.0,89.9543762207,89.5087432861,89.7633895874,43.293998718299996,16.277648925799998,2.0199999809,0,2,25,1,140,1382
45,1530572482530,73530, RC,0,39.9586186,-88.445067899,0,0.0,0.0,0.0,0.0,0.0,0.0,0.0,0.0,0.0,0.0,0.0,0.0,0.0,1500,1500,0.0,0.0,40.063654,-88.2016455,0.0,0.0,0.0,0.0,0.0,0.0,0.0,0.0,0.0,0.0,0.0,0,0.0,0.0,0.0,0.0,90.0,90.0,90.0,89.9543762207,89.5087432861,89.7633895874,43.293998718299996,16.277648925799998,2.0199999809,0,2,25,1,146,1385
46,1530572482581,73581, RC,0,39.9586186,-88.445067899,0,0.0,0.0,0.0,0.0,0.0,0.0,0.0,0.0,0.0,0.0,0.0,0.0,0.0,1500,1500,0.0,0.0,40.063654,-88.2016455,0.0,0.0,0.0,0.0,0.0,0.0,0.0,0.0,0.0,0.0,0.0,0,0.0,0.0,0.0,0.0,90.0,90.0,90.0,89.8907089233,89.5087432861,89.6997299194,43.293998718299996,16.277648925799998,2.0199999809,0,2,25,1,153,1387
47,1530572482631,73631, RC,0,39.9586186,-88.445067899,0,0.0,0.0,0.0,0.0,0.0,0.0,0.0,0.0,0.0,0.0,0.0,0.0,0.0,1500,1500,0.0,0.0,40.063654,-88.2016455,0.0,0.0,0.0,0.0,0.0,0.0,0.0,0.0,0.0,0.0,0.0,0,0.0,0.0,0.0,0.0,90.0,90.0,90.0,89.8907089233,89.5087432861,89.6997299194,43.293998718299996,16.277648925799998,2.0199999809,0,2,25,1,140,1390
48,1530572482682,73682, RC,0,39.9586186,-88.445067899,0,0.0,0.0,0.0,0.0,0.0,0.0,0.0,0.0,0.0,0.0,0.0,0.0,0.0,1500,1500,0.0,0.0,40.063654,-88.2016455,0.0,0.0,0.0,0.0,0.0,0.0,0.0,0.0,0.0,0.0,0.0,0,0.0,0.0,0.0,0.0,90.0,90.0,90.0,89.8907089233,89.5087432861,89.6997299194,43.293998718299996,16.277648925799998,2.0199999809,0,2,25,1,147,1392
49,1530572482732,73732, RC,0,39.9586186,-88.445067899,0,0.0,0.0,0.0,0.0,0.0,0.0,0.0,0.0,0.0,0.0,0.0,0.0,0.0,1500,1500,0.0,0.0,40.063654,-88.2016455,0.0,0.0,0.0,0.0,0.0,0.0,0.0,0.0,0.0,0.0,0.0,0,0.0,0.0,0.0,0.0,90.0,90.0,90.0,89.8907089233,89.5087432861,89.6997299194,43.293998718299996,16.284484863299998,3.1799998282999997,0,2,25,1,148,1395
50,1530572482783,73783, RC,0,39.9586186,-88.445067899,0,0.0,0.0,0.0,0.0,0.0,0.0,0.0,0.0,0.0,0.0,0.0,0.0,0.0,1500,1500,0.0,0.0,40.063654,-88.2016455,0.0,0.0,0.0,0.0,0.0,0.0,0.0,0.0,0.0,0.0,0.0,0,0.0,0.0,0.0,0.0,90.0,90.0,90.0,89.8907089233,89.5087432861,89.6997299194,43.293998718299996,16.284484863299998,3.1799998282999997,0,2,25,1,151,1397
51,1530572482833,73833, RC,0,39.9586186,-88.445067899,0,0.0,0.0,0.0,0.0,0.0,0.0,0.0,0.0,0.0,0.0,0.0,0.0,0.0,1500,1500,0.0,0.0,40.063654,-88.2016455,0.0,0.0,0.0,0.0,0.0,0.0,0.0,0.0,0.0,0.0,0.0,0,0.0,0.0,0.0,0.0,90.0,90.0,90.0,89.8907089233,89.5087432861,89.6997299194,43.293998718299996,16.284484863299998,3.1799998282999997,0,2,25,1,161,1399
52,1530572482884,73884, RC,0,39.9586186,-88.445067899,0,0.0,0.0,0.0,0.0,0.0,0.0,0.0,0.0,0.0,0.0,0.0,0.0,0.0,1500,1500,0.0,0.0,40.063654,-88.2016455,0.0,0.0,0.0,0.0,0.0,0.0,0.0,0.0,0.0,0.0,0.0,0,0.0,0.0,0.0,0.0,90.0,90.0,90.0,89.8907089233,89.5087432861,89.6997299194,43.293998718299996,16.284484863299998,3.1799998282999997,0,2,25,1,148,1402
53,1530572482935,73935, RC,0,39.9586186,-88.445067899,0,0.0,0.0,0.0,0.0,0.0,0.0,0.0,0.0,0.0,0.0,0.0,0.0,0.0,1500,1500,0.0,0.0,40.0636558333,-88.201644,0.0,0.0,0.0,0.0,0.0,0.0,0.0,0.0,0.0,0.0,0.0,0,0.0,0.0,0.0,0.0,90.0,90.0,90.0,89.8907089233,89.5087432861,89.6997299194,43.293998718299996,16.284484863299998,3.1799998282999997,0,2,25,1,142,1404
54,1530572482985,73985, RC,0,39.9586186,-88.445067899,0,0.0,0.0,0.0,0.0,0.0,0.0,0.0,0.0,0.0,0.0,0.0,0.0,0.0,1500,1500,0.0,0.0,40.0636558333,-88.201644,0.0,0.0,0.0,0.0,0.0,0.0,0.0,0.0,0.0,0.0,0.0,0,0.0,0.0,0.0,0.0,90.0,90.0,90.0,89.8907089233,89.5087432861,89.6997299194,43.293998718299996,16.284484863299998,3.1799998282999997,0,2,25,1,156,1407
55,1530572483036,74036, RC,0,39.9586186,-88.445067899,0,0.0,0.0,0.0,0.0,0.0,0.0,0.0,0.0,0.0,0.0,0.0,0.0,0.0,1500,1500,0.0,0.0,40.0636558333,-88.201644,0.0,0.0,0.0,0.0,0.0,0.0,0.0,0.0,0.0,0.0,0.0,0,0.0,0.0,0.0,0.0,90.0,90.0,90.0,89.8907089233,89.5087432861,89.6997299194,43.293998718299996,16.284484863299998,3.1799998282999997,0,2,25,1,149,1409
56,1530572483086,74086, RC,0,39.9586186,-88.445067899,0,0.0,0.0,0.0,0.0,0.0,0.0,0.0,0.0,0.0,0.0,0.0,0.0,0.0,1500,1500,0.0,0.0,40.0636558333,-88.201644,0.0,0.0,0.0,0.0,0.0,0.0,0.0,0.0,0.0,0.0,0.0,0,0.0,0.0,0.0,0.0,90.0,90.0,90.0,89.8907089233,89.5087432861,89.6997299194,43.293998718299996,16.284484863299998,3.1799998282999997,0,2,25,1,146,1412
57,1530572483137,74137, RC,0,39.9586186,-88.445067899,0,0.0,0.0,0.0,0.0,0.0,0.0,0.0,0.0,0.0,0.0,0.0,0.0,0.0,1500,1500,0.0,0.0,40.0636558333,-88.201644,0.0,0.0,0.0,0.0,0.0,0.0,0.0,0.0,0.0,0.0,0.0,0,0.0,0.0,0.0,0.0,90.0,90.0,90.0,89.8907089233,89.5087432861,89.6997299194,43.293998718299996,16.284484863299998,3.1799998282999997,0,2,25,1,140,1414
58,1530572483188,74188, RC,0,39.9586186,-88.445067899,0,0.0,0.0,0.0,0.0,0.0,0.0,0.0,0.0,0.0,0.0,0.0,0.0,0.0,1500,1492,0.0,0.0,40.0636558333,-88.201644,0.0,0.0,0.0,0.0,0.0,0.0,0.0,0.0,0.0,0.0,0.0,0,0.0,-0.014400005300000001,0.0,0.0,90.0,90.0,90.0,89.8907089233,89.5087432861,89.6997299194,43.293998718299996,16.284484863299998,3.1799998282999997,0,2,25,1,138,1416
59,1530572483238,74238, RC,0,39.9586186,-88.445067899,0,0.0,0.0,0.0,0.0,0.0,0.0040465477,0.0,0.0,0.0,0.0,0.0,0.0,0.0,1500,1492,0.0,0.0,40.0636558333,-88.201644,0.0,0.0,0.0,0.0,0.0,0.0,0.0,0.0,0.0,0.0,0.0,0,0.0,-0.014400005300000001,-0.0044144159,-0.0036786796999999996,90.0,90.0,90.0,89.8907089233,89.5087432861,89.6997299194,43.293998718299996,16.284484863299998,3.1799998282999997,0,2,25,1,135,1419
60,1530572483289,74289, RC,0,39.9586186,-88.445067899,0,0.0,0.0,0.0,0.0,0.0,0.0075412933,0.0,0.0,0.0,0.0,0.0,0.0,0.0,1500,1474,0.0,0.0,40.0636558333,-88.201644,0.0,0.0,0.0,0.0,0.0,0.0,0.0,0.0,0.0,0.0,0.0,0,0.0,-0.051429987,-0.006069821800000001,-0.0090127653,90.0,90.0,90.0,89.82704925540001,89.5724029541,89.6997299194,43.293998718299996,16.284484863299998,3.1799998282999997,0,2,25,1,134,1421
61,1530572483339,74339, RC,0,39.9586186,-88.445067899,0,0.0,0.0,0.0,0.0,0.0,0.0170138944,0.0,0.0,0.0,0.0,0.0,0.0,0.0,1500,1474,0.0,0.0,40.0636558333,-88.201644,0.0,0.0,0.0,0.0,0.0,0.0,0.0,0.0,0.0,0.0,0.0,0,0.0,-0.051429987,-0.0158183239,-0.0182094648,90.0,90.0,90.0,89.82704925540001,89.5087432861,89.6997299194,43.293998718299996,16.284484863299998,3.1799998282999997,0,2,25,1,147,1424
62,1530572483390,74390, RC,0,39.9586186,-88.445067899,0,0.0,0.0,0.0,0.0,0.0,0.0246471539,0.0,0.0,0.0,0.0,0.0,0.0,0.0,1500,1468,0.0,0.0,40.0636558333,-88.201644,0.0,0.0,0.0,0.0,0.0,0.0,0.0,0.0,0.0,0.0,0.0,0,0.0,-0.06377398969999999,-0.0275900979,-0.0217042118,90.0,90.0,90.0,89.63606262209998,89.5087432861,89.6997299194,43.293998718299996,16.284484863299998,3.1799998282999997,0,2,25,1,138,1426
63,1530572483441,74441, RC,0,39.9586186,-88.445067899,0,0.0,0.0,0.0,0.0,0.0,0.037522532000000004,0.0,0.0,0.0,0.0,0.0,0.0,0.0,1500,1468,0.0,0.0,40.0636558333,-88.201644,0.0,0.0,0.0,0.0,0.0,0.0,0.0,0.0,0.0,0.0,0.0,0,0.0,-0.06377398969999999,-0.0399136767,-0.0351313911,90.0,90.0,90.0,89.6997299194,89.5724029541,89.5724029541,43.293998718299996,16.284484863299998,3.1799998282999997,0,2,25,1,128,1429
64,1530572483491,74491, RC,0,39.9586186,-88.445067899,0,0.0,0.0,0.0,0.0,0.0,0.0459834971,0.0,0.0,0.0,0.0,0.0,0.0,0.0,1500,1461,0.0,0.0,40.0636558333,-88.201644,0.0,0.0,0.0,0.0,0.0,0.0,0.0,0.0,0.0,0.0,0.0,0,0.0,-0.0761169791,-0.0496621765,-0.042304817599999996,90.0,90.0,90.0,89.63606262209998,89.6997299194,89.5087432861,43.293998718299996,16.284484863299998,3.1799998282999997,0,2,25,1,142,1431
65,1530572483542,74542, RC,0,39.9586186,-88.445067899,0,0.0,0.0,0.0,0.0,0.0,0.0536167584,0.0,0.0,0.0,0.0,0.0,0.0,0.0,1500,1461,0.0,0.0,40.0636558333,-88.201644,0.0,0.0,0.0,0.0,0.0,0.0,0.0,0.0,0.0,0.0,0.0,0,0.0,-0.0761169791,-0.0581231415,-0.0491103753,90.0,90.0,90.0,89.63606262209998,89.7633895874,89.5087432861,43.293998718299996,16.284484863299998,3.1799998282999997,0,2,25,1,138,1434
66,1530572483592,74592, RC,0,39.9586186,-88.445067899,0,0.0,0.0,0.0,0.0,0.0,0.055731996900000004,0.0,0.0,0.0,0.0,0.0,0.0,0.0,1500,1455,0.0,0.0,40.0636558333,-88.201644,0.0,0.0,0.0,0.0,0.0,0.0,0.0,0.0,0.0,0.0,0.0,0,0.0,-0.0884599686,-0.061433952300000004,-0.0500300452,90.0,90.0,90.0,89.82704925540001,89.7633895874,89.5087432861,43.293998718299996,16.284484863299998,3.1799998282999997,0,2,25,1,136,1436
67,1530572483643,74643, RC,0,39.9586186,-88.445067899,0,0.0,0.0,0.0,0.0,0.0,0.0632732883,0.0,0.0,0.0,0.0,0.0,0.0,0.0,1500,1455,0.0,0.0,40.0636558333,-88.201644,0.0,0.0,0.0,0.0,0.0,0.0,0.0,0.0,0.0,0.0,0.0,0,0.0,-0.0884599686,-0.0669519678,-0.0595946126,90.0,90.0,90.0,89.8907089233,89.6997299194,89.5087432861,43.293998718299996,16.284484863299998,3.1799998282999997,0,2,25,1,122,1439
68,1530572483693,74693, RC,0,39.9586186,-88.445067899,0,0.0,0.0,0.0,0.0,0.0,0.0802871883,0.0,0.0,0.0,0.0,0.0,0.0,0.0,1500,1455,0.0,0.0,40.0636558333,-88.201644,0.0,0.0,0.0,0.0,0.0,0.0,0.0,0.0,0.0,0.0,0.0,0,0.0,-0.0884599686,-0.0805630833,-0.0800112858,90.0,90.0,90.0,89.7633895874,89.5724029541,89.63606262209998,43.293998718299996,16.284484863299998,3.1799998282999997,0,2,25,1,127,1441
69,1530572483744,74744, RC,0,39.9586186,-88.445067899,0,0.0,0.0,0.0,0.0,0.0,0.0845176652,0.0,0.0,0.0,0.0,0.0,0.0,0.0,1500,1455,0.0,0.0,40.0636558333,-88.201644,0.0,0.0,0.0,0.0,0.0,0.0,0.0,0.0,0.0,0.0,0.0,0,0.0,-0.0884599686,-0.08479356769999999,-0.0842417628,90.0,90.0,90.0,89.6997299194,89.25408935549999,89.8907089233,43.293998718299996,16.2941951752,9.1800003052,0,2,25,1,125,1444
70,1530572483794,74794, RC,0,39.9586186,-88.445067899,0,0.0,0.0,0.0,0.0,0.0,0.0936224014,0.0,0.0,0.0,0.0,0.0,0.0,0.0,1500,1455,0.0,0.0,40.0636558333,-88.201644,0.0,0.0,0.0,0.0,0.0,0.0,0.0,0.0,0.0,0.0,0.0,0,0.0,-0.0884599686,-0.0915991217,-0.0956456736,90.0,90.0,90.0,89.5724029541,89.3814163208,90.145362854,43.293998718299996,16.2941951752,9.1800003052,0,2,25,1,128,1446
71,1530572483845,74845, RC,0,39.9586186,-88.445067899,0,0.0,0.0,0.0,0.0,0.0,0.0985886157,0.0,0.0,0.0,0.0,0.0,0.0,0.0,1500,1455,0.0,0.0,40.0636558333,-88.201644,0.0,0.0,0.0,0.0,0.0,0.0,0.0,0.0,0.0,0.0,0.0,0,0.0,-0.0884599686,-0.0980368182,-0.0991404206,90.0,90.0,90.0,89.5087432861,89.5087432861,90.01803588870001,43.293998718299996,16.2941951752,9.1800003052,0,2,25,1,114,1449
72,1530572483896,74896, RC,0,39.9586186,-88.445067899,0,0.0,0.0,0.0,0.0,0.0,0.1002440229,0.0,0.0,0.0,0.0,0.0,0.0,0.0,1500,1449,0.0,0.0,40.0636558333,-88.201644,0.0,0.0,0.0,0.0,0.0,0.0,0.0,0.0,0.0,0.0,0.0,0,0.0,-0.1008039713,-0.1002440229,-0.1002440229,90.0,90.0,90.0,89.44507598879999,90.01803588870001,89.63606262209998,43.293998718299996,16.2941951752,9.1800003052,0,2,25,1,114,1451
73,1530572483946,74946, RC,0,39.9586186,-88.445067899,0,0.0,0.0,0.0,0.0,0.0,0.1036468074,0.0,0.0,0.0,0.0,0.0,0.0,0.0,1500,1449,0.0,0.0,40.0636536667,-88.2016421667,0.0,0.0,0.0,0.0,0.0,0.0,0.0,0.0,0.0,0.0,0.0,0,0.0,-0.1008039713,-0.1020833701,-0.10521024470000001,90.0,90.0,90.0,89.3177566528,90.2726821899,89.3177566528,43.293998718299996,16.2941951752,9.1800003052,0,2,25,1,120,1453
74,1530572483997,74997, RC,0,39.9586186,-88.445067899,0,0.0,0.0,0.0,0.0,0.0,0.1099925265,0.0,0.0,0.0,0.0,0.0,0.0,0.0,1500,1443,0.0,0.0,40.0636536667,-88.2016421667,0.0,0.0,0.0,0.0,0.0,0.0,0.0,0.0,0.0,0.0,0.0,0,0.0,-0.1131470203,-0.1109121963,-0.1090728566,90.0,90.0,90.0,89.1904296875,90.2726821899,89.25408935549999,43.293998718299996,16.2941951752,9.1800003052,0,2,25,1,99,1456
75,1530572484047,75047, RC,0,39.9586186,-88.445067899,0,0.0,0.0,0.0,0.0,0.0,0.1214884073,0.0,0.0,0.0,0.0,0.0,0.0,0.0,1500,1443,0.0,0.0,40.0636536667,-88.2016421667,0.0,0.0,0.0,0.0,0.0,0.0,0.0,0.0,0.0,0.0,0.0,0,0.0,-0.1131470203,-0.1204767674,-0.12250003960000001,90.0,90.0,90.0,89.8907089233,90.01803588870001,89.25408935549999,43.293998718299996,16.2941951752,9.1800003052,0,2,25,1,107,1458
76,1530572484098,75098, RC,0,39.9586186,-88.445067899,0,0.0,0.0,0.0,0.0,0.0,0.1260867417,0.0,0.0,0.0,0.0,0.0,0.0,0.0,1500,1443,0.0,0.0,40.0636536667,-88.2016421667,0.0,0.0,0.0,0.0,0.0,0.0,0.0,0.0,0.0,0.0,0.0,0,0.0,-0.1131470203,-0.1256269068,-0.1265465915,90.0,90.0,90.0,89.9543762207,89.9543762207,89.3177566528,43.293998718299996,16.2941951752,9.1800003052,0,2,25,1,108,1461
77,1530572484149,75149, RC,0,39.9586186,-88.445067899,0,0.0,0.0,0.0,0.0,0.0,0.12728232150000002,0.0,0.0,0.0,0.0,0.0,0.0,0.0,1500,1443,0.0,0.0,40.0636536667,-88.2016421667,0.0,0.0,0.0,0.0,0.0,0.0,0.0,0.0,0.0,0.0,0.0,0,0.0,-0.1131470203,-0.1250751168,-0.12948952619999998,90.0,90.0,90.0,89.9543762207,89.8907089233,89.3814163208,43.293998718299996,16.2941951752,9.1800003052,0,2,25,1,97,1463
78,1530572484199,75199, RC,0,39.9586186,-88.445067899,0,0.0,0.0,0.0,0.0,0.0,0.130317241,0.0,0.0,0.0,0.0,0.0,0.0,0.0,1500,1443,0.0,0.0,40.0636536667,-88.2016421667,0.0,0.0,0.0,0.0,0.0,0.0,0.0,0.0,0.0,0.0,0.0,0,0.0,-0.1131470203,-0.1276501864,-0.1329842806,90.0,90.0,90.0,90.145362854,89.9543762207,89.3177566528,43.293998718299996,16.2941951752,9.1800003052,0,2,25,1,115,1466
79,1530572484250,75250, RC,0,39.9586186,-88.445067899,0,0.0,0.0,0.0,0.0,0.0,0.1320646107,0.0,0.0,0.0,0.0,0.0,0.0,0.0,1500,1443,0.0,0.0,40.0636536667,-88.2016421667,0.0,0.0,0.0,0.0,0.0,0.0,0.0,0.0,0.0,0.0,0.0,0,0.0,-0.1131470203,-0.1278341264,-0.13629509509999999,90.0,90.0,90.0,90.20902252200001,89.9543762207,89.3177566528,43.293998718299996,16.2941951752,9.1800003052,0,2,25,1,117,1468
80,1530572484300,75300, RC,0,39.9586186,-88.445067899,0,0.0,0.0,0.0,0.0,0.0,0.1345477104,0.0,0.0,0.0,0.0,0.0,0.0,0.0,1500,1443,0.0,0.0,40.0636536667,-88.2016421667,0.0,0.0,0.0,0.0,0.0,0.0,0.0,0.0,0.0,0.0,0.0,0,0.0,-0.1131470203,-0.12948952619999998,-0.13960590960000002,90.0,90.0,90.0,90.4636688232,90.01803588870001,89.3177566528,43.293998718299996,16.2941951752,9.1800003052,0,2,25,1,127,1471
81,1530572484351,75351, RC,0,39.9586186,-88.445067899,0,0.0,0.0,0.0,0.0,0.0,0.1341798306,0.0,0.0,0.0,0.0,0.0,0.0,0.0,1500,1443,0.0,0.0,40.0636536667,-88.2016421667,0.0,0.0,0.0,0.0,0.0,0.0,0.0,0.0,0.0,0.0,0.0,0,0.0,-0.1131470203,-0.1315127909,-0.1368468851,90.0,90.0,90.0,90.8456420898,90.145362854,89.1904296875,43.293998718299996,16.2941951752,9.1800003052,0,2,25,1,130,1473
82,1530572484401,75401, RC,0,39.9586186,-88.445067899,0,0.0,0.0,0.0,0.0,0.0,0.1354673803,0.0,0.0,0.0,0.0,0.0,0.0,0.0,1500,1443,0.0,0.0,40.0636536667,-88.2016421667,0.0,0.0,0.0,0.0,0.0,0.0,0.0,0.0,0.0,0.0,0.0,0,0.0,-0.1131470203,-0.1320646107,-0.1388701499,90.0,90.0,90.0,90.6546554565,89.8907089233,89.44507598879999,43.293998718299996,16.2941951752,9.1800003052,0,2,25,1,130,1476
83,1530572484452,75452, RC,0,39.9586186,-88.445067899,0,0.0,0.0,0.0,0.0,0.0,0.1342718154,0.0,0.0,0.0,0.0,0.0,0.0,0.0,1500,1443,0.0,0.0,40.0636536667,-88.2016421667,0.0,0.0,0.0,0.0,0.0,0.0,0.0,0.0,0.0,0.0,0.0,0,0.0,-0.1131470203,-0.12470724429999999,-0.1438363791,90.0,90.0,90.0,90.01803588870001,89.7633895874,89.5724029541,43.293998718299996,16.2941951752,9.1800003052,0,2,25,1,152,1478
84,1530572484503,75503, RC,0,39.9586186,-88.445067899,0,0.0,0.0,0.0,0.0,0.0,0.1328923106,0.0,0.0,0.0,0.0,0.0,0.0,0.0,1500,1443,0.0,0.0,40.0636536667,-88.2016421667,0.0,0.0,0.0,0.0,0.0,0.0,0.0,0.0,0.0,0.0,0.0,0,0.0,-0.1131470203,-0.1215803698,-0.144204244,90.0,90.0,90.0,89.82704925540001,89.44507598879999,89.8907089233,43.293998718299996,16.2941951752,9.1800003052,0,2,25,1,168,1481
85,1530572484553,75553, RC,0,39.9586186,-88.445067899,0,0.0,0.0,0.0,0.0,0.0,0.13473165039999999,0.0,0.0,0.0,0.0,0.0,0.0,0.0,1500,1443,0.0,0.0,40.0636536667,-88.2016421667,0.0,0.0,0.0,0.0,0.0,0.0,0.0,0.0,0.0,0.0,0.0,0,0.0,-0.1131470203,-0.1293056011,-0.14015769960000002,90.0,90.0,90.0,89.63606262209998,89.25408935549999,90.01803588870001,43.293998718299996,16.2941951752,9.1800003052,0,2,25,1,160,1483
86,1530572484604,75604, RC,0,39.9586186,-88.445067899,0,0.0,0.0,0.0,0.0,0.0,0.1345477104,0.0,0.0,0.0,0.0,0.0,0.0,0.0,1500,1443,0.0,0.0,40.0636536667,-88.2016421667,0.0,0.0,0.0,0.0,0.0,0.0,0.0,0.0,0.0,0.0,0.0,0,0.0,-0.1131470203,-0.1280180514,-0.1410773695,90.0,90.0,90.0,90.01803588870001,89.25408935549999,90.0816955566,43.293998718299996,16.2941951752,9.1800003052,0,2,25,1,143,1486
87,1530572484655,75655, RC,0,39.9586186,-88.445067899,0,0.0,0.0,0.0,0.0,0.0,0.13749066,0.0,0.0,0.0,0.0,0.0,0.0,0.0,1500,1437,0.0,0.0,40.0636536667,-88.2016421667,0.0,0.0,0.0,0.0,0.0,0.0,0.0,0.0,0.0,0.0,0.0,0,0.0,-0.12549102310000002,-0.1270983964,-0.14788292349999999,90.0,90.0,90.0,89.8907089233,89.25408935549999,90.3363494873,43.293998718299996,16.2941951752,9.1800003052,0,2,25,1,122,1488
88,1530572484705,75705, RC,0,39.9586186,-88.445067899,0,0.0,0.0,0.0,0.0,0.0,0.1393299997,0.0,0.0,0.0,0.0,0.0,0.0,0.0,1500,1431,0.0,0.0,40.0636536667,-88.2016421667,0.0,0.0,0.0,0.0,0.0,0.0,0.0,0.0,0.0,0.0,0.0,0,0.0,-0.1378340125,-0.1269144565,-0.1517455429,90.0,90.0,90.0,89.5087432861,88.93578338620001,90.6546554565,43.293998718299996,16.2941951752,9.1800003052,0,2,25,1,104,1491
89,1530572484756,75756, RC,0,39.9586186,-88.445067899,0,0.0,0.0,0.0,0.0,0.0,0.144112289,0.0,0.0,0.0,0.0,0.0,0.0,0.0,1500,1431,0.0,0.0,40.0636536667,-88.2016421667,0.0,0.0,0.0,0.0,0.0,0.0,0.0,0.0,0.0,0.0,0.0,0,0.0,-0.1378340125,-0.13629509509999999,-0.1519294679,90.0,90.0,90.0,89.3177566528,88.9994430542,90.8456420898,43.293998718299996,16.2922172546,24.290000915500002,0,2,25,1,102,1493
90,1530572484806,75806, RC,0,39.9586186,-88.445067899,0,0.0,0.0,0.0,0.0,0.0,0.1569876671,0.0,0.0,0.0,0.0,0.0,0.0,0.0,1500,1424,0.0,0.0,40.0636536667,-88.2016421667,0.0,0.0,0.0,0.0,0.0,0.0,0.0,0.0,0.0,0.0,0.0,0,0.0,-0.150177002,-0.1517455429,-0.1622297764,90.0,90.0,90.0,89.5087432861,89.1904296875,91.10028839110001,43.293998718299996,16.2922172546,24.290000915500002,0,2,25,1,97,1496
91,1530572484857,75857, RC,0,39.9586186,-88.445067899,0,0.0,0.0,0.0,0.0,0.0,0.1681156754,0.0,0.0,0.0,0.0,0.0,0.0,0.0,1500,1424,0.0,0.0,40.0636536667,-88.2016421667,0.0,0.0,0.0,0.0,0.0,0.0,0.0,0.0,0.0,0.0,0.0,0,0.0,-0.150177002,-0.16958713530000002,-0.1666442007,90.0,90.0,90.0,89.6997299194,88.4901504517,91.2276153564,43.293998718299996,16.2922172546,24.290000915500002,0,2,25,1,87,1498
92,1530572484908,75908, RC,0,39.9586186,-88.445067899,0,0.0,0.0,0.0,0.0,0.0,0.1727140248,0.0,0.0,0.0,0.0,0.0,0.0,0.0,1500,1424,0.0,0.0,40.0636536667,-88.2016421667,0.0,0.0,0.0,0.0,0.0,0.0,0.0,0.0,0.0,0.0,0.0,0,0.0,-0.150177002,-0.1760248244,-0.16940321030000002,90.0,90.0,90.0,88.681137085,88.93578338620001,91.73690795899999,43.293998718299996,16.2922172546,24.290000915500002,0,2,25,1,87,1501
93,1530572484958,75958, RC,0,39.9586186,-88.445067899,0,0.0,0.0,0.0,0.0,0.0,0.17869186399999998,0.0,0.0,0.0,0.0,0.0,0.0,0.0,1500,1424,0.0,0.0,40.063655,-88.2016458333,0.0,0.0,0.0,0.0,0.0,0.0,0.0,0.0,0.0,0.0,0.0,0,0.0,-0.150177002,-0.1841179281,-0.1732658148,90.0,90.0,90.0,89.3177566528,89.6997299194,90.40000915530001,43.293998718299996,16.2922172546,24.290000915500002,0,2,25,1,75,1503
94,1530572485009,76009, RC,0,39.9586186,-88.445067899,0,0.0,0.0,0.0,0.0,0.0,0.18135891850000002,0.0,0.0,0.0,0.0,0.0,0.0,0.0,1500,1418,0.0,0.0,40.063655,-88.2016458333,0.0,0.0,0.0,0.0,0.0,0.0,0.0,0.0,0.0,0.0,0.0,0,0.0,-0.1625210047,-0.1861412078,-0.1765766293,90.0,90.0,90.0,91.9279022217,90.0816955566,88.4264831543,43.293998718299996,16.2922172546,24.290000915500002,0,2,25,1,81,1505
95,1530572485059,76059, RC,0,39.9586186,-88.445067899,0,0.0,0.0,0.0,0.0,0.0,0.1839340031,0.0,0.0,0.0,0.0,0.0,0.0,0.0,1500,1418,0.0,0.0,40.063655,-88.2016458333,0.0,0.0,0.0,0.0,0.0,0.0,0.0,0.0,0.0,0.0,0.0,0,0.0,-0.1625210047,-0.1894520223,-0.17841596899999998,90.0,90.0,90.0,89.9543762207,90.4636688232,88.0445098877,43.293998718299996,16.2922172546,24.290000915500002,0,2,25,1,86,1508
96,1530572485110,76110, RC,0,39.9586186,-88.445067899,0,0.0,0.0,0.0,0.0,0.0,0.19018775219999998,0.0,0.0,0.0,0.0,0.0,0.0,0.0,1500,1418,0.0,0.0,40.063655,-88.2016458333,0.0,0.0,0.0,0.0,0.0,0.0,0.0,0.0,0.0,0.0,0.0,0,0.0,-0.1625210047,-0.199016571,-0.18135891850000002,90.0,90.0,90.0,88.8721160889,90.4636688232,88.1081771851,43.293998718299996,16.2922172546,24.290000915500002,0,2,25,1,76,1510
97,1530572485161,76161, RC,0,39.9586186,-88.445067899,0,0.0,0.0,0.0,0.0,0.0,0.19230298699999998,0.0,0.0,0.0,0.0,0.0,0.0,0.0,1500,1418,0.0,0.0,40.063655,-88.2016458333,0.0,0.0,0.0,0.0,0.0,0.0,0.0,0.0,0.0,0.0,0.0,0,0.0,-0.1625210047,-0.2001201808,-0.1844857931,90.0,90.0,90.0,89.5087432861,90.5909881592,88.8084564209,43.293998718299996,16.2922172546,24.290000915500002,0,2,25,1,81,1513
98,1530572485211,76211, RC,0,39.9586186,-88.445067899,0,0.0,0.0,0.0,0.0,0.0,0.19736117120000002,0.0,0.0,0.0,0.0,0.0,0.0,0.0,1500,1412,0.0,0.0,40.063655,-88.2016458333,0.0,0.0,0.0,0.0,0.0,0.0,0.0,0.0,0.0,0.0,0.0,0,0.0,-0.1748639941,-0.2028791904,-0.191843152,90.0,90.0,90.0,90.5909881592,90.9093093872,88.74479675290002,43.293998718299996,16.2922172546,24.290000915500002,0,2,25,1,86,1515
99,1530572485262,76262, RC,0,39.9586186,-88.445067899,0,0.0,0.0,0.0,0.0,0.0,0.20389083030000002,0.0,0.0,0.0,0.0,0.0,0.0,0.0,1500,1412,0.0,0.0,40.063655,-88.2016458333,0.0,0.0,0.0,0.0,0.0,0.0,0.0,0.0,0.0,0.0,0.0,0,0.0,-0.1748639941,-0.21060442920000003,-0.19717723129999998,90.0,90.0,90.0,91.1639480591,91.3549346924,88.4901504517,43.293998718299996,16.2922172546,24.290000915500002,0,2,25,1,112,1518
100,1530572485312,76312, RC,0,39.9586186,-88.445067899,0,0.0,0.0,0.0,0.0,0.0,0.21520276370000002,0.0,0.0,0.0,0.0,0.0,0.0,0.0,1500,1412,0.0,0.0,40.063655,-88.2016458333,0.0,0.0,0.0,0.0,0.0,0.0,0.0,0.0,0.0,0.0,0.0,0,0.0,-0.1748639941,-0.2185135782,-0.2118919492,90.0,90.0,90.0,91.48226165770001,90.9729614258,88.235496521,43.293998718299996,16.2922172546,24.290000915500002,0,2,25,1,137,1520
101,1530572485363,76363, RC,0,39.9586186,-88.445067899,0,0.0,0.0,0.0,0.0,0.0,0.2209047079,0.0,0.0,0.0,0.0,0.0,0.0,0.0,1500,1412,0.0,0.0,40.063655,-88.2016458333,0.0,0.0,0.0,0.0,0.0,0.0,0.0,0.0,0.0,0.0,0.0,0,0.0,-0.1748639941,-0.226790607,-0.2150188237,90.0,90.0,90.0,91.6095809937,90.7183227539,88.681137085,43.293998718299996,16.2922172546,24.290000915500002,0,2,25,1,143,1523
102,1530572485413,76413, RC,0,39.9586186,-88.445067899,0,0.0,0.0,0.0,0.0,0.0,0.2206288278,0.0,0.0,0.0,0.0,0.0,0.0,0.0,1500,1412,0.0,0.0,40.063655,-88.2016458333,0.0,0.0,0.0,0.0,0.0,0.0,0.0,0.0,0.0,0.0,0.0,0,0.0,-0.1748639941,-0.22844602170000003,-0.21281161899999998,90.0,90.0,90.0,91.6095809937,90.7819747925,89.5087432861,43.293998718299996,16.2922172546,24.290000915500002,0,2,25,1,125,1525
103,1530572485464,76464, RC,0,39.9586186,-88.445067899,0,0.0,0.0,0.0,0.0,0.0,0.21906538309999998,0.0,0.0,0.0,0.0,0.0,0.0,0.0,1500,1412,0.0,0.0,40.063655,-88.2016458333,0.0,0.0,0.0,0.0,0.0,0.0,0.0,0.0,0.0,0.0,0.0,0,0.0,-0.1748639941,-0.2255030721,-0.21262769399999998,90.0,90.0,90.0,90.40000915530001,90.145362854,89.12677001950001,43.293998718299996,16.2922172546,24.290000915500002,0,2,25,1,131,1528
104,1530572485515,76515, RC,0,39.9586186,-88.445067899,0,0.0,0.0,0.0,0.0,0.0,0.2174099684,0.0,0.0,0.0,0.0,0.0,0.0,0.0,1500,1406,0.0,0.0,40.063655,-88.2016458333,0.0,0.0,0.0,0.0,0.0,0.0,0.0,0.0,0.0,0.0,0.0,0,0.0,-0.1872079968,-0.2198011279,-0.2150188237,90.0,90.0,90.0,89.0631027222,90.145362854,89.3177566528,43.293998718299996,16.2922172546,24.290000915500002,0,2,25,1,136,1530
105,1530572485565,76565, RC,0,39.9586186,-88.445067899,0,0.0,0.0,0.0,0.0,0.0,0.2215484828,0.0,0.0,0.0,0.0,0.0,0.0,0.0,1500,1406,0.0,0.0,40.063655,-88.2016458333,0.0,0.0,0.0,0.0,0.0,0.0,0.0,0.0,0.0,0.0,0.0,0,0.0,-0.1872079968,-0.22403159739999998,-0.2190653682,90.0,90.0,90.0,89.9543762207,90.01803588870001,90.5909881592,43.293998718299996,16.2922172546,24.290000915500002,0,2,25,1,128,1533
106,1530572485616,76616, RC,0,39.9586186,-88.445067899,0,0.0,0.0,0.0,0.0,0.0,0.2285379767,0.0,0.0,0.0,0.0,0.0,0.0,0.0,1500,1406,0.0,0.0,40.063655,-88.2016458333,0.0,0.0,0.0,0.0,0.0,0.0,0.0,0.0,0.0,0.0,0.0,0,0.0,-0.1872079968,-0.2319407612,-0.2251352072,90.0,90.0,90.0,90.0816955566,89.63606262209998,91.0366287231,43.293998718299996,16.2922172546,24.290000915500002,0,2,25,1,107,1535
107,1530572485666,76666, RC,0,39.9586186,-88.445067899,0,0.0,0.0,0.0,0.0,0.0,0.2366310805,0.0,0.0,0.0,0.0,0.0,0.0,0.0,1500,1406,0.0,0.0,40.063655,-88.2016458333,0.0,0.0,0.0,0.0,0.0,0.0,0.0,0.0,0.0,0.0,0.0,0,0.0,-0.1872079968,-0.23561944070000002,-0.2376427203,90.0,90.0,90.0,89.8907089233,89.3177566528,91.0366287231,43.293998718299996,16.2922172546,24.290000915500002,0,2,25,1,109,1538
108,1530572485717,76717, RC,0,39.9586186,-88.445067899,0,0.0,0.0,0.0,0.0,0.0,0.2390222251,0.0,0.0,0.0,0.0,0.0,0.0,0.0,1500,1400,0.0,0.0,40.063655,-88.2016458333,0.0,0.0,0.0,0.0,0.0,0.0,0.0,0.0,0.0,0.0,0.0,0,0.0,-0.19955098629999998,-0.2370909005,-0.2409535348,90.0,90.0,90.0,90.40000915530001,89.44507598879999,91.0366287231,43.293998718299996,16.2922172546,24.290000915500002,0,2,25,1,102,1540
109,1530572485767,76767, RC,0,39.9586186,-88.445067899,0,0.0,0.0,0.0,0.0,0.0,0.24187320469999998,0.0,0.0,0.0,0.0,0.0,0.0,0.0,1500,1400,0.0,0.0,40.063655,-88.2016458333,0.0,0.0,0.0,0.0,0.0,0.0,0.0,0.0,0.0,0.0,0.0,0,0.0,-0.19955098629999998,-0.2431607395,-0.240585655,90.0,90.0,90.0,90.5273361206,89.3814163208,90.4636688232,43.293998718299996,16.2976417542,5.4899997711,0,2,25,1,104,1542
110,1530572485818,76818, RC,0,39.9586186,-88.445067899,0,0.0,0.0,0.0,0.0,0.0,0.24021780489999997,0.0,0.0,0.0,0.0,0.0,0.0,0.0,1500,1400,0.0,0.0,40.063655,-88.2016458333,0.0,0.0,0.0,0.0,0.0,0.0,0.0,0.0,0.0,0.0,0.0,0,0.0,-0.19955098629999998,-0.2411374748,-0.2392981201,90.0,90.0,90.0,90.5909881592,89.44507598879999,90.01803588870001,43.293998718299996,16.2976417542,5.4899997711,0,2,25,1,122,1545
111,1530572485868,76868, RC,0,39.9586186,-88.445067899,0,0.0,0.0,0.0,0.0,0.0,0.2363551706,0.0,0.0,0.0,0.0,0.0,0.0,0.0,1500,1400,0.0,0.0,40.063655,-88.2016458333,0.0,0.0,0.0,0.0,0.0,0.0,0.0,0.0,0.0,0.0,0.0,0,0.0,-0.19955098629999998,-0.2387463152,-0.23396402600000002,90.0,90.0,90.0,90.9729614258,89.82704925540001,88.4901504517,43.293998718299996,16.2976417542,5.4899997711,0,2,25,1,115,1547
112,1530572485919,76919, RC,0,39.9586186,-88.445067899,0,0.0,0.0,0.0,0.0,0.0,0.2394820452,0.0,0.0,0.0,0.0,0.0,0.0,0.0,1500,1394,0.0,0.0,40.063655,-88.2016458333,0.0,0.0,0.0,0.0,0.0,0.0,0.0,0.0,0.0,0.0,0.0,0,0.0,-0.2118940353,-0.2302853614,-0.2486787438,90.0,90.0,90.0,90.7183227539,90.01803588870001,88.2991638184,43.293998718299996,16.2976417542,5.4899997711,0,2,25,1,105,1550
113,1530572485970,76970, RC,0,39.9586186,-88.445067899,0,0.0,0.0,0.0,0.0,0.0,0.24316072460000002,0.0,0.0,0.0,0.0,0.0,0.0,0.0,1500,1394,0.0,0.0,40.0636608333,-88.2016408333,0.0,0.0,0.0,0.0,0.0,0.0,0.0,0.0,0.0,0.0,0.0,0,0.0,-0.2118940353,-0.2348836958,-0.2514377534,90.0,90.0,90.0,91.10028839110001,90.0816955566,88.36282348629999,43.293998718299996,16.2976417542,5.4899997711,0,2,25,1,112,1552
114,1530572486021,77021, RC,0,39.9586186,-88.445067899,0,0.0,0.0,0.0,0.0,0.0,0.2477590889,0.0,0.0,0.0,0.0,0.0,0.0,0.0,1500,1394,0.0,0.0,40.0636608333,-88.2016408333,0.0,0.0,0.0,0.0,0.0,0.0,0.0,0.0,0.0,0.0,0.0,0,0.0,-0.2118940353,-0.2484948337,-0.24702334399999998,90.0,90.0,90.0,91.48226165770001,89.8907089233,88.93578338620001,43.293998718299996,16.2976417542,5.4899997711,0,2,25,1,104,1555
115,1530572486071,77071, RC,0,39.9586186,-88.445067899,0,0.0,0.0,0.0,0.0,0.0,0.253093183,0.0,0.0,0.0,0.0,0.0,0.0,0.0,1500,1394,0.0,0.0,40.0636608333,-88.2016408333,0.0,0.0,0.0,0.0,0.0,0.0,0.0,0.0,0.0,0.0,0.0,0,0.0,-0.2118940353,-0.25272530320000003,-0.2534610331,90.0,90.0,90.0,90.0816955566,89.82704925540001,88.9994430542,43.293998718299996,16.2976417542,5.4899997711,0,2,25,1,113,1557
116,1530572486122,77122, RC,0,39.9586186,-88.445067899,0,0.0,0.0,0.0,0.0,0.0,0.2551164627,0.0,0.0,0.0,0.0,0.0,0.0,0.0,1500,1387,0.0,0.0,40.0636608333,-88.2016408333,0.0,0.0,0.0,0.0,0.0,0.0,0.0,0.0,0.0,0.0,0.0,0,0.0,-0.22423797850000002,-0.2586112022,-0.2516216934,90.0,90.0,90.0,90.3363494873,89.9543762207,88.9994430542,43.293998718299996,16.2976417542,5.4899997711,0,2,25,1,94,1560
117,1530572486172,77172, RC,0,39.9586186,-88.445067899,0,0.0,0.0,0.0,0.0,0.0,0.2642211616,0.0,0.0,0.0,0.0,0.0,0.0,0.0,1500,1387,0.0,0.0,40.0636608333,-88.2016408333,0.0,0.0,0.0,0.0,0.0,0.0,0.0,0.0,0.0,0.0,0.0,0,0.0,-0.22423797850000002,-0.2652328014,-0.2632095218,90.0,90.0,90.0,90.20902252200001,89.63606262209998,89.63606262209998,43.293998718299996,16.2976417542,5.4899997711,0,2,25,1,102,1562
118,1530572486223,77223, RC,0,39.9586186,-88.445067899,0,0.0,0.0,0.0,0.0,0.0,0.26403725149999996,0.0,0.0,0.0,0.0,0.0,0.0,0.0,1500,1387,0.0,0.0,40.0636608333,-88.2016408333,0.0,0.0,0.0,0.0,0.0,0.0,0.0,0.0,0.0,0.0,0.0,0,0.0,-0.22423797850000002,-0.2665203512,-0.2615541518,90.0,90.0,90.0,89.6997299194,89.25408935549999,89.9543762207,43.293998718299996,16.2976417542,5.4899997711,0,2,25,1,120,1565
119,1530572486273,77273, RC,0,39.9586186,-88.445067899,0,0.0,0.0,0.0,0.0,0.0,0.27461344,0.0,0.0,0.0,0.0,0.0,0.0,0.0,1500,1387,0.0,0.0,40.0636608333,-88.2016408333,0.0,0.0,0.0,0.0,0.0,0.0,0.0,0.0,0.0,0.0,0.0,0,0.0,-0.22423797850000002,-0.2790278792,-0.2701990306,90.0,90.0,90.0,90.3363494873,89.3177566528,90.01803588870001,43.293998718299996,16.2976417542,5.4899997711,0,2,25,1,114,1567
120,1530572486324,77324, RC,0,39.9586186,-88.445067899,0,0.0,0.0,0.0,0.0,0.0,0.2782921195,0.0,0.0,0.0,0.0,0.0,0.0,0.0,1500,1387,0.0,0.0,40.0636608333,-88.2016408333,0.0,0.0,0.0,0.0,0.0,0.0,0.0,0.0,0.0,0.0,0.0,0,0.0,-0.22423797850000002,-0.2836262286,-0.2729580402,90.0,90.0,90.0,90.0816955566,89.5724029541,89.8907089233,43.293998718299996,16.2976417542,5.4899997711,0,2,25,1,113,1570
121,1530572486375,77375, RC,0,39.9586186,-88.445067899,0,0.0,0.0,0.0,0.0,0.0,0.2835342288,0.0,0.0,0.0,0.0,0.0,0.0,0.0,1500,1387,0.0,0.0,40.0636608333,-88.2016408333,0.0,0.0,0.0,0.0,0.0,0.0,0.0,0.0,0.0,0.0,0.0,0,0.0,-0.22423797850000002,-0.287304908,-0.2797635794,90.0,90.0,90.0,90.145362854,89.82704925540001,89.5724029541,43.293998718299996,16.2976417542,5.4899997711,0,2,25,1,115,1573
122,1530572486425,77425, RC,0,39.9586186,-88.445067899,0,0.0,0.0,0.0,0.0,0.0,0.2850976884,0.0,0.0,0.0,0.0,0.0,0.0,0.0,1500,1387,0.0,0.0,40.0636608333,-88.2016408333,0.0,0.0,0.0,0.0,0.0,0.0,0.0,0.0,0.0,0.0,0.0,0,0.0,-0.22423797850000002,-0.2893281579,-0.280867219,90.0,90.0,90.0,90.5909881592,90.0816955566,89.3177566528,43.293998718299996,16.2976417542,5.4899997711,0,2,25,1,119,1575
123,1530572486476,77476, RC,0,39.9586186,-88.445067899,0,0.0,0.0,0.0,0.0,0.0,0.2764527798,0.0,0.0,0.0,0.0,0.0,0.0,0.0,1500,1387,0.0,0.0,40.0636608333,-88.2016408333,0.0,0.0,0.0,0.0,0.0,0.0,0.0,0.0,0.0,0.0,0.0,0,0.0,-0.22423797850000002,-0.2729580402,-0.2799475193,90.0,90.0,90.0,90.5273361206,90.7183227539,88.6174697876,43.293998718299996,16.2976417542,5.4899997711,0,2,25,1,104,1578
124,1530572486526,77526, RC,0,39.9586186,-88.445067899,0,0.0,0.0,0.0,0.0,0.0,0.2842699885,0.0,0.0,0.0,0.0,0.0,0.0,0.0,1500,1387,0.0,0.0,40.0636608333,-88.2016408333,0.0,0.0,0.0,0.0,0.0,0.0,0.0,0.0,0.0,0.0,0.0,0,0.0,-0.22423797850000002,-0.281419009,-0.2871209681,90.0,90.0,90.0,90.9093093872,90.9093093872,88.4901504517,43.293998718299996,16.2976417542,5.4899997711,0,2,25,1,75,1580
125,1530572486577,77577, RC,0,39.9586186,-88.445067899,0,0.0,0.0,0.0,0.0,0.0,0.281878829,0.0,0.0,0.0,0.0,0.0,0.0,0.0,1500,1387,0.0,0.0,40.0636608333,-88.2016408333,0.0,0.0,0.0,0.0,0.0,0.0,0.0,0.0,0.0,0.0,0.0,0,0.0,-0.22423797850000002,-0.2832583487,-0.2804993391,90.0,90.0,90.0,90.8456420898,90.145362854,89.3814163208,43.293998718299996,16.2976417542,5.4899997711,0,2,25,1,94,1583
126,1530572486627,77627, RC,0,39.9586186,-88.445067899,0,0.0,0.0,0.0,0.0,0.0,0.28666111829999996,0.0,0.0,0.0,0.0,0.0,0.0,0.0,1500,1387,0.0,0.0,40.0636608333,-88.2016408333,0.0,0.0,0.0,0.0,0.0,0.0,0.0,0.0,0.0,0.0,0.0,0,0.0,-0.22423797850000002,-0.288592428,-0.28472980859999997,90.0,90.0,90.0,89.6997299194,89.9543762207,89.3814163208,43.293998718299996,16.2976417542,5.4899997711,0,2,25,1,79,1586
127,1530572486678,77678, RC,0,39.9586186,-88.445067899,0,0.0,0.0,0.0,0.0,0.0,0.2898799777,0.0,0.0,0.0,0.0,0.0,0.0,0.0,1500,1387,0.0,0.0,40.0636608333,-88.2016408333,0.0,0.0,0.0,0.0,0.0,0.0,0.0,0.0,0.0,0.0,0.0,0,0.0,-0.22423797850000002,-0.2931907773,-0.28656914829999997,90.0,90.0,90.0,90.0816955566,90.145362854,89.25408935549999,43.293998718299996,16.2976417542,5.4899997711,0,2,25,1,113,1588
128,1530572486729,77729, RC,0,39.9586186,-88.445067899,0,0.0,0.0,0.0,0.0,0.0,0.2827065587,0.0,0.0,0.0,0.0,0.0,0.0,0.0,1500,1387,0.0,0.0,40.0636608333,-88.2016408333,0.0,0.0,0.0,0.0,0.0,0.0,0.0,0.0,0.0,0.0,0.0,0,0.0,-0.22423797850000002,-0.2930068374,-0.2724062502,90.0,90.0,90.0,90.20902252200001,89.82704925540001,89.44507598879999,43.293998718299996,16.303401947,7.700000762899999,0,2,25,1,123,1591
129,1530572486779,77779, RC,0,39.9586186,-88.445067899,0,0.0,0.0,0.0,0.0,0.0,0.2868450582,0.0,0.0,0.0,0.0,0.0,0.0,0.0,1500,1387,0.0,0.0,40.0636608333,-88.2016408333,0.0,0.0,0.0,0.0,0.0,0.0,0.0,0.0,0.0,0.0,0.0,0,0.0,-0.22423797850000002,-0.2948461771,-0.2788439393,90.0,90.0,90.0,89.3814163208,88.9994430542,89.8907089233,43.293998718299996,16.303401947,7.700000762899999,0,2,25,1,119,1593
130,1530572486830,77830, RC,0,39.9586186,-88.445067899,0,0.0,0.0,0.0,0.0,0.0,0.2915353775,0.0,0.0,0.0,0.0,0.0,0.0,0.0,1500,1387,0.0,0.0,40.0636608333,-88.2016408333,0.0,0.0,0.0,0.0,0.0,0.0,0.0,0.0,0.0,0.0,0.0,0,0.0,-0.22423797850000002,-0.29650160670000003,-0.28656914829999997,90.0,90.0,90.0,89.6997299194,88.55381011959999,90.3363494873,43.293998718299996,16.303401947,7.700000762899999,0,2,25,1,104,1596
131,1530572486880,77880, RC,0,39.9586186,-88.445067899,0,0.0,0.0,0.0,0.0,0.0,0.28712093829999996,0.0,0.0,0.0,0.0,0.0,0.0,0.0,1500,1387,0.0,0.0,40.0636608333,-88.2016408333,0.0,0.0,0.0,0.0,0.0,0.0,0.0,0.0,0.0,0.0,0.0,0,0.0,-0.22423797850000002,-0.2974212468,-0.2768206596,90.0,90.0,90.0,90.0816955566,88.8084564209,90.40000915530001,43.293998718299996,16.303401947,7.700000762899999,0,2,25,1,125,1598
132,1530572486931,77931, RC,0,39.9586186,-88.445067899,0,0.0,0.0,0.0,0.0,0.0,0.2904317379,0.0,0.0,0.0,0.0,0.0,0.0,0.0,1500,1500,0.0,0.0,40.0636608333,-88.2016408333,0.0,0.0,0.0,0.0,0.0,0.0,0.0,0.0,0.0,0.0,0.0,0,0.0,0.0,-0.2946622372,-0.2862012684,90.0,90.0,90.0,90.2726821899,89.44507598879999,90.3363494873,43.293998718299996,16.303401947,7.700000762899999,0,2,25,1,113,1601
133,1530572486982,77982, RC,0,39.9586186,-88.445067899,0,0.0,0.0,0.0,0.0,0.0,0.2852816284,0.0,0.0,0.0,0.0,0.0,0.0,0.0,1500,1500,0.0,0.0,40.063659,-88.2016386667,0.0,0.0,0.0,0.0,0.0,0.0,0.0,0.0,0.0,0.0,0.0,0,0.0,0.0,-0.2869370282,-0.2836262286,90.0,90.0,90.0,90.01803588870001,89.3177566528,90.3363494873,43.293998718299996,16.303401947,7.700000762899999,0,2,25,1,120,1603
134,1530572487032,78032, RC,0,39.9586186,-88.445067899,0,0.0,0.0,0.0,0.0,0.0,0.2390222251,0.0,0.0,0.0,0.0,0.0,0.0,0.0,1500,1500,0.0,0.0,40.063659,-88.2016386667,0.0,0.0,0.0,0.0,0.0,0.0,0.0,0.0,0.0,0.0,0.0,0,0.0,0.0,-0.2243994623,-0.253644973,90.0,90.0,90.0,90.145362854,89.44507598879999,89.9543762207,43.293998718299996,16.303401947,7.700000762899999,0,2,25,1,121,1606
135,1530572487083,78083, RC,0,39.9586186,-88.445067899,0,0.0,0.0,0.0,0.0,0.0,0.1940503716,0.0,0.0,0.0,0.0,0.0,0.0,0.0,1500,1500,0.0,0.0,40.063659,-88.2016386667,0.0,0.0,0.0,0.0,0.0,0.0,0.0,0.0,0.0,0.0,0.0,0,0.0,0.0,-0.1859572679,-0.2021434605,90.0,90.0,90.0,90.145362854,89.12677001950001,90.2726821899,43.293998718299996,16.303401947,7.700000762899999,0,2,25,1,131,1609
136,1530572487133,78133, RC,0,39.9586186,-88.445067899,0,0.0,0.0,0.0,0.0,0.0,0.1475150585,0.0,0.0,0.0,0.0,0.0,0.0,0.0,1500,1500,0.0,0.0,40.063659,-88.2016386667,0.0,0.0,0.0,0.0,0.0,0.0,0.0,0.0,0.0,0.0,0.0,0,0.0,0.0,-0.1399737597,-0.1550563574,90.0,90.0,90.0,89.7633895874,88.93578338620001,90.7819747925,43.293998718299996,16.303401947,7.700000762899999,0,2,25,1,140,1611
137,1530572487184,78184, RC,0,39.9586186,-88.445067899,0,0.0,0.0,0.0,0.0,0.0,0.12121249740000001,0.0,0.0,0.0,0.0,0.0,0.0,0.0,1500,1500,0.0,0.0,40.063659,-88.2016386667,0.0,0.0,0.0,0.0,0.0,0.0,0.0,0.0,0.0,0.0,0.0,0,0.0,0.0,-0.1145908758,-0.1278341264,90.0,90.0,90.0,90.0816955566,89.1904296875,91.0366287231,43.293998718299996,16.303401947,7.700000762899999,0,2,25,1,143,1614
138,1530572487234,78234, RC,0,39.9586186,-88.445067899,0,0.0,0.0,0.0,0.0,0.0,0.0924268365,0.0,0.0,0.0,0.0,0.0,0.0,0.0,1500,1500,0.0,0.0,40.063659,-88.2016386667,0.0,0.0,0.0,0.0,0.0,0.0,0.0,0.0,0.0,0.0,0.0,0,0.0,0.0,-0.08700077980000001,-0.0978528857,90.0,90.0,90.0,90.01803588870001,89.44507598879999,90.20902252200001,43.293998718299996,16.303401947,7.700000762899999,0,2,25,1,135,1616
139,1530572487285,78285, RC,0,39.9586186,-88.445067899,0,0.0,0.0,0.0,0.0,0.0,0.075320974,0.0,0.0,0.0,0.0,0.0,0.0,0.0,1500,1500,0.0,0.0,40.063659,-88.2016386667,0.0,0.0,0.0,0.0,0.0,0.0,0.0,0.0,0.0,0.0,0.0,0,0.0,0.0,-0.0713663921,-0.0792755485,90.0,90.0,90.0,89.9543762207,89.5724029541,89.5087432861,43.293998718299996,16.303401947,7.700000762899999,0,2,25,1,135,1619
140,1530572487336,78336, RC,0,39.9586186,-88.445067899,0,0.0,0.0,0.0,0.0,0.0,0.0567436367,0.0,0.0,0.0,0.0,0.0,0.0,0.0,1500,1500,0.0,0.0,40.063659,-88.2016386667,0.0,0.0,0.0,0.0,0.0,0.0,0.0,0.0,0.0,0.0,0.0,0,0.0,0.0,-0.053708728399999996,-0.0597785451,90.0,90.0,90.0,90.0816955566,89.6997299194,89.3177566528,43.293998718299996,16.303401947,7.700000762899999,0,2,25,1,125,1621
141,1530572487386,78386, RC,0,39.9586186,-88.445067899,0,0.0,0.0,0.0,0.0,0.0,0.046995133200000004,0.0,0.0,0.0,0.0,0.0,0.0,0.0,1500,1500,0.0,0.0,40.063659,-88.2016386667,0.0,0.0,0.0,0.0,0.0,0.0,0.0,0.0,0.0,0.0,0.0,0,0.0,0.0,-0.044512025999999996,-0.049478244000000005,90.0,90.0,90.0,90.01803588870001,89.82704925540001,89.25408935549999,43.293998718299996,16.303401947,7.700000762899999,0,2,25,1,137,1624
142,1530572487437,78437, RC,0,39.9586186,-88.445067899,0,0.0,0.0,0.0,0.0,0.0,0.0353153273,0.0,0.0,0.0,0.0,0.0,0.0,0.0,1500,1500,0.0,0.0,40.063659,-88.2016386667,0.0,0.0,0.0,0.0,0.0,0.0,0.0,0.0,0.0,0.0,0.0,0,0.0,0.0,-0.0334759839,-0.0371546671,90.0,90.0,90.0,90.01803588870001,89.8907089233,89.1904296875,43.293998718299996,16.303401947,7.700000762899999,0,2,25,1,136,1626
143,1530572487487,78487, RC,0,39.9586186,-88.445067899,0,0.0,0.0,0.0,0.0,0.0,0.028969604500000003,0.0,0.0,0.0,0.0,0.0,0.0,0.0,1500,1500,0.0,0.0,40.063659,-88.2016386667,0.0,0.0,0.0,0.0,0.0,0.0,0.0,0.0,0.0,0.0,0.0,0,0.0,0.0,-0.0274061635,-0.0305330437,90.0,90.0,90.0,90.01803588870001,89.8907089233,89.1904296875,43.293998718299996,16.303401947,7.700000762899999,0,2,25,1,136,1629
144,1530572487538,78538, RC,0,39.9586186,-88.445067899,0,0.0,0.0,0.0,0.0,0.0,0.0219801106,0.0,0.0,0.0,0.0,0.0,0.0,0.0,1500,1500,0.0,0.0,40.063659,-88.2016386667,0.0,0.0,0.0,0.0,0.0,0.0,0.0,0.0,0.0,0.0,0.0,0,0.0,0.0,-0.0207845401,-0.0231756829,90.0,90.0,90.0,90.01803588870001,89.8907089233,89.12677001950001,43.293998718299996,16.303401947,7.700000762899999,0,2,25,1,128,1632
145,1530572487589,78589, RC,0,39.9586186,-88.445067899,0,0.0,0.0,0.0,0.0,0.0,0.0180255305,0.0,0.0,0.0,0.0,0.0,0.0,0.0,1500,1500,0.0,0.0,40.063659,-88.2016386667,0.0,0.0,0.0,0.0,0.0,0.0,0.0,0.0,0.0,0.0,0.0,0,0.0,0.0,-0.0171058606,-0.0189452004,90.0,90.0,90.0,90.01803588870001,89.8907089233,89.12677001950001,43.293998718299996,16.303401947,7.700000762899999,0,2,25,1,139,1634
146,1530572487639,78639, RC,0,39.9586186,-88.445067899,0,0.0,0.0,0.0,0.0,0.0,0.0135191474,0.0,0.0,0.0,0.0,0.0,0.0,0.0,1459,1500,0.0,0.0,40.063659,-88.2016386667,0.0,0.0,0.0,0.0,0.0,0.0,0.0,0.0,0.0,0.0,0.0,0,-0.0808849931,0.0,-0.012875379099999999,-0.0141629167,90.0,90.0,90.0,90.01803588870001,89.8907089233,89.12677001950001,43.293998718299996,16.303401947,7.700000762899999,0,2,25,1,128,1637
147,1530572487690,78690, RC,0,39.9586186,-88.445067899,0,0.0,0.0,0.0,0.0,0.0,0.0114958743,0.0,0.0,0.0,0.0,0.0,0.0,0.0,1459,1500,0.0,0.0,40.063659,-88.2016386667,0.0,0.0,0.0,0.0,0.0,0.0,0.0,0.0,0.0,0.0,0.0,0,-0.0808849931,0.0,-0.0141629167,-0.0088288318,90.0,90.0,90.0,90.01803588870001,89.8907089233,89.12677001950001,43.293998718299996,16.303401947,7.700000762899999,0,2,25,1,132,1639
148,1530572487741,78741, RC,0,39.9586186,-88.445067899,0,0.0,0.0,0.0,0.0,0.0,0.0052421186,0.0,0.0,0.0,0.0,0.0,0.0,0.0,1459,1500,0.0,0.0,40.063659,-88.2016386667,0.0,0.0,0.0,0.0,0.0,0.0,0.0,0.0,0.0,0.0,0.0,0,-0.0808849931,0.0,-0.0406494103,0.0301651731,90.0,90.0,90.0,90.01803588870001,89.7633895874,89.1904296875,43.293998718299996,16.3113517761,2.0799999237,0,2,25,1,138,1642
149,1530572487791,78791, RC,0,39.9586186,-88.445067899,0,0.0,0.0,0.0,0.0,0.0,0.0073573608,0.0,0.0,0.0,0.0,0.0,0.0,0.0,1459,1500,0.0,0.0,40.063659,-88.2016386667,0.0,0.0,0.0,0.0,0.0,0.0,0.0,0.0,0.0,0.0,0.0,0,-0.0808849931,0.0,-0.046719234400000004,0.032004512799999996,90.0,90.0,90.0,90.20902252200001,89.6997299194,89.3814163208,43.293998718299996,16.3113517761,2.0799999237,0,2,25,1,121,1644
150,1530572487842,78842, RC,0,39.9586186,-88.445067899,0,0.0,0.0,0.0,0.0,0.0,0.0001839343,0.0,0.0,0.0,0.0,0.0,0.0,0.0,1446,1500,0.0,0.0,40.063659,-88.2016386667,0.0,0.0,0.0,0.0,0.0,0.0,0.0,0.0,0.0,0.0,0.0,0,-0.1065400243,0.0,-0.0553641319,0.0557320006,90.0,90.0,90.0,90.40000915530001,89.8907089233,89.1904296875,43.293998718299996,16.3113517761,2.0799999237,0,2,25,1,128,1647
151,1530572487892,78892, RC,0,39.9586186,-88.445067899,0,0.0,0.0,0.0,0.0,0.0,0.0044144168,0.0,0.0,0.0,0.0,0.0,0.0,0.0,1446,1500,0.0,0.0,40.063659,-88.2016386667,0.0,0.0,0.0,0.0,0.0,0.0,0.0,0.0,0.0,0.0,0.0,0,-0.1065400243,0.0,-0.0660323054,0.0572034717,90.0,90.0,90.0,90.7183227539,90.0816955566,88.9994430542,43.293998718299996,16.3113517761,2.0799999237,0,2,25,1,130,1650
152,1530572487943,78943, RC,0,39.9586186,-88.445067899,0,0.0,0.0,0.0,0.0,0.0,0.0063457228,0.0,0.0,0.0,0.0,0.0,0.0,0.0,1500,1500,0.0,0.0,40.063659,-88.2016386667,0.0,0.0,0.0,0.0,0.0,0.0,0.0,0.0,0.0,0.0,0.0,0,0.0,0.0,-0.0698949173,0.082586363,90.0,90.0,90.0,91.0366287231,90.4636688232,88.8084564209,43.293998718299996,16.3113517761,2.0799999237,0,2,25,1,127,1652
