,(0)linux time (ms),    (1)uptime  (ms),      (2)drive mode,(3)mpc step counter,(4)mpc origin latitude  (deg),(5)mpc origin longitude  (deg),(6)closest trajectory point index to robot,(7)mpc error x (W;E)  (m),(8)mpc error y (W;E)  (m),(9)abs mpc error (m),(10)input [x] for mhe (m),(11)input [y] for mhe (m),(12)input [speed] for mhe (m/s),(13)input [vyaw] for mhe (rad/s),(14)mhe output x  (m),(15)mhe output y  (m),(16)mhe output speed  (m/s),(17)mhe output yaw  (rad),(18)mpc reference heading (rad),(19)mpc turn rate command (rad/s),(20)turn rate command as PWM,(21)throttle command as PWM,(22)primary gps latitude (deg),(23)primary gps longitude (deg),(24)secondary gps latitude  (deg),(25)secondary gps longitude (deg),(26)accelerometer x (m/s^2),(27)accelerometer y (m/s^2),(28)accelerometer z (m/s^2),(29)gyro yaw rate (rad/s),(30)gyro pitch rate   (rad/s),(31)gyro roll rate (rad/s),      (32)yaw (rad),  (33)pitch   (rad),     (34)roll (rad),(35)sonar1 measurement (m),(36)ultrasonic sensor measurement (m),(37)primary gps time (s),(38)normalized turn rate command,(39)normalized throttle command,(40)speed calculation from encoder left (m/s),(41)speed calculation from encoder right (m/s),(42)front gimbal target angle (degrees from straight down),(43)left gimbal target angle  (degrees from straight down),(44)right gimbal target angle  (degrees from straight down),(45)front gimbal measured angle  (degrees from straight down),(46)left gimbal measured angle    (degrees from straight down),(47)right gimbal measured angle  (degrees from straight down),(48)internal temperature (C),(49)battery voltage (V),(50)primary gps type,(51)secondary gps type,    (52)MPC R value, (53)MPC Q[0] value,Unnamed: 54,weed_num,start
0,1530571351071,366071, RC,0,39.9586186,-88.445067899,0,0.0,0.0,0.0,0.0,0.0,0.1378585249,0.0,0.0,0.0,0.0,0.0,0.0,0.0,1500,1500,0.0,0.0,40.063805333299996,-88.1998568333,0.0,0.0,0.0,0.0,0.0,0.0,0.0,0.0,0.0,0.0,0.0,0,0.0,0.0,0.1872448027,0.08847224710000001,90.0,90.0,90.0,90.5909881592,89.1904296875,91.0366287231,45.445999145500004,14.3665542603,9.0100002289,0,2,25,1,185,2077
1,1530571351122,366122, RC,0,39.9586186,-88.445067899,0,0.0,0.0,0.0,0.0,0.0,0.103278935,0.0,0.0,0.0,0.0,0.0,0.0,0.0,1500,1500,0.0,0.0,40.063805333299996,-88.1998568333,0.0,0.0,0.0,0.0,0.0,0.0,0.0,0.0,0.0,0.0,0.0,0,0.0,0.0,0.13960590960000002,0.0669519678,90.0,90.0,90.0,90.20902252200001,89.0631027222,91.1639480591,45.445999145500004,14.3665542603,9.0100002289,0,2,25,1,139,2079
2,1530571351173,366173, RC,0,39.9586186,-88.445067899,0,0.0,0.0,0.0,0.0,0.0,0.085529305,0.0,0.0,0.0,0.0,0.0,0.0,0.0,1500,1500,0.0,0.0,40.0638066667,-88.1998658333,0.0,0.0,0.0,0.0,0.0,0.0,0.0,0.0,0.0,0.0,0.0,0,0.0,0.0,0.11551054570000001,0.05554806809999999,90.0,90.0,90.0,90.3363494873,89.5724029541,91.0366287231,45.445999145500004,14.3665542603,9.0100002289,0,2,25,1,144,2081
3,1530571351223,366223, RC,0,39.9586186,-88.445067899,0,0.0,0.0,0.0,0.0,0.0,0.0708145872,0.0,0.0,0.0,0.0,0.0,0.0,0.0,1500,1500,0.0,0.0,40.0638066667,-88.1998658333,0.0,0.0,0.0,0.0,0.0,0.0,0.0,0.0,0.0,0.0,0.0,0,0.0,0.0,0.0956456736,0.0459834971,90.0,90.0,90.0,90.2726821899,89.7633895874,90.40000915530001,45.445999145500004,14.3665542603,9.0100002289,0,2,25,1,142,2082
4,1530571351274,366274, RC,0,39.9586186,-88.445067899,0,0.0,0.0,0.0,0.0,0.0,0.053248889699999996,0.0,0.0,0.0,0.0,0.0,0.0,0.0,1500,1500,0.0,0.0,40.0638066667,-88.1998658333,0.0,0.0,0.0,0.0,0.0,0.0,0.0,0.0,0.0,0.0,0.0,0,0.0,0.0,0.07191818950000001,0.03457959,90.0,90.0,90.0,90.20902252200001,89.82704925540001,89.3814163208,45.445999145500004,14.3665542603,9.0100002289,0,2,25,1,149,2084
5,1530571351324,366324, RC,0,39.9586186,-88.445067899,0,0.0,0.0,0.0,0.0,0.0,0.0439602211,0.0,0.0,0.0,0.0,0.0,0.0,0.0,1500,1500,0.0,0.0,40.0638066667,-88.1998658333,0.0,0.0,0.0,0.0,0.0,0.0,0.0,0.0,0.0,0.0,0.0,0,0.0,0.0,0.0595946126,0.0283258334,90.0,90.0,90.0,90.2726821899,89.82704925540001,89.25408935549999,45.445999145500004,14.3665542603,9.0100002289,0,2,25,1,165,2086
6,1530571351375,366375, RC,0,39.9586186,-88.445067899,0,0.0,0.0,0.0,0.0,0.0,0.033108118900000004,0.0,0.0,0.0,0.0,0.0,0.0,0.0,1500,1500,0.0,0.0,40.0638066667,-88.1998658333,0.0,0.0,0.0,0.0,0.0,0.0,0.0,0.0,0.0,0.0,0.0,0,0.0,0.0,0.0448798947,0.021336343100000002,90.0,90.0,90.0,90.2726821899,89.7633895874,89.3177566528,45.445999145500004,14.3665542603,9.0100002289,0,2,25,1,182,2088
7,1530571351426,366426, RC,0,39.9586186,-88.445067899,0,0.0,0.0,0.0,0.0,0.0,0.0249230564,0.0,0.0,0.0,0.0,0.0,0.0,0.0,1500,1500,0.0,0.0,40.0638066667,-88.1998658333,0.0,0.0,0.0,0.0,0.0,0.0,0.0,0.0,0.0,0.0,0.0,0,0.0,0.0,0.0336599201,0.0161861908,90.0,90.0,90.0,90.20902252200001,89.63606262209998,89.3177566528,45.445999145500004,14.3665542603,9.0100002289,0,2,25,1,187,2089
8,1530571351476,366476, RC,0,39.9586186,-88.445067899,0,0.0,0.0,0.0,0.0,0.0,0.0205086395,0.0,0.0,0.0,0.0,0.0,0.0,0.0,1500,1464,0.0,0.0,40.0638066667,-88.1998658333,0.0,0.0,0.0,0.0,0.0,0.0,0.0,0.0,0.0,0.0,0.0,0,0.0,-0.07062500719999999,0.0277740341,0.013243246799999999,90.0,90.0,90.0,90.20902252200001,89.5724029541,89.3814163208,45.445999145500004,14.3665542603,9.0100002289,0,2,25,1,156,2091
9,1530571351527,366527, RC,0,39.9586186,-88.445067899,0,0.0,0.0,0.0,0.0,0.0,0.0086448975,0.0,0.0,0.0,0.0,0.0,0.0,0.0,1500,1464,0.0,0.0,40.0638066667,-88.1998658333,0.0,0.0,0.0,0.0,0.0,0.0,0.0,0.0,0.0,0.0,0.0,0,0.0,-0.07062500719999999,0.0117717758,0.0055180197,90.0,90.0,90.0,90.20902252200001,89.5087432861,89.3814163208,45.445999145500004,14.3665542603,9.0100002289,0,2,25,1,150,2093
10,1530571351577,366577, RC,0,39.9586186,-88.445067899,0,0.0,0.0,0.0,0.0,0.0,0.0142548848,0.0,0.0,0.0,0.0,0.0,0.0,0.0,1500,1407,0.0,0.0,40.0638066667,-88.1998658333,0.0,0.0,0.0,0.0,0.0,0.0,0.0,0.0,0.0,0.0,0.0,0,0.0,-0.1857340336,-0.0068055578000000005,-0.0217042118,90.0,90.0,90.0,90.01803588870001,89.63606262209998,89.25408935549999,45.445999145500004,14.401186943099999,4.279999733,0,2,25,1,142,2094
11,1530571351628,366628, RC,0,39.9586186,-88.445067899,0,0.0,0.0,0.0,0.0,0.0,0.029705338199999997,0.0,0.0,0.0,0.0,0.0,0.0,0.0,1500,1407,0.0,0.0,40.0638066667,-88.1998658333,0.0,0.0,0.0,0.0,0.0,0.0,0.0,0.0,0.0,0.0,0.0,0,0.0,-0.1857340336,-0.026670428,-0.0327402502,90.0,90.0,90.0,90.145362854,89.8907089233,89.0631027222,45.445999145500004,14.401186943099999,4.279999733,0,2,25,1,130,2096
12,1530571351678,366678, RC,0,39.9586186,-88.445067899,0,0.0,0.0,0.0,0.0,0.0,0.06318132580000001,0.0,0.0,0.0,0.0,0.0,0.0,0.0,1500,1385,0.0,0.0,40.0638066667,-88.1998658333,0.0,0.0,0.0,0.0,0.0,0.0,0.0,0.0,0.0,0.0,0.0,0,0.0,-0.22835201030000002,-0.0577552728,-0.068607375,90.0,90.0,90.0,90.3363494873,89.7633895874,89.0631027222,45.445999145500004,14.401186943099999,4.279999733,0,2,25,1,155,2098
13,1530571351729,366729, RC,0,39.9586186,-88.445067899,0,0.0,0.0,0.0,0.0,0.0,0.11725792289999999,0.0,0.0,0.0,0.0,0.0,0.0,0.0,1500,1385,0.0,0.0,40.0638066667,-88.1998658333,0.0,0.0,0.0,0.0,0.0,0.0,0.0,0.0,0.0,0.0,0.0,0,0.0,-0.22835201030000002,-0.1140390709,-0.1204767674,90.0,90.0,90.0,90.4636688232,89.5087432861,89.3177566528,45.445999145500004,14.401186943099999,4.279999733,0,2,25,1,169,2099
14,1530571351780,366780, RC,0,39.9586186,-88.445067899,0,0.0,0.0,0.0,0.0,0.0,0.1521134079,0.0,0.0,0.0,0.0,0.0,0.0,0.0,1500,1373,0.0,0.0,40.0638066667,-88.1998658333,0.0,0.0,0.0,0.0,0.0,0.0,0.0,0.0,0.0,0.0,0.0,0,0.0,-0.2530390024,-0.1541366875,-0.15009014310000002,90.0,90.0,90.0,90.5273361206,89.3177566528,89.44507598879999,45.445999145500004,14.401186943099999,4.279999733,0,2,25,1,173,2101
15,1530571351830,366830, RC,0,39.9586186,-88.445067899,0,0.0,0.0,0.0,0.0,0.0,0.1932226568,0.0,0.0,0.0,0.0,0.0,0.0,0.0,1500,1373,0.0,0.0,40.0638066667,-88.1998658333,0.0,0.0,0.0,0.0,0.0,0.0,0.0,0.0,0.0,0.0,0.0,0,0.0,-0.2530390024,-0.1957057714,-0.1907395422,90.0,90.0,90.0,90.40000915530001,89.6997299194,89.0631027222,45.445999145500004,14.401186943099999,4.279999733,0,2,25,1,148,2103
16,1530571351881,366881, RC,0,39.9586186,-88.445067899,0,0.0,0.0,0.0,0.0,0.0,0.2107883543,0.0,0.0,0.0,0.0,0.0,0.0,0.0,1500,1367,0.0,0.0,40.0638066667,-88.1998658333,0.0,0.0,0.0,0.0,0.0,0.0,0.0,0.0,0.0,0.0,0.0,0,0.0,-0.2653819919,-0.20784540469999999,-0.2271584868,90.0,90.0,90.0,90.4636688232,89.6997299194,88.93578338620001,45.445999145500004,14.401186943099999,4.279999733,0,2,25,1,101,2105
17,1530571351931,366931, RC,0,39.9586186,-88.445067899,0,0.0,0.0,0.0,0.0,0.0,0.2411374748,0.0,0.0,0.0,0.0,0.0,0.0,0.0,1500,1367,0.0,0.0,40.0638066667,-88.1998658333,0.0,0.0,0.0,0.0,0.0,0.0,0.0,0.0,0.0,0.0,0.0,0,0.0,-0.2653819919,-0.2411374748,-0.2411374748,90.0,90.0,90.0,90.20902252200001,90.01803588870001,88.8721160889,45.445999145500004,14.401186943099999,4.279999733,0,2,25,1,96,2106
18,1530571351982,366982, RC,0,39.9586186,-88.445067899,0,0.0,0.0,0.0,0.0,0.0,0.2656006813,0.0,0.0,0.0,0.0,0.0,0.0,0.0,1500,1367,0.0,0.0,40.0638066667,-88.1998658333,0.0,0.0,0.0,0.0,0.0,0.0,0.0,0.0,0.0,0.0,0.0,0,0.0,-0.2653819919,-0.2622898817,-0.2689115107,90.0,90.0,90.0,89.5724029541,90.01803588870001,88.681137085,45.445999145500004,14.401186943099999,4.279999733,0,2,25,1,101,2108
19,1530571352033,367033, RC,0,39.9586186,-88.445067899,0,0.0,0.0,0.0,0.0,0.0,0.2873048782,0.0,0.0,0.0,0.0,0.0,0.0,0.0,1500,1367,0.0,0.0,40.0638066667,-88.1998658333,0.0,0.0,0.0,0.0,0.0,0.0,0.0,0.0,0.0,0.0,0.0,0,0.0,-0.2653819919,-0.2869370282,-0.2876727581,90.0,90.0,90.0,89.82704925540001,90.145362854,88.6174697876,45.445999145500004,14.401186943099999,4.279999733,0,2,25,1,109,2110
20,1530571352083,367083, RC,0,39.9586186,-88.445067899,0,0.0,0.0,0.0,0.0,0.0,0.2999963462,0.0,0.0,0.0,0.0,0.0,0.0,0.0,1500,1361,0.0,0.0,40.0638066667,-88.1998658333,0.0,0.0,0.0,0.0,0.0,0.0,0.0,0.0,0.0,0.0,0.0,0,0.0,-0.2777259946,-0.2981570065,-0.301835686,90.0,90.0,90.0,90.5273361206,89.9543762207,88.8721160889,45.445999145500004,14.401186943099999,4.279999733,0,2,25,1,115,2111
21,1530571352134,367134, RC,0,39.9586186,-88.445067899,0,0.0,0.0,0.0,0.0,0.0,0.3114922047,0.0,0.0,0.0,0.0,0.0,0.0,0.0,1500,1361,0.0,0.0,40.0638066667,-88.1998658333,0.0,0.0,0.0,0.0,0.0,0.0,0.0,0.0,0.0,0.0,0.0,0,0.0,-0.2777259946,-0.3156307042,-0.30735367539999997,90.0,90.0,90.0,90.8456420898,89.44507598879999,89.6997299194,45.445999145500004,14.401186943099999,4.279999733,0,2,25,1,65,2113
22,1530571352184,367184, RC,0,39.9586186,-88.445067899,0,0.0,0.0,0.0,0.0,0.0,0.31921744350000003,0.0,0.0,0.0,0.0,0.0,0.0,0.0,1500,1361,0.0,0.0,40.0638043333,-88.1998615,0.0,0.0,0.0,0.0,0.0,0.0,0.0,0.0,0.0,0.0,0.0,0,0.0,-0.2777259946,-0.3242756128,-0.3141592443,90.0,90.0,90.0,90.6546554565,88.6174697876,90.5273361206,45.445999145500004,14.401186943099999,4.279999733,0,2,25,1,131,2115
23,1530571352235,367235, RC,0,39.9586186,-88.445067899,0,0.0,0.0,0.0,0.0,0.0,0.3268507123,0.0,0.0,0.0,0.0,0.0,0.0,0.0,1500,1361,0.0,0.0,40.0638043333,-88.1998615,0.0,0.0,0.0,0.0,0.0,0.0,0.0,0.0,0.0,0.0,0.0,0,0.0,-0.2777259946,-0.336599201,-0.3171021938,90.0,90.0,90.0,90.4636688232,89.3814163208,90.9729614258,45.445999145500004,14.401186943099999,4.279999733,0,2,25,1,135,2117
24,1530571352285,367285, RC,0,39.9586186,-88.445067899,0,0.0,0.0,0.0,0.0,0.0,0.3375188708,0.0,0.0,0.0,0.0,0.0,0.0,0.0,1500,1361,0.0,0.0,40.0638043333,-88.1998615,0.0,0.0,0.0,0.0,0.0,0.0,0.0,0.0,0.0,0.0,0.0,0,0.0,-0.2777259946,-0.3395421505,-0.3354955912,90.0,90.0,90.0,90.0816955566,90.145362854,90.7183227539,45.445999145500004,14.401186943099999,4.279999733,0,2,25,1,114,2118
25,1530571352336,367336, RC,0,39.9586186,-88.445067899,0,0.0,0.0,0.0,0.0,0.0,0.337150991,0.0,0.0,0.0,0.0,0.0,0.0,0.0,1500,1361,0.0,0.0,40.0638043333,-88.1998615,0.0,0.0,0.0,0.0,0.0,0.0,0.0,0.0,0.0,0.0,0.0,0,0.0,-0.2777259946,-0.3419332802,-0.33236873149999996,90.0,90.0,90.0,90.20902252200001,90.7183227539,90.01803588870001,45.445999145500004,14.401186943099999,4.279999733,0,2,25,1,81,2120
26,1530571352386,367386, RC,0,39.9586186,-88.445067899,0,0.0,0.0,0.0,0.0,0.0,0.3233559728,0.0,0.0,0.0,0.0,0.0,0.0,0.0,1500,1361,0.0,0.0,40.0638043333,-88.1998615,0.0,0.0,0.0,0.0,0.0,0.0,0.0,0.0,0.0,0.0,0.0,0,0.0,-0.2777259946,-0.32960972190000004,-0.3171021938,90.0,90.0,90.0,90.6546554565,91.0366287231,89.44507598879999,45.445999145500004,14.401186943099999,4.279999733,0,2,25,1,79,2122
27,1530571352437,367437, RC,0,39.9586186,-88.445067899,0,0.0,0.0,0.0,0.0,0.0,0.33025348190000003,0.0,0.0,0.0,0.0,0.0,0.0,0.0,1500,1361,0.0,0.0,40.0638043333,-88.1998615,0.0,0.0,0.0,0.0,0.0,0.0,0.0,0.0,0.0,0.0,0.0,0,0.0,-0.2777259946,-0.3325526416,-0.32795432210000003,90.0,90.0,90.0,89.82704925540001,89.63606262209998,89.7633895874,45.445999145500004,14.401186943099999,4.279999733,0,2,25,1,132,2124
28,1530571352488,367488, RC,0,39.9586186,-88.445067899,0,0.0,0.0,0.0,0.0,0.0,0.3279542923,0.0,0.0,0.0,0.0,0.0,0.0,0.0,1500,1361,0.0,0.0,40.0638043333,-88.1998615,0.0,0.0,0.0,0.0,0.0,0.0,0.0,0.0,0.0,0.0,0.0,0,0.0,-0.2777259946,-0.3274025023,-0.3285060823,90.0,90.0,90.0,89.82704925540001,89.3177566528,90.01803588870001,45.445999145500004,14.401186943099999,4.279999733,0,2,25,1,90,2126
29,1530571352538,367538, RC,0,39.9586186,-88.445067899,0,0.0,0.0,0.0,0.0,0.0,0.32786235210000003,0.0,0.0,0.0,0.0,0.0,0.0,0.0,1500,1361,0.0,0.0,40.0638043333,-88.1998615,0.0,0.0,0.0,0.0,0.0,0.0,0.0,0.0,0.0,0.0,0.0,0,0.0,-0.2777259946,-0.3176540136,-0.3380706906,90.0,90.0,90.0,90.2726821899,89.25408935549999,90.20902252200001,45.445999145500004,14.3939390182,14.460000038099999,0,2,25,1,87,2128
30,1530571352589,367589, RC,0,39.9586186,-88.445067899,0,0.0,0.0,0.0,0.0,0.0,0.3328285813,0.0,0.0,0.0,0.0,0.0,0.0,0.0,1500,1500,0.0,0.0,40.0638043333,-88.1998615,0.0,0.0,0.0,0.0,0.0,0.0,0.0,0.0,0.0,0.0,0.0,0,0.0,0.0,-0.3277703822,-0.3378867507,90.0,90.0,90.0,90.6546554565,89.25408935549999,90.2726821899,45.445999145500004,14.3939390182,14.460000038099999,0,2,25,1,82,2130
31,1530571352639,367639, RC,0,39.9586186,-88.445067899,0,0.0,0.0,0.0,0.0,0.0,0.3332883716,0.0,0.0,0.0,0.0,0.0,0.0,0.0,1500,1500,0.0,0.0,40.0638043333,-88.1998615,0.0,0.0,0.0,0.0,0.0,0.0,0.0,0.0,0.0,0.0,0.0,0,0.0,0.0,-0.3285060823,-0.3380706906,90.0,90.0,90.0,89.8907089233,90.0816955566,89.82704925540001,45.445999145500004,14.3939390182,14.460000038099999,0,2,25,1,28,2132
32,1530571352690,367690, RC,0,39.9586186,-88.445067899,0,0.0,0.0,0.0,0.0,0.0,0.2840860486,0.0,0.0,0.0,0.0,0.0,0.0,0.0,1500,1500,0.0,0.0,40.0638043333,-88.1998615,0.0,0.0,0.0,0.0,0.0,0.0,0.0,0.0,0.0,0.0,0.0,0,0.0,0.0,-0.2657846212,-0.302387476,90.0,90.0,90.0,89.63606262209998,90.2726821899,89.5087432861,45.445999145500004,14.3939390182,14.460000038099999,0,2,25,1,3,2134
33,1530571352740,367740, RC,0,39.9586186,-88.445067899,0,0.0,0.0,0.0,0.0,0.0,0.21722605820000002,0.0,0.0,0.0,0.0,0.0,0.0,0.0,1500,1500,0.0,0.0,40.0638043333,-88.1998615,0.0,0.0,0.0,0.0,0.0,0.0,0.0,0.0,0.0,0.0,0.0,0,0.0,0.0,-0.1999362558,-0.23451584579999998,90.0,90.0,90.0,90.40000915530001,90.40000915530001,89.44507598879999,45.445999145500004,14.3939390182,14.460000038099999,0,2,25,1,34,2136
34,1530571352791,367791, RC,0,39.9586186,-88.445067899,0,0.0,0.0,0.0,0.0,0.0,0.18347415329999997,0.0,0.0,0.0,0.0,0.0,0.0,0.0,1500,1500,0.0,0.0,40.0638043333,-88.1998615,0.0,0.0,0.0,0.0,0.0,0.0,0.0,0.0,0.0,0.0,0.0,0,0.0,0.0,-0.1710586101,-0.1958896965,90.0,90.0,90.0,90.6546554565,90.5273361206,89.44507598879999,45.445999145500004,14.3939390182,14.460000038099999,0,2,25,1,65,2138
35,1530571352842,367842, RC,0,39.9586186,-88.445067899,0,0.0,0.0,0.0,0.0,0.0,0.143928349,0.0,0.0,0.0,0.0,0.0,0.0,0.0,1500,1500,0.0,0.0,40.0638043333,-88.1998615,0.0,0.0,0.0,0.0,0.0,0.0,0.0,0.0,0.0,0.0,0.0,0,0.0,0.0,-0.1355593503,-0.15229734779999998,90.0,90.0,90.0,90.9729614258,90.4636688232,89.5087432861,45.445999145500004,14.3939390182,14.460000038099999,0,2,25,1,78,2139
36,1530571352892,367892, RC,0,39.9586186,-88.445067899,0,0.0,0.0,0.0,0.0,0.0,0.1192811951,0.0,0.0,0.0,0.0,0.0,0.0,0.0,1500,1500,0.0,0.0,40.0638043333,-88.1998615,0.0,0.0,0.0,0.0,0.0,0.0,0.0,0.0,0.0,0.0,0.0,0,0.0,0.0,-0.1125676036,-0.1259947866,90.0,90.0,90.0,90.3363494873,90.20902252200001,89.6997299194,45.445999145500004,14.3939390182,14.460000038099999,0,2,25,1,119,2141
37,1530571352943,367943, RC,0,39.9586186,-88.445067899,0,0.0,0.0,0.0,0.0,0.0,0.08920799199999999,0.0,0.0,0.0,0.0,0.0,0.0,0.0,1500,1500,0.0,0.0,40.0638043333,-88.1998615,0.0,0.0,0.0,0.0,0.0,0.0,0.0,0.0,0.0,0.0,0.0,0,0.0,0.0,-0.0853453726,-0.0930706039,90.0,90.0,90.0,90.3363494873,89.8907089233,90.01803588870001,45.445999145500004,14.3939390182,14.460000038099999,0,2,25,1,140,2143
38,1530571352993,367993, RC,0,39.9586186,-88.445067899,0,0.0,0.0,0.0,0.0,0.0,0.07338966429999999,0.0,0.0,0.0,0.0,0.0,0.0,0.0,1500,1500,0.0,0.0,40.0638043333,-88.1998615,0.0,0.0,0.0,0.0,0.0,0.0,0.0,0.0,0.0,0.0,0.0,0,0.0,0.0,-0.0706306547,-0.07614867389999999,90.0,90.0,90.0,90.2726821899,89.6997299194,90.0816955566,45.445999145500004,14.3939390182,14.460000038099999,0,2,25,1,139,2145
39,1530571353044,368044, RC,0,39.9586186,-88.445067899,0,0.0,0.0,0.0,0.0,0.0,0.0543524958,0.0,0.0,0.0,0.0,0.0,0.0,0.0,1500,1500,0.0,0.0,40.0638043333,-88.1998615,0.0,0.0,0.0,0.0,0.0,0.0,0.0,0.0,0.0,0.0,0.0,0,0.0,0.0,-0.053156923499999995,-0.05554806809999999,90.0,90.0,90.0,90.20902252200001,89.82704925540001,90.01803588870001,45.445999145500004,14.3939390182,14.460000038099999,0,2,25,1,130,2147
40,1530571353095,368095, RC,0,39.9586186,-88.445067899,0,0.0,0.0,0.0,0.0,0.0,0.0442361236,0.0,0.0,0.0,0.0,0.0,0.0,0.0,1500,1500,0.0,0.0,40.0638043333,-88.1998615,0.0,0.0,0.0,0.0,0.0,0.0,0.0,0.0,0.0,0.0,0.0,0,0.0,0.0,-0.0439602211,-0.044512025999999996,90.0,90.0,90.0,90.2726821899,89.82704925540001,90.0816955566,45.445999145500004,14.3939390182,14.460000038099999,0,2,25,1,119,2149
41,1530571353145,368145, RC,0,39.9586186,-88.445067899,0,0.0,0.0,0.0,0.0,0.0,0.0324643478,0.0,0.0,0.0,0.0,0.0,0.0,0.0,1500,1500,0.0,0.0,40.0638043333,-88.1998615,0.0,0.0,0.0,0.0,0.0,0.0,0.0,0.0,0.0,0.0,0.0,0,0.0,0.0,-0.0329241827,-0.032004512799999996,90.0,90.0,90.0,90.3363494873,89.7633895874,90.0816955566,45.445999145500004,14.3939390182,14.460000038099999,0,2,25,1,132,2151
42,1530571353196,368196, RC,0,39.9586186,-88.445067899,0,0.0,0.0,0.0,0.0,0.0,0.0268543623,0.0,0.0,0.0,0.0,0.0,0.0,0.0,1500,1500,0.0,0.0,40.0638051667,-88.1998573333,0.0,0.0,0.0,0.0,0.0,0.0,0.0,0.0,0.0,0.0,0.0,0,0.0,0.0,-0.0274061635,-0.0263025612,90.0,90.0,90.0,90.40000915530001,89.7633895874,90.0816955566,45.445999145500004,14.3939390182,14.460000038099999,0,2,25,1,158,2152
43,1530571353246,368246, RC,0,39.9586186,-88.445067899,0,0.0,0.0,0.0,0.0,0.0,0.020324707,0.0,0.0,0.0,0.0,0.0,0.0,0.0,1500,1500,0.0,0.0,40.0638051667,-88.1998573333,0.0,0.0,0.0,0.0,0.0,0.0,0.0,0.0,0.0,0.0,0.0,0,0.0,0.0,-0.0206006076,-0.0200488046,90.0,90.0,90.0,90.3363494873,89.7633895874,90.0816955566,45.445999145500004,14.3939390182,14.460000038099999,0,2,25,1,131,2154
44,1530571353297,368297, RC,0,39.9586186,-88.445067899,0,0.0,0.0,0.0,0.0,0.0,0.01682996,0.0,0.0,0.0,0.0,0.0,0.0,0.0,1500,1500,0.0,0.0,40.0638051667,-88.1998573333,0.0,0.0,0.0,0.0,0.0,0.0,0.0,0.0,0.0,0.0,0.0,0,0.0,0.0,-0.0171058606,-0.0165540595,90.0,90.0,90.0,90.3363494873,89.7633895874,90.0816955566,45.445999145500004,14.3939390182,14.460000038099999,0,2,25,1,146,2156
45,1530571353347,368347, RC,0,39.9586186,-88.445067899,0,0.0,0.0,0.0,0.0,0.0,0.0125994775,0.0,0.0,0.0,0.0,0.0,0.0,0.0,1500,1500,0.0,0.0,40.0638051667,-88.1998573333,0.0,0.0,0.0,0.0,0.0,0.0,0.0,0.0,0.0,0.0,0.0,0,0.0,0.0,-0.012875379099999999,-0.012323576999999999,90.0,90.0,90.0,90.3363494873,89.6997299194,89.9543762207,45.445999145500004,14.3939390182,14.460000038099999,0,2,25,1,124,2158
46,1530571353398,368398, RC,0,39.9586186,-88.445067899,0,0.0,0.0,0.0,0.0,0.0,0.0102083366,0.0,0.0,0.0,0.0,0.0,0.0,0.0,1500,1471,0.0,0.0,40.0638051667,-88.1998573333,0.0,0.0,0.0,0.0,0.0,0.0,0.0,0.0,0.0,0.0,0.0,0,0.0,-0.057601988300000004,-0.0104842372,-0.0099324351,90.0,90.0,90.0,90.3363494873,89.63606262209998,89.7633895874,45.445999145500004,14.3939390182,14.460000038099999,0,2,25,1,152,2160
47,1530571353449,368449, RC,0,39.9586186,-88.445067899,0,0.0,0.0,0.0,0.0,0.0,0.0194050372,0.0,0.0,0.0,0.0,0.0,0.0,0.0,1500,1471,0.0,0.0,40.0638051667,-88.1998573333,0.0,0.0,0.0,0.0,0.0,0.0,0.0,0.0,0.0,0.0,0.0,0,0.0,-0.057601988300000004,-0.021152408799999998,-0.0176576637,90.0,90.0,90.0,90.2726821899,89.6997299194,89.7633895874,45.445999145500004,14.3939390182,14.460000038099999,0,2,25,1,137,2162
48,1530571353499,368499, RC,0,39.9586186,-88.445067899,0,0.0,0.0,0.0,0.0,0.0,0.0336599201,0.0,0.0,0.0,0.0,0.0,0.0,0.0,1500,1452,0.0,0.0,40.0638051667,-88.1998573333,0.0,0.0,0.0,0.0,0.0,0.0,0.0,0.0,0.0,0.0,0.0,0,0.0,-0.09463202949999999,-0.0382582694,-0.029061570800000002,90.0,90.0,90.0,90.20902252200001,89.7633895874,89.5087432861,45.445999145500004,14.3939390182,14.460000038099999,0,2,25,1,139,2163
49,1530571353550,368550, RC,0,39.9586186,-88.445067899,0,0.0,0.0,0.0,0.0,0.0,0.0567436367,0.0,0.0,0.0,0.0,0.0,0.0,0.0,1500,1452,0.0,0.0,40.0638051667,-88.1998573333,0.0,0.0,0.0,0.0,0.0,0.0,0.0,0.0,0.0,0.0,0.0,0,0.0,-0.09463202949999999,-0.0592267476,-0.054260525899999995,90.0,90.0,90.0,90.3363494873,90.0816955566,89.25408935549999,45.445999145500004,14.3902072906,8.4100008011,0,2,25,1,139,2165
50,1530571353600,368600, RC,0,39.9586186,-88.445067899,0,0.0,0.0,0.0,0.0,0.0,0.0721940994,0.0,0.0,0.0,0.0,0.0,0.0,0.0,1500,1500,0.0,0.0,40.0638051667,-88.1998573333,0.0,0.0,0.0,0.0,0.0,0.0,0.0,0.0,0.0,0.0,0.0,0,0.0,0.0,-0.0709985271,-0.07338966429999999,90.0,90.0,90.0,90.3363494873,90.40000915530001,88.8721160889,45.445999145500004,14.3902072906,8.4100008011,0,2,25,1,102,2167
51,1530571353651,368651, RC,0,39.9586186,-88.445067899,0,0.0,0.0,0.0,0.0,0.0,0.0654805005,0.0,0.0,0.0,0.0,0.0,0.0,0.0,1500,1500,0.0,0.0,40.0638051667,-88.1998573333,0.0,0.0,0.0,0.0,0.0,0.0,0.0,0.0,0.0,0.0,0.0,0,0.0,0.0,-0.0691591799,-0.06180182099999999,90.0,90.0,90.0,90.2726821899,90.7183227539,88.6174697876,45.445999145500004,14.3902072906,8.4100008011,0,2,25,1,91,2169
52,1530571353701,368701, RC,0,39.9586186,-88.445067899,0,0.0,0.0,0.0,0.0,0.0,0.0542605296,0.0,0.0,0.0,0.0,0.0,0.0,0.0,1500,1500,0.0,0.0,40.0638051667,-88.1998573333,0.0,0.0,0.0,0.0,0.0,0.0,0.0,0.0,0.0,0.0,0.0,0,0.0,0.0,-0.0577552728,-0.050765782599999996,90.0,90.0,90.0,90.145362854,90.40000915530001,88.681137085,45.445999145500004,14.3902072906,8.4100008011,0,2,25,1,39,2171
53,1530571353752,368752, RC,0,39.9586186,-88.445067899,0,0.0,0.0,0.0,0.0,0.0,0.0400056429,0.0,0.0,0.0,0.0,0.0,0.0,0.0,1500,1500,0.0,0.0,40.0638051667,-88.1998573333,0.0,0.0,0.0,0.0,0.0,0.0,0.0,0.0,0.0,0.0,0.0,0,0.0,0.0,-0.0435923561,-0.036418929700000005,90.0,90.0,90.0,90.0816955566,90.01803588870001,88.93578338620001,45.445999145500004,14.3902072906,8.4100008011,0,2,25,1,29,2173
54,1530571353803,368803, RC,0,39.9586186,-88.445067899,0,0.0,0.0,0.0,0.0,0.0,0.031728614100000004,0.0,0.0,0.0,0.0,0.0,0.0,0.0,1524,1500,0.0,0.0,40.0638051667,-88.1998573333,0.0,0.0,0.0,0.0,0.0,0.0,0.0,0.0,0.0,0.0,0.0,0,0.049464941,0.0,-0.035683196,-0.0277740341,90.0,90.0,90.0,90.2726821899,89.8907089233,89.12677001950001,45.445999145500004,14.3902072906,8.4100008011,0,2,25,1,28,2174
55,1530571353853,368853, RC,0,39.9586186,-88.445067899,0,0.0,0.0,0.0,0.0,0.0,0.0251069888,0.0,0.0,0.0,0.0,0.0,0.0,0.0,1524,1500,0.0,0.0,40.0638051667,-88.1998573333,0.0,0.0,0.0,0.0,0.0,0.0,0.0,0.0,0.0,0.0,0.0,0,0.049464941,0.0,-0.0097485017,-0.0404654779,90.0,90.0,90.0,90.20902252200001,89.8907089233,89.12677001950001,45.445999145500004,14.3902072906,8.4100008011,0,2,25,1,64,2176
56,1530571353904,368904, RC,0,39.9586186,-88.445067899,0,0.0,0.0,0.0,0.0,0.0,0.0203247052,0.0,0.0,0.0,0.0,0.0,0.0,0.0,1541,1500,0.0,0.0,40.0638051667,-88.1998573333,0.0,0.0,0.0,0.0,0.0,0.0,0.0,0.0,0.0,0.0,0.0,0,0.08370995519999999,0.0,0.0053340858,-0.0459834971,90.0,90.0,90.0,90.2726821899,90.01803588870001,88.9994430542,45.445999145500004,14.3902072906,8.4100008011,0,2,25,1,69,2178
57,1530571353954,368954, RC,0,39.9586186,-88.445067899,0,0.0,0.0,0.0,0.0,0.0,0.0137950499,0.0,0.0,0.0,0.0,0.0,0.0,0.0,1541,1500,0.0,0.0,40.0638051667,-88.1998573333,0.0,0.0,0.0,0.0,0.0,0.0,0.0,0.0,0.0,0.0,0.0,0,0.08370995519999999,0.0,0.017289795,-0.0448798947,90.0,90.0,90.0,90.40000915530001,90.2726821899,88.8084564209,45.445999145500004,14.3902072906,8.4100008011,0,2,25,1,85,2180
58,1530571354005,369005, RC,0,39.9586186,-88.445067899,0,0.0,0.0,0.0,0.0,0.0,0.0121396445,0.0,0.0,0.0,0.0,0.0,0.0,0.0,1480,1500,0.0,0.0,40.0638051667,-88.1998573333,0.0,0.0,0.0,0.0,0.0,0.0,0.0,0.0,0.0,0.0,0.0,0,-0.0381979942,0.0,0.0349474587,-0.0592267476,90.0,90.0,90.0,90.3363494873,90.4636688232,88.6174697876,45.445999145500004,14.3902072906,8.4100008011,0,2,25,1,100,2182
59,1530571354055,369055, RC,0,39.9586186,-88.445067899,0,0.0,0.0,0.0,0.0,0.0,0.0106681725,0.0,0.0,0.0,0.0,0.0,0.0,0.0,1480,1500,0.0,0.0,40.0638051667,-88.1998573333,0.0,0.0,0.0,0.0,0.0,0.0,0.0,0.0,0.0,0.0,0.0,0,-0.0381979942,0.0,0.026670428,-0.048006772999999996,90.0,90.0,90.0,90.3363494873,90.5273361206,88.4264831543,45.445999145500004,14.3902072906,8.4100008011,0,2,25,1,107,2184
60,1530571354106,369106, RC,0,39.9586186,-88.445067899,0,0.0,0.0,0.0,0.0,0.0,0.009380633000000001,0.0,0.0,0.0,0.0,0.0,0.0,0.0,1480,1500,0.0,0.0,40.0638051667,-88.1998573333,0.0,0.0,0.0,0.0,0.0,0.0,0.0,0.0,0.0,0.0,0.0,0,-0.0381979942,0.0,0.0103003038,-0.029061570800000002,90.0,90.0,90.0,90.4636688232,90.3363494873,88.9994430542,44.9079971313,14.3902072906,8.4100008011,0,2,25,1,133,2186
61,1530571354157,369157, RC,0,39.9586186,-88.445067899,0,0.0,0.0,0.0,0.0,0.0,0.0057019535,0.0,0.0,0.0,0.0,0.0,0.0,0.0,1480,1500,0.0,0.0,40.0638051667,-88.1998576667,0.0,0.0,0.0,0.0,0.0,0.0,0.0,0.0,0.0,0.0,0.0,0,-0.0381979942,0.0,0.002207208,-0.0136111155,90.0,90.0,90.0,90.3363494873,90.0816955566,91.10028839110001,44.9079971313,14.3902072906,8.4100008011,0,2,25,1,91,2188
62,1530571354207,369207, RC,0,39.9586186,-88.445067899,0,0.0,0.0,0.0,0.0,0.0,0.0054260525,0.0,0.0,0.0,0.0,0.0,0.0,0.0,1354,1500,0.0,0.0,40.0638051667,-88.1998576667,0.0,0.0,0.0,0.0,0.0,0.0,0.0,0.0,0.0,0.0,0.0,0,-0.2902419567,0.0,-0.0119557092,0.001103604,90.0,90.0,90.0,90.0816955566,89.8907089233,91.29127502440001,44.9079971313,14.3902072906,8.4100008011,0,2,25,1,126,2190
63,1530571354258,369258, RC,0,39.9586186,-88.445067899,0,0.0,0.0,0.0,0.0,0.0,0.0073573599,0.0,0.0,0.0,0.0,0.0,0.0,0.0,1354,1500,0.0,0.0,40.0638051667,-88.1998576667,0.0,0.0,0.0,0.0,0.0,0.0,0.0,0.0,0.0,0.0,0.0,0,-0.2902419567,0.0,-0.0321884491,0.0174737293,90.0,90.0,90.0,90.2726821899,89.8907089233,91.29127502440001,44.9079971313,14.3902072906,8.4100008011,0,2,25,1,82,2192
64,1530571354308,369308, RC,0,39.9586186,-88.445067899,0,0.0,0.0,0.0,0.0,0.0,0.0112199746,0.0,0.0,0.0,0.0,0.0,0.0,0.0,1337,1500,0.0,0.0,40.0638051667,-88.1998576667,0.0,0.0,0.0,0.0,0.0,0.0,0.0,0.0,0.0,0.0,0.0,0,-0.3253290057,0.0,-0.1190052927,0.0965653434,90.0,90.0,90.0,89.9543762207,89.6997299194,90.8456420898,44.9079971313,14.3902072906,8.4100008011,0,2,25,1,51,2194
65,1530571354359,369359, RC,0,39.9586186,-88.445067899,0,0.0,0.0,0.0,0.0,0.0,0.0159102865,0.0,0.0,0.0,0.0,0.0,0.0,0.0,1337,1500,0.0,0.0,40.0638051667,-88.1998576667,0.0,0.0,0.0,0.0,0.0,0.0,0.0,0.0,0.0,0.0,0.0,0,-0.3253290057,0.0,-0.1495383233,0.11771775039999999,90.0,90.0,90.0,90.145362854,89.82704925540001,90.20902252200001,44.9079971313,14.3902072906,8.4100008011,0,2,25,1,173,2196
66,1530571354409,369409, RC,0,39.9586186,-88.445067899,0,0.0,0.0,0.0,0.0,0.0,0.0041385144,0.0,0.0,0.0,0.0,0.0,0.0,0.0,1325,1500,0.0,0.0,40.0638051667,-88.1998576667,0.0,0.0,0.0,0.0,0.0,0.0,0.0,0.0,0.0,0.0,0.0,0,-0.34815895560000004,0.0,-0.18485365809999998,0.1765766293,90.0,90.0,90.0,90.7819747925,89.8907089233,89.12677001950001,44.9079971313,14.3902072906,8.4100008011,0,2,25,1,44,2198
67,1530571354460,369460, RC,0,39.9586186,-88.445067899,0,0.0,0.0,0.0,0.0,0.0,0.003126882,0.0,0.0,0.0,0.0,0.0,0.0,0.0,1325,1500,0.0,0.0,40.0638051667,-88.1998576667,0.0,0.0,0.0,0.0,0.0,0.0,0.0,0.0,0.0,0.0,0.0,0,-0.34815895560000004,0.0,-0.2069257349,0.21317949890000001,90.0,90.0,90.0,89.9543762207,89.5087432861,89.12677001950001,44.9079971313,14.3902072906,8.4100008011,0,2,25,1,39,2200
68,1530571354511,369511, RC,0,39.9586186,-88.445067899,0,0.0,0.0,0.0,0.0,0.0,0.0025750697,0.0,0.0,0.0,0.0,0.0,0.0,0.0,1320,1500,0.0,0.0,40.0638051667,-88.1998576667,0.0,0.0,0.0,0.0,0.0,0.0,0.0,0.0,0.0,0.0,0.0,0,-0.3595739603,0.0,-0.24720728399999997,0.2523574233,90.0,90.0,90.0,87.9808578491,89.63606262209998,88.8721160889,44.9079971313,14.3902072906,8.4100008011,0,2,25,1,37,2201
69,1530571354561,369561, RC,0,39.9586186,-88.445067899,0,0.0,0.0,0.0,0.0,0.0,0.0158183277,0.0,0.0,0.0,0.0,0.0,0.0,0.0,1320,1500,0.0,0.0,40.0638051667,-88.1998576667,0.0,0.0,0.0,0.0,0.0,0.0,0.0,0.0,0.0,0.0,0.0,0,-0.3595739603,0.0,-0.25879511239999997,0.2904317677,90.0,90.0,90.0,88.4901504517,89.5724029541,88.9994430542,44.9079971313,14.3377017975,33.4300003052,0,2,25,1,40,2203
70,1530571354612,369612, RC,0,39.9586186,-88.445067899,0,0.0,0.0,0.0,0.0,0.0,0.0217961669,0.0,0.0,0.0,0.0,0.0,0.0,0.0,1314,1500,0.0,0.0,40.0638051667,-88.1998576667,0.0,0.0,0.0,0.0,0.0,0.0,0.0,0.0,0.0,0.0,0.0,0,-0.370988965,0.0,-0.2850976884,0.3286900222,90.0,90.0,90.0,90.20902252200001,89.1904296875,89.3177566528,44.9079971313,14.3377017975,33.4300003052,0,2,25,1,41,2205
71,1530571354662,369662, RC,0,39.9586186,-88.445067899,0,0.0,0.0,0.0,0.0,0.0,0.0206925869,0.0,0.0,0.0,0.0,0.0,0.0,0.0,1314,1500,0.0,0.0,40.0638051667,-88.1998576667,0.0,0.0,0.0,0.0,0.0,0.0,0.0,0.0,0.0,0.0,0.0,0,-0.370988965,0.0,-0.2930068374,0.3343920112,90.0,90.0,90.0,90.9093093872,89.0631027222,89.6997299194,44.9079971313,14.3377017975,33.4300003052,0,2,25,1,45,2207
72,1530571354713,369713, RC,0,39.9586186,-88.445067899,0,0.0,0.0,0.0,0.0,0.0,0.013519153,0.0,0.0,0.0,0.0,0.0,0.0,0.0,1500,1500,0.0,0.0,40.0638051667,-88.1998576667,0.0,0.0,0.0,0.0,0.0,0.0,0.0,0.0,0.0,0.0,0.0,0,0.0,0.0,-0.3106645048,0.3377028108,90.0,90.0,90.0,91.4186019897,88.681137085,90.3363494873,44.9079971313,14.3377017975,33.4300003052,0,2,25,1,49,2209
73,1530571354763,369763, RC,0,39.9586186,-88.445067899,0,0.0,0.0,0.0,0.0,0.0,0.020600602,0.0,0.0,0.0,0.0,0.0,0.0,0.0,1500,1500,0.0,0.0,40.0638051667,-88.1998576667,0.0,0.0,0.0,0.0,0.0,0.0,0.0,0.0,0.0,0.0,0.0,0,0.0,0.0,-0.3040428758,0.3452440798,90.0,90.0,90.0,91.0366287231,90.9729614258,90.145362854,44.9079971313,14.3377017975,33.4300003052,0,2,25,1,176,2211
74,1530571354814,369814, RC,0,39.9586186,-88.445067899,0,0.0,0.0,0.0,0.0,0.0,0.0457075983,0.0,0.0,0.0,0.0,0.0,0.0,0.0,1500,1500,0.0,0.0,40.0638051667,-88.1998576667,0.0,0.0,0.0,0.0,0.0,0.0,0.0,0.0,0.0,0.0,0.0,0,0.0,0.0,-0.22623881699999998,0.3176540136,90.0,90.0,90.0,89.5087432861,91.29127502440001,89.3814163208,44.9079971313,14.3377017975,33.4300003052,0,2,25,1,127,2213
75,1530571354865,369865, RC,0,39.9586186,-88.445067899,0,0.0,0.0,0.0,0.0,0.0,0.0369707346,0.0,0.0,0.0,0.0,0.0,0.0,0.0,1500,1500,0.0,0.0,40.0638051667,-88.1998576667,0.0,0.0,0.0,0.0,0.0,0.0,0.0,0.0,0.0,0.0,0.0,0,0.0,0.0,-0.1642530411,0.23819451030000002,90.0,90.0,90.0,89.8907089233,89.12677001950001,89.1904296875,44.9079971313,14.3377017975,33.4300003052,0,2,25,1,67,2215
76,1530571354915,369915, RC,0,39.9586186,-88.445067899,0,0.0,0.0,0.0,0.0,0.0,0.029245510699999998,0.0,0.0,0.0,0.0,0.0,0.0,0.0,1500,1500,0.0,0.0,40.0638051667,-88.1998576667,0.0,0.0,0.0,0.0,0.0,0.0,0.0,0.0,0.0,0.0,0.0,0,0.0,0.0,-0.1315127909,0.1900038123,90.0,90.0,90.0,90.2726821899,88.6174697876,89.44507598879999,44.9079971313,14.3377017975,33.4300003052,0,2,25,1,73,2217
77,1530571354966,369966, RC,0,39.9586186,-88.445067899,0,0.0,0.0,0.0,0.0,0.0,0.021428313100000002,0.0,0.0,0.0,0.0,0.0,0.0,0.0,1500,1500,0.0,0.0,40.0638051667,-88.1998576667,0.0,0.0,0.0,0.0,0.0,0.0,0.0,0.0,0.0,0.0,0.0,0,0.0,0.0,-0.0967492834,0.13960590960000002,90.0,90.0,90.0,90.145362854,89.6997299194,89.44507598879999,44.9079971313,14.3377017975,33.4300003052,0,2,25,1,84,2219
78,1530571355016,370016, RC,0,39.9586186,-88.445067899,0,0.0,0.0,0.0,0.0,0.0,0.0158183239,0.0,0.0,0.0,0.0,0.0,0.0,0.0,1500,1500,0.0,0.0,40.0638051667,-88.1998576667,0.0,0.0,0.0,0.0,0.0,0.0,0.0,0.0,0.0,0.0,0.0,0,0.0,0.0,-0.0781719461,0.10980859400000001,90.0,90.0,90.0,90.0816955566,89.9543762207,89.44507598879999,44.9079971313,14.3377017975,33.4300003052,0,2,25,1,60,2221
79,1530571355067,370067, RC,0,39.9586186,-88.445067899,0,0.0,0.0,0.0,0.0,0.0,0.0102083366,0.0,0.0,0.0,0.0,0.0,0.0,0.0,1500,1500,0.0,0.0,40.0638051667,-88.1998576667,0.0,0.0,0.0,0.0,0.0,0.0,0.0,0.0,0.0,0.0,0.0,0,0.0,0.0,-0.0575713404,0.0779880136,90.0,90.0,90.0,90.145362854,89.7633895874,89.63606262209998,44.9079971313,14.3377017975,33.4300003052,0,2,25,1,70,2223
80,1530571355118,370118, RC,0,39.9586186,-88.445067899,0,0.0,0.0,0.0,0.0,0.0,0.0059778541,0.0,0.0,0.0,0.0,0.0,0.0,0.0,1500,1500,0.0,0.0,40.0638051667,-88.1998576667,0.0,0.0,0.0,0.0,0.0,0.0,0.0,0.0,0.0,0.0,0.0,0,0.0,0.0,-0.046719234400000004,0.058674942699999996,90.0,90.0,90.0,90.145362854,89.5087432861,89.8907089233,44.9079971313,14.3377017975,33.4300003052,0,2,25,1,47,2225
81,1530571355168,370168, RC,0,39.9586186,-88.445067899,0,0.0,0.0,0.0,0.0,0.0,0.0019313078,0.0,0.0,0.0,0.0,0.0,0.0,0.0,1500,1500,0.0,0.0,40.063811,-88.199859,0.0,0.0,0.0,0.0,0.0,0.0,0.0,0.0,0.0,0.0,0.0,0,0.0,0.0,-0.0351313911,0.0389940068,90.0,90.0,90.0,90.145362854,89.1904296875,90.145362854,44.9079971313,14.3377017975,33.4300003052,0,2,25,1,98,2227
82,1530571355219,370219, RC,0,39.9586186,-88.445067899,0,0.0,0.0,0.0,0.0,0.0,0.0003678687,0.0,0.0,0.0,0.0,0.0,0.0,0.0,1500,1500,0.0,0.0,40.063811,-88.199859,0.0,0.0,0.0,0.0,0.0,0.0,0.0,0.0,0.0,0.0,0.0,0,0.0,0.0,-0.029061570800000002,0.0283258334,90.0,90.0,90.0,90.145362854,88.8721160889,90.3363494873,44.9079971313,14.3377017975,33.4300003052,0,2,25,1,84,2230
83,1530571355269,370269, RC,0,39.9586186,-88.445067899,0,0.0,0.0,0.0,0.0,0.0,0.0025750762,0.0,0.0,0.0,0.0,0.0,0.0,0.0,1500,1500,0.0,0.0,40.063811,-88.199859,0.0,0.0,0.0,0.0,0.0,0.0,0.0,0.0,0.0,0.0,0.0,0,0.0,0.0,-0.021888144300000002,0.0167379919,90.0,90.0,90.0,90.145362854,89.63606262209998,90.4636688232,44.9079971313,14.3377017975,33.4300003052,0,2,25,1,52,2232
84,1530571355320,370320, RC,0,39.9586186,-88.445067899,0,0.0,0.0,0.0,0.0,0.0,0.0033108116999999997,0.0,0.0,0.0,0.0,0.0,0.0,0.0,1500,1500,0.0,0.0,40.063811,-88.199859,0.0,0.0,0.0,0.0,0.0,0.0,0.0,0.0,0.0,0.0,0.0,0,0.0,0.0,-0.0180255305,0.0114039071,90.0,90.0,90.0,90.145362854,89.5087432861,90.5909881592,44.9079971313,14.3377017975,33.4300003052,0,2,25,1,47,2234
85,1530571355371,370371, RC,0,39.9586186,-88.445067899,0,0.0,0.0,0.0,0.0,0.0,0.003586713,0.0,0.0,0.0,0.0,0.0,0.0,0.0,1500,1500,0.0,0.0,40.063811,-88.199859,0.0,0.0,0.0,0.0,0.0,0.0,0.0,0.0,0.0,0.0,0.0,0,0.0,0.0,-0.0136111155,0.0064376895,90.0,90.0,90.0,90.145362854,89.3177566528,90.7183227539,44.9079971313,14.3377017975,33.4300003052,0,2,25,1,30,2236
86,1530571355421,370421, RC,0,39.9586186,-88.445067899,0,0.0,0.0,0.0,0.0,0.0,0.0034947461,0.0,0.0,0.0,0.0,0.0,0.0,0.0,1500,1500,0.0,0.0,40.063811,-88.199859,0.0,0.0,0.0,0.0,0.0,0.0,0.0,0.0,0.0,0.0,0.0,0,0.0,0.0,-0.0103003038,0.0033108116999999997,90.0,90.0,90.0,90.145362854,89.25408935549999,90.8456420898,44.9079971313,14.3377017975,33.4300003052,0,2,25,1,42,2238
87,1530571355472,370472, RC,0,39.9586186,-88.445067899,0,0.0,0.0,0.0,0.0,0.0,0.003586713,0.0,0.0,0.0,0.0,0.0,0.0,0.0,1500,1500,0.0,0.0,40.063811,-88.199859,0.0,0.0,0.0,0.0,0.0,0.0,0.0,0.0,0.0,0.0,0.0,0,0.0,0.0,-0.008460964100000001,0.001287538,90.0,90.0,90.0,90.145362854,89.1904296875,90.5273361206,44.9079971313,14.3377017975,33.4300003052,0,2,25,1,44,2240
88,1530571355522,370522, RC,0,39.9586186,-88.445067899,0,0.0,0.0,0.0,0.0,0.0,0.0034027789000000003,0.0,0.0,0.0,0.0,0.0,0.0,0.0,1500,1500,0.0,0.0,40.063811,-88.199859,0.0,0.0,0.0,0.0,0.0,0.0,0.0,0.0,0.0,0.0,0.0,0,0.0,0.0,-0.0064376895,-0.00036786800000000004,90.0,90.0,90.0,90.145362854,89.8907089233,90.2726821899,44.9079971313,14.3377017975,33.4300003052,0,2,25,1,50,2242
89,1530571355573,370573, RC,0,39.9586186,-88.445067899,0,0.0,0.0,0.0,0.0,0.0,0.0033108119,0.0,0.0,0.0,0.0,0.0,0.0,0.0,1500,1500,0.0,0.0,40.063811,-88.199859,0.0,0.0,0.0,0.0,0.0,0.0,0.0,0.0,0.0,0.0,0.0,0,0.0,0.0,-0.0053340858,-0.001287538,90.0,90.0,90.0,90.145362854,89.7633895874,90.0816955566,44.9079971313,14.3418073654,3.1299998760000003,0,2,25,1,58,2244
90,1530571355623,370623, RC,0,39.9586186,-88.445067899,0,0.0,0.0,0.0,0.0,0.0,0.0027590097999999996,0.0,0.0,0.0,0.0,0.0,0.0,0.0,1500,1500,0.0,0.0,40.063811,-88.199859,0.0,0.0,0.0,0.0,0.0,0.0,0.0,0.0,0.0,0.0,0.0,0,0.0,0.0,-0.0038626138000000003,-0.0016554058999999999,90.0,90.0,90.0,90.20902252200001,89.6997299194,90.0816955566,44.9079971313,14.3418073654,3.1299998760000003,0,2,25,1,64,2247
91,1530571355674,370674, RC,0,39.9586186,-88.445067899,0,0.0,0.0,0.0,0.0,0.0,0.0022991749,0.0,0.0,0.0,0.0,0.0,0.0,0.0,1500,1500,0.0,0.0,40.063811,-88.199859,0.0,0.0,0.0,0.0,0.0,0.0,0.0,0.0,0.0,0.0,0.0,0,0.0,0.0,-0.0033108116999999997,-0.001287538,90.0,90.0,90.0,90.145362854,89.6997299194,90.01803588870001,44.9079971313,14.3418073654,3.1299998760000003,0,2,25,1,72,2249
92,1530571355725,370725, RC,0,39.9586186,-88.445067899,0,0.0,0.0,0.0,0.0,0.0,0.0019313069000000001,0.0,0.0,0.0,0.0,0.0,0.0,0.0,1500,1500,0.0,0.0,40.063811,-88.199859,0.0,0.0,0.0,0.0,0.0,0.0,0.0,0.0,0.0,0.0,0.0,0,0.0,0.0,-0.0023911418,-0.0014714720000000001,90.0,90.0,90.0,90.20902252200001,89.6997299194,89.7633895874,44.9079971313,14.3418073654,3.1299998760000003,0,2,25,1,67,2251
93,1530571355775,370775, RC,0,39.9586186,-88.445067899,0,0.0,0.0,0.0,0.0,0.0,0.0015634389000000002,0.0,0.0,0.0,0.0,0.0,0.0,0.0,1500,1500,0.0,0.0,40.063811,-88.199859,0.0,0.0,0.0,0.0,0.0,0.0,0.0,0.0,0.0,0.0,0.0,0,0.0,0.0,-0.0020232738,-0.001103604,90.0,90.0,90.0,90.145362854,89.6997299194,89.25408935549999,44.9079971313,14.3418073654,3.1299998760000003,0,2,25,1,66,2253
94,1530571355826,370826, RC,0,39.9586186,-88.445067899,0,0.0,0.0,0.0,0.0,0.0,0.0011955709,0.0,0.0,0.0,0.0,0.0,0.0,0.0,1500,1500,0.0,0.0,40.063811,-88.199859,0.0,0.0,0.0,0.0,0.0,0.0,0.0,0.0,0.0,0.0,0.0,0,0.0,0.0,-0.0014714720000000001,-0.0009196699,90.0,90.0,90.0,90.20902252200001,89.6997299194,89.25408935549999,44.9079971313,14.3418073654,3.1299998760000003,0,2,25,1,69,2255
95,1530571355876,370876, RC,0,39.9586186,-88.445067899,0,0.0,0.0,0.0,0.0,0.0,0.0011955709,0.0,0.0,0.0,0.0,0.0,0.0,0.0,1500,1500,0.0,0.0,40.063811,-88.199859,0.0,0.0,0.0,0.0,0.0,0.0,0.0,0.0,0.0,0.0,0.0,0,0.0,0.0,-0.001287538,-0.001103604,90.0,90.0,90.0,90.20902252200001,89.63606262209998,89.25408935549999,44.9079971313,14.3418073654,3.1299998760000003,0,2,25,1,112,2257
96,1530571355927,370927, RC,0,39.9586186,-88.445067899,0,0.0,0.0,0.0,0.0,0.0,0.0008277028999999999,0.0,0.0,0.0,0.0,0.0,0.0,0.0,1500,1500,0.0,0.0,40.063811,-88.199859,0.0,0.0,0.0,0.0,0.0,0.0,0.0,0.0,0.0,0.0,0.0,0,0.0,0.0,-0.0009196699,-0.0007357360000000001,90.0,90.0,90.0,90.20902252200001,89.63606262209998,89.25408935549999,44.9079971313,14.3418073654,3.1299998760000003,0,2,25,1,98,2259
97,1530571355977,370977, RC,0,39.9586186,-88.445067899,0,0.0,0.0,0.0,0.0,0.0,0.000643769,0.0,0.0,0.0,0.0,0.0,0.0,0.0,1500,1500,0.0,0.0,40.063811,-88.199859,0.0,0.0,0.0,0.0,0.0,0.0,0.0,0.0,0.0,0.0,0.0,0,0.0,0.0,-0.0007357360000000001,-0.000551802,90.0,90.0,90.0,90.20902252200001,89.63606262209998,89.25408935549999,44.9079971313,14.3418073654,3.1299998760000003,0,2,25,1,101,2261
98,1530571356028,371028, RC,0,39.9586186,-88.445067899,0,0.0,0.0,0.0,0.0,0.0,0.000459835,0.0,0.0,0.0,0.0,0.0,0.0,0.0,1500,1500,0.0,0.0,40.063811,-88.199859,0.0,0.0,0.0,0.0,0.0,0.0,0.0,0.0,0.0,0.0,0.0,0,0.0,0.0,-0.000551802,-0.00036786800000000004,90.0,90.0,90.0,90.20902252200001,89.63606262209998,89.3177566528,44.9079971313,14.3418073654,3.1299998760000003,0,2,25,1,93,2263
99,1530571356079,371079, RC,0,39.9586186,-88.445067899,0,0.0,0.0,0.0,0.0,0.0,0.00036786800000000004,0.0,0.0,0.0,0.0,0.0,0.0,0.0,1500,1500,0.0,0.0,40.063811,-88.199859,0.0,0.0,0.0,0.0,0.0,0.0,0.0,0.0,0.0,0.0,0.0,0,0.0,0.0,-0.00036786800000000004,-0.00036786800000000004,90.0,90.0,90.0,90.20902252200001,89.5724029541,89.3177566528,44.9079971313,14.3418073654,3.1299998760000003,0,2,25,1,89,2266
100,1530571356129,371129, RC,0,39.9586186,-88.445067899,0,0.0,0.0,0.0,0.0,0.0,0.0010116369,0.0,0.0,0.0,0.0,0.0,0.0,0.0,1500,1500,0.0,0.0,40.063811,-88.199859,0.0,0.0,0.0,0.0,0.0,0.0,0.0,0.0,0.0,0.0,0.0,0,0.0,0.0,-0.00036786800000000004,-0.0016554058999999999,90.0,90.0,90.0,90.20902252200001,89.5724029541,89.3177566528,44.9079971313,14.3418073654,3.1299998760000003,0,2,25,1,105,2268
101,1530571356180,371180, RC,0,39.9586186,-88.445067899,0,0.0,0.0,0.0,0.0,0.0,0.0010116369,0.0,0.0,0.0,0.0,0.0,0.0,0.0,1500,1500,0.0,0.0,40.0638075,-88.199859,0.0,0.0,0.0,0.0,0.0,0.0,0.0,0.0,0.0,0.0,0.0,0,0.0,0.0,-0.00036786800000000004,-0.0016554058999999999,90.0,90.0,90.0,90.20902252200001,89.5724029541,89.3177566528,44.9079971313,14.3418073654,3.1299998760000003,0,2,25,1,106,2270
102,1530571356230,371230, RC,0,39.9586186,-88.445067899,0,0.0,0.0,0.0,0.0,0.0,0.0010116369,0.0,0.0,0.0,0.0,0.0,0.0,0.0,1500,1500,0.0,0.0,40.0638075,-88.199859,0.0,0.0,0.0,0.0,0.0,0.0,0.0,0.0,0.0,0.0,0.0,0,0.0,0.0,-0.00036786800000000004,-0.0016554058999999999,90.0,90.0,90.0,90.20902252200001,89.5087432861,89.3177566528,44.9079971313,14.3418073654,3.1299998760000003,0,2,25,1,115,2272
103,1530571356281,371281, RC,0,39.9586186,-88.445067899,0,0.0,0.0,0.0,0.0,0.0,0.0010116369,0.0,0.0,0.0,0.0,0.0,0.0,0.0,1500,1500,0.0,0.0,40.0638075,-88.199859,0.0,0.0,0.0,0.0,0.0,0.0,0.0,0.0,0.0,0.0,0.0,0,0.0,0.0,-0.00036786800000000004,-0.0016554058999999999,90.0,90.0,90.0,90.20902252200001,89.5087432861,89.3177566528,44.9079971313,14.3418073654,3.1299998760000003,0,2,25,1,114,2274
104,1530571356331,371331, RC,0,39.9586186,-88.445067899,0,0.0,0.0,0.0,0.0,0.0,0.00036786800000000004,0.0,0.0,0.0,0.0,0.0,0.0,0.0,1500,1500,0.0,0.0,40.0638075,-88.199859,0.0,0.0,0.0,0.0,0.0,0.0,0.0,0.0,0.0,0.0,0.0,0,0.0,0.0,0.0,-0.0007357360000000001,90.0,90.0,90.0,90.20902252200001,89.5087432861,89.3177566528,44.9079971313,14.3418073654,3.1299998760000003,0,2,25,1,74,2276
105,1530571356382,371382, RC,0,39.9586186,-88.445067899,0,0.0,0.0,0.0,0.0,0.0,0.000275901,0.0,0.0,0.0,0.0,0.0,0.0,0.0,1500,1500,0.0,0.0,40.0638075,-88.199859,0.0,0.0,0.0,0.0,0.0,0.0,0.0,0.0,0.0,0.0,0.0,0,0.0,0.0,0.0,-0.000551802,90.0,90.0,90.0,90.20902252200001,89.5087432861,89.3814163208,44.9079971313,14.3418073654,3.1299998760000003,0,2,25,1,93,2278
106,1530571356432,371432, RC,0,39.9586186,-88.445067899,0,0.0,0.0,0.0,0.0,0.0,0.00018393400000000002,0.0,0.0,0.0,0.0,0.0,0.0,0.0,1500,1500,0.0,0.0,40.0638075,-88.199859,0.0,0.0,0.0,0.0,0.0,0.0,0.0,0.0,0.0,0.0,0.0,0,0.0,0.0,0.0,-0.00036786800000000004,90.0,90.0,90.0,90.20902252200001,89.5087432861,89.3814163208,44.9079971313,14.3418073654,3.1299998760000003,0,2,25,1,98,2280
107,1530571356483,371483, RC,0,39.9586186,-88.445067899,0,0.0,0.0,0.0,0.0,0.0,0.00018393400000000002,0.0,0.0,0.0,0.0,0.0,0.0,0.0,1500,1500,0.0,0.0,40.0638075,-88.199859,0.0,0.0,0.0,0.0,0.0,0.0,0.0,0.0,0.0,0.0,0.0,0,0.0,0.0,0.0,-0.00036786800000000004,90.0,90.0,90.0,90.20902252200001,89.5087432861,89.3814163208,44.9079971313,14.3418073654,3.1299998760000003,0,2,25,1,104,2282
108,1530571356534,371534, RC,0,39.9586186,-88.445067899,0,0.0,0.0,0.0,0.0,0.0,0.00018393400000000002,0.0,0.0,0.0,0.0,0.0,0.0,0.0,1500,1500,0.0,0.0,40.0638075,-88.199859,0.0,0.0,0.0,0.0,0.0,0.0,0.0,0.0,0.0,0.0,0.0,0,0.0,0.0,0.0,-0.00036786800000000004,90.0,90.0,90.0,90.20902252200001,89.44507598879999,89.3814163208,44.9079971313,14.341766357400001,3.1800000668,0,2,25,1,81,2284
109,1530571356584,371584, RC,0,39.9586186,-88.445067899,0,0.0,0.0,0.0,0.0,0.0,0.00018393400000000002,0.0,0.0,0.0,0.0,0.0,0.0,0.0,1500,1500,0.0,0.0,40.0638075,-88.199859,0.0,0.0,0.0,0.0,0.0,0.0,0.0,0.0,0.0,0.0,0.0,0,0.0,0.0,0.0,-0.00036786800000000004,90.0,90.0,90.0,90.20902252200001,89.44507598879999,89.3814163208,44.9079971313,14.341766357400001,3.1800000668,0,2,25,1,97,2286
110,1530571356635,371635, RC,0,39.9586186,-88.445067899,0,0.0,0.0,0.0,0.0,0.0,0.00018393400000000002,0.0,0.0,0.0,0.0,0.0,0.0,0.0,1500,1500,0.0,0.0,40.0638075,-88.199859,0.0,0.0,0.0,0.0,0.0,0.0,0.0,0.0,0.0,0.0,0.0,0,0.0,0.0,0.0,-0.00036786800000000004,90.0,90.0,90.0,90.20902252200001,89.44507598879999,89.3814163208,44.9079971313,14.341766357400001,3.1800000668,0,2,25,1,123,2289
111,1530571356685,371685, RC,0,39.9586186,-88.445067899,0,0.0,0.0,0.0,0.0,0.0,0.00018393400000000002,0.0,0.0,0.0,0.0,0.0,0.0,0.0,1500,1500,0.0,0.0,40.0638075,-88.199859,0.0,0.0,0.0,0.0,0.0,0.0,0.0,0.0,0.0,0.0,0.0,0,0.0,0.0,0.0,-0.00036786800000000004,90.0,90.0,90.0,90.20902252200001,89.44507598879999,89.3814163208,44.9079971313,14.341766357400001,3.1800000668,0,2,25,1,120,2291
112,1530571356736,371736, RC,0,39.9586186,-88.445067899,0,0.0,0.0,0.0,0.0,0.0,0.0,0.0,0.0,0.0,0.0,0.0,0.0,0.0,1500,1500,0.0,0.0,40.0638075,-88.199859,0.0,0.0,0.0,0.0,0.0,0.0,0.0,0.0,0.0,0.0,0.0,0,0.0,0.0,0.0,0.0,90.0,90.0,90.0,90.20902252200001,89.44507598879999,89.3814163208,44.9079971313,14.341766357400001,3.1800000668,0,2,25,1,115,2293
113,1530571356786,371786, RC,0,39.9586186,-88.445067899,0,0.0,0.0,0.0,0.0,0.0,0.0,0.0,0.0,0.0,0.0,0.0,0.0,0.0,1500,1500,0.0,0.0,40.0638075,-88.199859,0.0,0.0,0.0,0.0,0.0,0.0,0.0,0.0,0.0,0.0,0.0,0,0.0,0.0,0.0,0.0,90.0,90.0,90.0,90.20902252200001,89.44507598879999,89.3814163208,44.9079971313,14.341766357400001,3.1800000668,0,2,25,1,112,2295
114,1530571356837,371837, RC,0,39.9586186,-88.445067899,0,0.0,0.0,0.0,0.0,0.0,0.0,0.0,0.0,0.0,0.0,0.0,0.0,0.0,1500,1500,0.0,0.0,40.0638075,-88.199859,0.0,0.0,0.0,0.0,0.0,0.0,0.0,0.0,0.0,0.0,0.0,0,0.0,0.0,0.0,0.0,90.0,90.0,90.0,90.20902252200001,89.3814163208,89.3814163208,44.9079971313,14.341766357400001,3.1800000668,0,2,25,1,95,2297
115,1530571356888,371888, RC,0,39.9586186,-88.445067899,0,0.0,0.0,0.0,0.0,0.0,0.0,0.0,0.0,0.0,0.0,0.0,0.0,0.0,1500,1500,0.0,0.0,40.0638075,-88.199859,0.0,0.0,0.0,0.0,0.0,0.0,0.0,0.0,0.0,0.0,0.0,0,0.0,0.0,0.0,0.0,90.0,90.0,90.0,90.20902252200001,89.3814163208,89.3814163208,44.9079971313,14.341766357400001,3.1800000668,0,2,25,1,97,2299
116,1530571356938,371938, RC,0,39.9586186,-88.445067899,0,0.0,0.0,0.0,0.0,0.0,0.0,0.0,0.0,0.0,0.0,0.0,0.0,0.0,1500,1500,0.0,0.0,40.0638075,-88.199859,0.0,0.0,0.0,0.0,0.0,0.0,0.0,0.0,0.0,0.0,0.0,0,0.0,0.0,0.0,0.0,90.0,90.0,90.0,90.20902252200001,89.3814163208,89.3814163208,44.9079971313,14.341766357400001,3.1800000668,0,2,25,1,98,2301
117,1530571356989,371989, RC,0,39.9586186,-88.445067899,0,0.0,0.0,0.0,0.0,0.0,0.0,0.0,0.0,0.0,0.0,0.0,0.0,0.0,1500,1500,0.0,0.0,40.0638075,-88.199859,0.0,0.0,0.0,0.0,0.0,0.0,0.0,0.0,0.0,0.0,0.0,0,0.0,0.0,0.0,0.0,90.0,90.0,90.0,90.20902252200001,89.3814163208,89.3814163208,44.9079971313,14.341766357400001,3.1800000668,0,2,25,1,82,2304
118,1530571357039,372039, RC,0,39.9586186,-88.445067899,0,0.0,0.0,0.0,0.0,0.0,0.0,0.0,0.0,0.0,0.0,0.0,0.0,0.0,1500,1500,0.0,0.0,40.0638075,-88.199859,0.0,0.0,0.0,0.0,0.0,0.0,0.0,0.0,0.0,0.0,0.0,0,0.0,0.0,0.0,0.0,90.0,90.0,90.0,90.20902252200001,89.3814163208,89.3814163208,44.9079971313,14.341766357400001,3.1800000668,0,2,25,1,79,2306
119,1530571357090,372090, RC,0,39.9586186,-88.445067899,0,0.0,0.0,0.0,0.0,0.0,0.0,0.0,0.0,0.0,0.0,0.0,0.0,0.0,1500,1500,0.0,0.0,40.0638075,-88.199859,0.0,0.0,0.0,0.0,0.0,0.0,0.0,0.0,0.0,0.0,0.0,0,0.0,0.0,0.0,0.0,90.0,90.0,90.0,90.20902252200001,89.3814163208,89.3814163208,44.9079971313,14.341766357400001,3.1800000668,0,2,25,1,103,2308
120,1530571357141,372141, RC,0,39.9586186,-88.445067899,0,0.0,0.0,0.0,0.0,0.0,0.00018393400000000002,0.0,0.0,0.0,0.0,0.0,0.0,0.0,1500,1500,0.0,0.0,40.0638075,-88.199859,0.0,0.0,0.0,0.0,0.0,0.0,0.0,0.0,0.0,0.0,0.0,0,0.0,0.0,0.0,-0.00036786800000000004,90.0,90.0,90.0,90.20902252200001,89.3814163208,89.3814163208,44.9079971313,14.341766357400001,3.1800000668,0,2,25,1,84,2310
121,1530571357191,372191, RC,0,39.9586186,-88.445067899,0,0.0,0.0,0.0,0.0,0.0,0.0007357360000000001,0.0,0.0,0.0,0.0,0.0,0.0,0.0,1500,1500,0.0,0.0,40.063809,-88.1998583333,0.0,0.0,0.0,0.0,0.0,0.0,0.0,0.0,0.0,0.0,0.0,0,0.0,0.0,0.0,-0.0014714720000000001,90.0,90.0,90.0,90.20902252200001,89.3814163208,89.3814163208,44.9079971313,14.341766357400001,3.1800000668,0,2,25,1,83,2313
122,1530571357242,372242, RC,0,39.9586186,-88.445067899,0,0.0,0.0,0.0,0.0,0.0,0.000551802,0.0,0.0,0.0,0.0,0.0,0.0,0.0,1500,1500,0.0,0.0,40.063809,-88.1998583333,0.0,0.0,0.0,0.0,0.0,0.0,0.0,0.0,0.0,0.0,0.0,0,0.0,0.0,0.0,-0.001103604,90.0,90.0,90.0,90.20902252200001,89.3177566528,89.3814163208,44.9079971313,14.341766357400001,3.1800000668,0,2,25,1,99,2315
123,1530571357292,372292, RC,0,39.9586186,-88.445067899,0,0.0,0.0,0.0,0.0,0.0,0.000459835,0.0,0.0,0.0,0.0,0.0,0.0,0.0,1500,1500,0.0,0.0,40.063809,-88.1998583333,0.0,0.0,0.0,0.0,0.0,0.0,0.0,0.0,0.0,0.0,0.0,0,0.0,0.0,0.0,-0.0009196699,90.0,90.0,90.0,90.20902252200001,89.3177566528,89.3814163208,44.9079971313,14.341766357400001,3.1800000668,0,2,25,1,98,2317
124,1530571357343,372343, RC,0,39.9586186,-88.445067899,0,0.0,0.0,0.0,0.0,0.0,0.00036786800000000004,0.0,0.0,0.0,0.0,0.0,0.0,0.0,1500,1500,0.0,0.0,40.063809,-88.1998583333,0.0,0.0,0.0,0.0,0.0,0.0,0.0,0.0,0.0,0.0,0.0,0,0.0,0.0,0.0,-0.0007357360000000001,90.0,90.0,90.0,90.20902252200001,89.3177566528,89.3814163208,44.9079971313,14.341766357400001,3.1800000668,0,2,25,1,97,2319
125,1530571357393,372393, RC,0,39.9586186,-88.445067899,0,0.0,0.0,0.0,0.0,0.0,0.000275901,0.0,0.0,0.0,0.0,0.0,0.0,0.0,1500,1500,0.0,0.0,40.063809,-88.1998583333,0.0,0.0,0.0,0.0,0.0,0.0,0.0,0.0,0.0,0.0,0.0,0,0.0,0.0,0.0,-0.000551802,90.0,90.0,90.0,90.20902252200001,89.3177566528,89.3814163208,44.9079971313,14.341766357400001,3.1800000668,0,2,25,1,98,2321
126,1530571357444,372444, RC,0,39.9586186,-88.445067899,0,0.0,0.0,0.0,0.0,0.0,0.00018393400000000002,0.0,0.0,0.0,0.0,0.0,0.0,0.0,1500,1500,0.0,0.0,40.063809,-88.1998583333,0.0,0.0,0.0,0.0,0.0,0.0,0.0,0.0,0.0,0.0,0.0,0,0.0,0.0,0.0,-0.00036786800000000004,90.0,90.0,90.0,90.20902252200001,89.3177566528,89.3814163208,44.9079971313,14.341766357400001,3.1800000668,0,2,25,1,91,2324
127,1530571357495,372495, RC,0,39.9586186,-88.445067899,0,0.0,0.0,0.0,0.0,0.0,0.00018393400000000002,0.0,0.0,0.0,0.0,0.0,0.0,0.0,1500,1500,0.0,0.0,40.063809,-88.1998583333,0.0,0.0,0.0,0.0,0.0,0.0,0.0,0.0,0.0,0.0,0.0,0,0.0,0.0,0.0,-0.00036786800000000004,90.0,90.0,90.0,90.20902252200001,89.3177566528,89.3814163208,44.9079971313,14.341766357400001,3.1800000668,0,2,25,1,83,2326
128,1530571357545,372545, RC,0,39.9586186,-88.445067899,0,0.0,0.0,0.0,0.0,0.0,0.00018393400000000002,0.0,0.0,0.0,0.0,0.0,0.0,0.0,1500,1500,0.0,0.0,40.063809,-88.1998583333,0.0,0.0,0.0,0.0,0.0,0.0,0.0,0.0,0.0,0.0,0.0,0,0.0,0.0,0.0,-0.00036786800000000004,90.0,90.0,90.0,90.20902252200001,89.3177566528,89.3814163208,44.9079971313,14.3365325928,2.4600000381,0,2,25,1,82,2328
129,1530571357596,372596, RC,0,39.9586186,-88.445067899,0,0.0,0.0,0.0,0.0,0.0,0.00018393400000000002,0.0,0.0,0.0,0.0,0.0,0.0,0.0,1500,1541,0.0,0.0,40.063809,-88.1998583333,0.0,0.0,0.0,0.0,0.0,0.0,0.0,0.0,0.0,0.0,0.0,0,0.0,0.0831999779,0.0,-0.00036786800000000004,90.0,90.0,90.0,90.20902252200001,89.3177566528,89.3814163208,44.9079971313,14.3365325928,2.4600000381,0,2,25,1,91,2330
130,1530571357646,372646, RC,0,39.9586186,-88.445067899,0,0.0,0.0,0.0,0.0,0.0,0.003218845,0.0,0.0,0.0,0.0,0.0,0.0,0.0,1500,1541,0.0,0.0,40.063809,-88.1998583333,0.0,0.0,0.0,0.0,0.0,0.0,0.0,0.0,0.0,0.0,0.0,0,0.0,0.0831999779,0.004230482,0.002207208,90.0,90.0,90.0,90.20902252200001,89.3177566528,89.3814163208,44.9079971313,14.3365325928,2.4600000381,0,2,25,1,80,2332
131,1530571357697,372697, RC,0,39.9586186,-88.445067899,0,0.0,0.0,0.0,0.0,0.0,0.029153537,0.0,0.0,0.0,0.0,0.0,0.0,0.0,1500,1541,0.0,0.0,40.063809,-88.1998583333,0.0,0.0,0.0,0.0,0.0,0.0,0.0,0.0,0.0,0.0,0.0,0,0.0,0.227905035,0.0349474587,0.023359617200000002,90.0,90.0,90.0,90.20902252200001,89.44507598879999,89.3177566528,44.9079971313,14.3365325928,2.4600000381,0,2,25,1,77,2335
132,1530571357748,372748, RC,0,39.9586186,-88.445067899,0,0.0,0.0,0.0,0.0,0.0,0.0383502394,0.0,0.0,0.0,0.0,0.0,0.0,0.0,1500,1613,0.0,0.0,40.063809,-88.1998583333,0.0,0.0,0.0,0.0,0.0,0.0,0.0,0.0,0.0,0.0,0.0,0,0.0,0.227905035,0.0428566225,0.033843856299999996,90.0,90.0,90.0,90.2726821899,89.63606262209998,89.12677001950001,44.9079971313,14.3365325928,2.4600000381,0,2,25,1,94,2337
133,1530571357798,372798, RC,0,39.9586186,-88.445067899,0,0.0,0.0,0.0,0.0,0.0,0.0692511499,0.0,0.0,0.0,0.0,0.0,0.0,0.0,1500,1677,0.0,0.0,40.063809,-88.1998583333,0.0,0.0,0.0,0.0,0.0,0.0,0.0,0.0,0.0,0.0,0.0,0,0.0,0.3548719883,0.0866329074,0.0518693849,90.0,90.0,90.0,90.20902252200001,89.9543762207,88.8084564209,44.9079971313,14.3365325928,2.4600000381,0,2,25,1,131,2339
134,1530571357849,372849, RC,0,39.9586186,-88.445067899,0,0.0,0.0,0.0,0.0,0.0,0.1167061105,0.0,0.0,0.0,0.0,0.0,0.0,0.0,1500,1677,0.0,0.0,40.063809,-88.1998583333,0.0,0.0,0.0,0.0,0.0,0.0,0.0,0.0,0.0,0.0,0.0,0,0.0,0.3548719883,0.1315127909,0.1018994302,90.0,90.0,90.0,90.5273361206,90.40000915530001,88.2991638184,44.9079971313,14.3365325928,2.4600000381,0,2,25,1,118,2341
135,1530571357899,372899, RC,0,39.9586186,-88.445067899,0,0.0,0.0,0.0,0.0,0.0,0.1659084558,0.0,0.0,0.0,0.0,0.0,0.0,0.0,1500,1697,0.0,0.0,40.063809,-88.1998583333,0.0,0.0,0.0,0.0,0.0,0.0,0.0,0.0,0.0,0.0,0.0,0,0.0,0.39498806,0.18338218329999997,0.1484347284,90.0,90.0,90.0,91.3549346924,91.10028839110001,87.66254425049999,44.9079971313,14.3365325928,2.4600000381,0,2,25,1,66,2344
136,1530571357950,372950, RC,0,39.9586186,-88.445067899,0,0.0,0.0,0.0,0.0,0.0,0.22844602170000003,0.0,0.0,0.0,0.0,0.0,0.0,0.0,1500,1697,0.0,0.0,40.063809,-88.1998583333,0.0,0.0,0.0,0.0,0.0,0.0,0.0,0.0,0.0,0.0,0.0,0,0.0,0.39498806,0.2615541518,0.1953378916,90.0,90.0,90.0,91.0366287231,91.0366287231,87.47155761719999,44.9079971313,14.3365325928,2.4600000381,0,2,25,1,63,2346
137,1530571358000,373000, RC,0,39.9586186,-88.445067899,0,0.0,0.0,0.0,0.0,0.0,0.28022342920000004,0.0,0.0,0.0,0.0,0.0,0.0,0.0,1500,1703,0.0,0.0,40.063809,-88.1998583333,0.0,0.0,0.0,0.0,0.0,0.0,0.0,0.0,0.0,0.0,0.0,0,0.0,0.4073319435,0.30992877480000003,0.2505180836,90.0,90.0,90.0,89.3177566528,90.0816955566,88.681137085,44.9079971313,14.3365325928,2.4600000381,0,2,25,1,36,2348
138,1530571358051,373051, RC,0,39.9586186,-88.445067899,0,0.0,0.0,0.0,0.0,0.0,0.3363232911,0.0,0.0,0.0,0.0,0.0,0.0,0.0,1500,1703,0.0,0.0,40.063809,-88.1998583333,0.0,0.0,0.0,0.0,0.0,0.0,0.0,0.0,0.0,0.0,0.0,0,0.0,0.4073319435,0.3586712778,0.3139753044,90.0,90.0,90.0,88.6174697876,89.8907089233,89.3814163208,44.9079971313,14.3365325928,2.4600000381,0,2,25,1,78,2350
139,1530571358102,373102, RC,0,39.9586186,-88.445067899,0,0.0,0.0,0.0,0.0,0.0,0.3848818839,0.0,0.0,0.0,0.0,0.0,0.0,0.0,1500,1709,0.0,0.0,40.063809,-88.1998583333,0.0,0.0,0.0,0.0,0.0,0.0,0.0,0.0,0.0,0.0,0.0,0,0.0,0.41967499259999996,0.391043663,0.3787201047,90.0,90.0,90.0,88.8721160889,89.44507598879999,90.20902252200001,44.9079971313,14.3365325928,2.4600000381,0,2,25,1,80,2353
140,1530571358152,373152, RC,0,39.9586186,-88.445067899,0,0.0,0.0,0.0,0.0,0.0,0.4190936089,0.0,0.0,0.0,0.0,0.0,0.0,0.0,1500,1709,0.0,0.0,40.063809,-88.1998583333,0.0,0.0,0.0,0.0,0.0,0.0,0.0,0.0,0.0,0.0,0.0,0,0.0,0.41967499259999996,0.4337163568,0.4044708312,90.0,90.0,90.0,90.8456420898,88.8721160889,90.7183227539,44.9079971313,14.3365325928,2.4600000381,0,2,25,1,68,2355
141,1530571358203,373203, RC,0,39.9586186,-88.445067899,0,0.0,0.0,0.0,0.0,0.0,0.44466042520000004,0.0,0.0,0.0,0.0,0.0,0.0,0.0,1500,1709,0.0,0.0,40.0638083333,-88.1998578333,0.0,0.0,0.0,0.0,0.0,0.0,0.0,0.0,0.0,0.0,0.0,0,0.0,0.41967499259999996,0.45799562340000005,0.43132522700000003,90.0,90.0,90.0,91.9915542603,89.3177566528,90.9729614258,44.9079971313,14.3365325928,2.4600000381,0,2,25,1,63,2357
142,1530571358254,373254, RC,0,39.9586186,-88.445067899,0,0.0,0.0,0.0,0.0,0.0,0.472710371,0.0,0.0,0.0,0.0,0.0,0.0,0.0,1500,1709,0.0,0.0,40.0638083333,-88.1998578333,0.0,0.0,0.0,0.0,0.0,0.0,0.0,0.0,0.0,0.0,0.0,0,0.0,0.41967499259999996,0.48043558,0.4649851322,90.0,90.0,90.0,90.9093093872,89.9543762207,90.0816955566,44.9079971313,14.3365325928,2.4600000381,0,2,25,1,104,2359
143,1530571358304,373304, RC,0,39.9586186,-88.445067899,0,0.0,0.0,0.0,0.0,0.0,0.4825508296,0.0,0.0,0.0,0.0,0.0,0.0,0.0,1500,1709,0.0,0.0,40.0638083333,-88.1998578333,0.0,0.0,0.0,0.0,0.0,0.0,0.0,0.0,0.0,0.0,0.0,0,0.0,0.41967499259999996,0.4900001585,0.4751015007,90.0,90.0,90.0,89.82704925540001,90.9093093872,89.1904296875,44.9079971313,14.3365325928,2.4600000381,0,2,25,1,142,2361
144,1530571358355,373355, RC,0,39.9586186,-88.445067899,0,0.0,0.0,0.0,0.0,0.0,0.4949663281,0.0,0.0,0.0,0.0,0.0,0.0,0.0,1500,1709,0.0,0.0,40.0638083333,-88.1998578333,0.0,0.0,0.0,0.0,0.0,0.0,0.0,0.0,0.0,0.0,0.0,0,0.0,0.41967499259999996,0.5025076270000001,0.48742505909999995,90.0,90.0,90.0,88.74479675290002,90.6546554565,88.6174697876,44.9079971313,14.3365325928,2.4600000381,0,2,25,1,123,2363
145,1530571358405,373405, RC,0,39.9586186,-88.445067899,0,0.0,0.0,0.0,0.0,0.0,0.4932189882,0.0,0.0,0.0,0.0,0.0,0.0,0.0,1500,1709,0.0,0.0,40.0638083333,-88.1998578333,0.0,0.0,0.0,0.0,0.0,0.0,0.0,0.0,0.0,0.0,0.0,0,0.0,0.41967499259999996,0.4940466881,0.4923912883,90.0,90.0,90.0,88.8084564209,90.3363494873,88.36282348629999,44.9079971313,14.3365325928,2.4600000381,0,2,25,1,122,2364
146,1530571358456,373456, RC,0,39.9586186,-88.445067899,0,0.0,0.0,0.0,0.0,0.0,0.4977253675,0.0,0.0,0.0,0.0,0.0,0.0,0.0,1500,1709,0.0,0.0,40.0638083333,-88.1998578333,0.0,0.0,0.0,0.0,0.0,0.0,0.0,0.0,0.0,0.0,0.0,0,0.0,0.41967499259999996,0.5017719268999999,0.49367883799999995,90.0,90.0,90.0,89.63606262209998,90.20902252200001,88.4264831543,44.9079971313,14.3365325928,2.4600000381,0,2,25,1,96,2366
147,1530571358506,373506, RC,0,39.9586186,-88.445067899,0,0.0,0.0,0.0,0.0,0.0,0.4888045788,0.0,0.0,0.0,0.0,0.0,0.0,0.0,1500,1709,0.0,0.0,40.0638083333,-88.1998578333,0.0,0.0,0.0,0.0,0.0,0.0,0.0,0.0,0.0,0.0,0.0,0,0.0,0.41967499259999996,0.4938627481,0.48374640939999997,90.0,90.0,90.0,90.5909881592,89.7633895874,88.74479675290002,44.9079971313,14.3365325928,2.4600000381,0,2,25,1,98,2368
148,1530571358557,373557, RC,0,39.9586186,-88.445067899,0,0.0,0.0,0.0,0.0,0.0,0.4988290071,0.0,0.0,0.0,0.0,0.0,0.0,0.0,1500,1709,0.0,0.0,40.0638083333,-88.1998578333,0.0,0.0,0.0,0.0,0.0,0.0,0.0,0.0,0.0,0.0,0.0,0,0.0,0.41967499259999996,0.5056345463,0.4920234382,90.0,90.0,90.0,89.6997299194,88.6174697876,89.82704925540001,44.9079971313,14.354703903199999,14.1800003052,0,2,25,1,104,2370
149,1530571358608,373608, RC,0,39.9586186,-88.445067899,0,0.0,0.0,0.0,0.0,0.0,0.5053586364,0.0,0.0,0.0,0.0,0.0,0.0,0.0,1500,1709,0.0,0.0,40.0638083333,-88.1998578333,0.0,0.0,0.0,0.0,0.0,0.0,0.0,0.0,0.0,0.0,0.0,0,0.0,0.41967499259999996,0.5117043853000001,0.49901291729999997,90.0,90.0,90.0,89.63606262209998,88.8721160889,90.5273361206,44.9079971313,14.354703903199999,14.1800003052,0,2,25,1,159,2372
150,1530571358658,373658, RC,0,39.9586186,-88.445067899,0,0.0,0.0,0.0,0.0,0.0,0.5042550564,0.0,0.0,0.0,0.0,0.0,0.0,0.0,1500,1709,0.0,0.0,40.0638083333,-88.1998578333,0.0,0.0,0.0,0.0,0.0,0.0,0.0,0.0,0.0,0.0,0.0,0,0.0,0.41967499259999996,0.5163027048,0.49220734829999996,90.0,90.0,90.0,91.1639480591,89.5724029541,90.4636688232,44.9079971313,14.354703903199999,14.1800003052,0,2,25,1,161,2374
151,1530571358709,373709, RC,0,39.9586186,-88.445067899,0,0.0,0.0,0.0,0.0,0.0,0.5054506063,0.0,0.0,0.0,0.0,0.0,0.0,0.0,1500,1709,0.0,0.0,40.0638083333,-88.1998578333,0.0,0.0,0.0,0.0,0.0,0.0,0.0,0.0,0.0,0.0,0.0,0,0.0,0.41967499259999996,0.5050827265,0.5058184862,90.0,90.0,90.0,90.01803588870001,89.44507598879999,90.4636688232,44.9079971313,14.354703903199999,14.1800003052,0,2,25,1,114,2376
152,1530571358759,373759, RC,0,39.9586186,-88.445067899,0,0.0,0.0,0.0,0.0,0.0,0.5017719268999999,0.0,0.0,0.0,0.0,0.0,0.0,0.0,1500,1709,0.0,0.0,40.0638083333,-88.1998578333,0.0,0.0,0.0,0.0,0.0,0.0,0.0,0.0,0.0,0.0,0.0,0,0.0,0.41967499259999996,0.5036112666,0.4999325871,90.0,90.0,90.0,89.12677001950001,89.1904296875,90.6546554565,44.9079971313,14.354703903199999,14.1800003052,0,2,25,1,99,2378
153,1530571358810,373810, RC,0,39.9586186,-88.445067899,0,0.0,0.0,0.0,0.0,0.0,0.5014040470000001,0.0,0.0,0.0,0.0,0.0,0.0,0.0,1500,1709,0.0,0.0,40.0638083333,-88.1998578333,0.0,0.0,0.0,0.0,0.0,0.0,0.0,0.0,0.0,0.0,0.0,0,0.0,0.41967499259999996,0.4997486472,0.5030594468,90.0,90.0,90.0,89.7633895874,89.3177566528,90.6546554565,44.9079971313,14.354703903199999,14.1800003052,0,2,25,1,80,2380
