,(0)linux time (ms),    (1)uptime  (ms),      (2)drive mode,(3)mpc step counter,(4)mpc origin latitude  (deg),(5)mpc origin longitude  (deg),(6)closest trajectory point index to robot,(7)mpc error x (W;E)  (m),(8)mpc error y (W;E)  (m),(9)abs mpc error (m),(10)input [x] for mhe (m),(11)input [y] for mhe (m),(12)input [speed] for mhe (m/s),(13)input [vyaw] for mhe (rad/s),(14)mhe output x  (m),(15)mhe output y  (m),(16)mhe output speed  (m/s),(17)mhe output yaw  (rad),(18)mpc reference heading (rad),(19)mpc turn rate command (rad/s),(20)turn rate command as PWM,(21)throttle command as PWM,(22)primary gps latitude (deg),(23)primary gps longitude (deg),(24)secondary gps latitude  (deg),(25)secondary gps longitude (deg),(26)accelerometer x (m/s^2),(27)accelerometer y (m/s^2),(28)accelerometer z (m/s^2),(29)gyro yaw rate (rad/s),(30)gyro pitch rate   (rad/s),(31)gyro roll rate (rad/s),      (32)yaw (rad),  (33)pitch   (rad),     (34)roll (rad),(35)sonar1 measurement (m),(36)ultrasonic sensor measurement (m),(37)primary gps time (s),(38)normalized turn rate command,(39)normalized throttle command,(40)speed calculation from encoder left (m/s),(41)speed calculation from encoder right (m/s),(42)front gimbal target angle (degrees from straight down),(43)left gimbal target angle  (degrees from straight down),(44)right gimbal target angle  (degrees from straight down),(45)front gimbal measured angle  (degrees from straight down),(46)left gimbal measured angle    (degrees from straight down),(47)right gimbal measured angle  (degrees from straight down),(48)internal temperature (C),(49)battery voltage (V),(50)primary gps type,(51)secondary gps type,    (52)MPC R value, (53)MPC Q[0] value,Unnamed: 54,weed_num,start
0,1530571420344,435344, RC,0,39.9586186,-88.445067899,0,0.0,0.0,0.0,0.0,0.0,0.0104842372,0.0,0.0,0.0,0.0,0.0,0.0,0.0,1500,1500,0.0,0.0,40.0638123333,-88.2001346667,0.0,0.0,0.0,0.0,0.0,0.0,0.0,0.0,0.0,0.0,0.0,0,0.0,0.0,0.0095645674,0.0114039071,90.0,90.0,90.0,90.40000915530001,90.145362854,89.44507598879999,47.059997558599996,14.384725570699999,1.8600000143000002,0,2,25,1,120,3
1,1530571420394,435394, RC,0,39.9586186,-88.445067899,0,0.0,0.0,0.0,0.0,0.0,0.007909161999999999,0.0,0.0,0.0,0.0,0.0,0.0,0.0,1488,1500,0.0,0.0,40.0638123333,-88.2001346667,0.0,0.0,0.0,0.0,0.0,0.0,0.0,0.0,0.0,0.0,0.0,0,-0.0228300095,0.0,0.007173426,0.0086448975,90.0,90.0,90.0,90.40000915530001,90.20902252200001,89.5087432861,47.059997558599996,14.384725570699999,1.8600000143000002,0,2,25,1,93,5
2,1530571420445,435445, RC,0,39.9586186,-88.445067899,0,0.0,0.0,0.0,0.0,0.0,0.007081458299999999,0.0,0.0,0.0,0.0,0.0,0.0,0.0,1488,1500,0.0,0.0,40.0638123333,-88.2001346667,0.0,0.0,0.0,0.0,0.0,0.0,0.0,0.0,0.0,0.0,0.0,0,-0.0228300095,0.0,0.004230482,0.0099324351,90.0,90.0,90.0,90.40000915530001,90.20902252200001,89.5087432861,47.059997558599996,14.384725570699999,1.8600000143000002,0,2,25,1,82,7
3,1530571420495,435495, RC,0,39.9586186,-88.445067899,0,0.0,0.0,0.0,0.0,0.0,0.006621623399999999,0.0,0.0,0.0,0.0,0.0,0.0,0.0,1470,1507,0.0,0.0,40.0638123333,-88.2001346667,0.0,0.0,0.0,0.0,0.0,0.0,0.0,0.0,0.0,0.0,0.0,0,-0.0589770079,0.0143710375,-0.0007357360000000001,0.013978983300000001,90.0,90.0,90.0,90.3363494873,90.20902252200001,89.5724029541,47.059997558599996,14.384725570699999,1.8600000143000002,0,2,25,1,105,10
4,1530571420546,435546, RC,0,39.9586186,-88.445067899,0,0.0,0.0,0.0,0.0,0.0,0.0064376895,0.0,0.0,0.0,0.0,0.0,0.0,0.0,1470,1507,0.0,0.0,40.0638123333,-88.2001346667,0.0,0.0,0.0,0.0,0.0,0.0,0.0,0.0,0.0,0.0,0.0,0,-0.0589770079,0.0143710375,-0.0080930954,0.0209684744,90.0,90.0,90.0,90.3363494873,90.20902252200001,89.63606262209998,47.059997558599996,14.3816785812,11.050000190699999,0,2,25,1,81,12
5,1530571420596,435596, RC,0,39.9586186,-88.445067899,0,0.0,0.0,0.0,0.0,0.0,0.009472602,0.0,0.0,0.0,0.0,0.0,0.0,0.0,1453,1531,0.0,0.0,40.0638123333,-88.2001346667,0.0,0.0,0.0,0.0,0.0,0.0,0.0,0.0,0.0,0.0,0.0,0,-0.09322202210000001,0.06377398969999999,-0.0183933992,0.0373386033,90.0,90.0,90.0,90.20902252200001,90.2726821899,89.5724029541,47.059997558599996,14.3816785812,11.050000190699999,0,2,25,1,89,14
6,1530571420647,435647, RC,0,39.9586186,-88.445067899,0,0.0,0.0,0.0,0.0,0.0,0.0121396445,0.0,0.0,0.0,0.0,0.0,0.0,0.0,1453,1531,0.0,0.0,40.0638123333,-88.2001346667,0.0,0.0,0.0,0.0,0.0,0.0,0.0,0.0,0.0,0.0,0.0,0,-0.09322202210000001,0.06377398969999999,-0.0228078142,0.04708710309999999,90.0,90.0,90.0,90.20902252200001,90.2726821899,89.5724029541,47.059997558599996,14.3816785812,11.050000190699999,0,2,25,1,79,16
7,1530571420698,435698, RC,0,39.9586186,-88.445067899,0,0.0,0.0,0.0,0.0,0.0,0.026578459900000004,0.0,0.0,0.0,0.0,0.0,0.0,0.0,1441,1566,0.0,0.0,40.0638123333,-88.2001346667,0.0,0.0,0.0,0.0,0.0,0.0,0.0,0.0,0.0,0.0,0.0,0,-0.1160520315,0.1334140301,-0.024279287099999998,0.0774362087,90.0,90.0,90.0,90.2726821899,90.20902252200001,90.01803588870001,47.059997558599996,14.3816785812,11.050000190699999,0,2,25,1,84,18
8,1530571420748,435748, RC,0,39.9586186,-88.445067899,0,0.0,0.0,0.0,0.0,0.0,0.0295214057,0.0,0.0,0.0,0.0,0.0,0.0,0.0,1441,1566,0.0,0.0,40.0638123333,-88.2001346667,0.0,0.0,0.0,0.0,0.0,0.0,0.0,0.0,0.0,0.0,0.0,0,-0.1160520315,0.1334140301,-0.0226238817,0.08166669309999999,90.0,90.0,90.0,90.3363494873,90.145362854,89.9543762207,47.059997558599996,14.3816785812,11.050000190699999,0,2,25,1,58,21
9,1530571420799,435799, RC,0,39.9586186,-88.445067899,0,0.0,0.0,0.0,0.0,0.0,0.051041685,0.0,0.0,0.0,0.0,0.0,0.0,0.0,1441,1566,0.0,0.0,40.0638123333,-88.2001346667,0.0,0.0,0.0,0.0,0.0,0.0,0.0,0.0,0.0,0.0,0.0,0,-0.1160520315,0.1334140301,-0.0114039071,0.1134872735,90.0,90.0,90.0,90.40000915530001,90.145362854,89.8907089233,47.059997558599996,14.3816785812,11.050000190699999,0,2,25,1,61,23
10,1530571420849,435849, RC,0,39.9586186,-88.445067899,0,0.0,0.0,0.0,0.0,0.0,0.0747691691,0.0,0.0,0.0,0.0,0.0,0.0,0.0,1441,1566,0.0,0.0,40.0638123333,-88.2001346667,0.0,0.0,0.0,0.0,0.0,0.0,0.0,0.0,0.0,0.0,0.0,0,-0.1160520315,0.1334140301,-0.001287538,0.150825873,90.0,90.0,90.0,90.3363494873,90.7183227539,89.3177566528,47.059997558599996,14.3816785812,11.050000190699999,0,2,25,1,66,25
11,1530571420900,435900, RC,0,39.9586186,-88.445067899,0,0.0,0.0,0.0,0.0,0.0,0.0869088098,0.0,0.0,0.0,0.0,0.0,0.0,0.0,1500,1639,0.0,0.0,40.0638123333,-88.2001346667,0.0,0.0,0.0,0.0,0.0,0.0,0.0,0.0,0.0,0.0,0.0,0,0.0,0.279006958,0.001287538,0.1725300848,90.0,90.0,90.0,90.4636688232,91.2276153564,88.8084564209,47.059997558599996,14.3816785812,11.050000190699999,0,2,25,1,59,27
12,1530571420950,435950, RC,0,39.9586186,-88.445067899,0,0.0,0.0,0.0,0.0,0.0,0.11192382869999999,0.0,0.0,0.0,0.0,0.0,0.0,0.0,1500,1639,0.0,0.0,40.0638123333,-88.2001346667,0.0,0.0,0.0,0.0,0.0,0.0,0.0,0.0,0.0,0.0,0.0,0,0.0,0.279006958,0.0108521059,0.21299555899999997,90.0,90.0,90.0,90.5909881592,90.01803588870001,88.9994430542,47.059997558599996,14.3816785812,11.050000190699999,0,2,25,1,128,31
13,1530571421001,436001, RC,0,39.9586186,-88.445067899,0,0.0,0.0,0.0,0.0,0.0,0.1540447176,0.0,0.0,0.0,0.0,0.0,0.0,0.0,1500,1662,0.0,0.0,40.0638123333,-88.2001346667,0.0,0.0,0.0,0.0,0.0,0.0,0.0,0.0,0.0,0.0,0.0,0,0.0,0.3250420094,0.0572034717,0.2508859634,90.0,90.0,90.0,91.48226165770001,89.7633895874,89.5087432861,47.059997558599996,14.3816785812,11.050000190699999,0,2,25,1,125,34
14,1530571421052,436052, RC,0,39.9586186,-88.445067899,0,0.0,0.0,0.0,0.0,0.0,0.19018775219999998,0.0,0.0,0.0,0.0,0.0,0.0,0.0,1500,1662,0.0,0.0,40.0638123333,-88.2001346667,0.0,0.0,0.0,0.0,0.0,0.0,0.0,0.0,0.0,0.0,0.0,0,0.0,0.3250420094,0.1296734661,0.25070202350000004,90.0,90.0,90.0,90.7183227539,90.40000915530001,88.8084564209,47.059997558599996,14.3816785812,11.050000190699999,0,2,25,1,115,38
15,1530571421102,436102, RC,0,39.9586186,-88.445067899,0,0.0,0.0,0.0,0.0,0.0,0.2224681675,0.0,0.0,0.0,0.0,0.0,0.0,0.0,1500,1662,0.0,0.0,40.0638095,-88.2001338333,0.0,0.0,0.0,0.0,0.0,0.0,0.0,0.0,0.0,0.0,0.0,0,0.0,0.3250420094,0.1758408844,0.2690954506,90.0,90.0,90.0,90.8456420898,91.0366287231,88.1718444824,47.059997558599996,14.3816785812,11.050000190699999,0,2,25,1,145,40
16,1530571421153,436153, RC,0,39.9586186,-88.445067899,0,0.0,0.0,0.0,0.0,0.0,0.2672560811,0.0,0.0,0.0,0.0,0.0,0.0,0.0,1500,1662,0.0,0.0,40.0638095,-88.2001338333,0.0,0.0,0.0,0.0,0.0,0.0,0.0,0.0,0.0,0.0,0.0,0,0.0,0.3250420094,0.2348836958,0.2996284664,90.0,90.0,90.0,91.48226165770001,90.3363494873,88.4264831543,47.059997558599996,14.3816785812,11.050000190699999,0,2,25,1,148,43
17,1530571421203,436203, RC,0,39.9586186,-88.445067899,0,0.0,0.0,0.0,0.0,0.0,0.2887763381,0.0,0.0,0.0,0.0,0.0,0.0,0.0,1500,1668,0.0,0.0,40.0638095,-88.2001338333,0.0,0.0,0.0,0.0,0.0,0.0,0.0,0.0,0.0,0.0,0.0,0,0.0,0.3373860121,0.26173806190000004,0.3158146441,90.0,90.0,90.0,91.3549346924,90.01803588870001,89.3177566528,47.059997558599996,14.3816785812,11.050000190699999,0,2,25,1,146,45
18,1530571421254,436254, RC,0,39.9586186,-88.445067899,0,0.0,0.0,0.0,0.0,0.0,0.3086412549,0.0,0.0,0.0,0.0,0.0,0.0,0.0,1500,1668,0.0,0.0,40.0638095,-88.2001338333,0.0,0.0,0.0,0.0,0.0,0.0,0.0,0.0,0.0,0.0,0.0,0,0.0,0.3373860121,0.2830744088,0.3342080712,90.0,90.0,90.0,90.4636688232,89.5724029541,90.5273361206,47.059997558599996,14.3816785812,11.050000190699999,0,2,25,1,141,48
19,1530571421304,436304, RC,0,39.9586186,-88.445067899,0,0.0,0.0,0.0,0.0,0.0,0.3368750811,0.0,0.0,0.0,0.0,0.0,0.0,0.0,1500,1668,0.0,0.0,40.0638095,-88.2001338333,0.0,0.0,0.0,0.0,0.0,0.0,0.0,0.0,0.0,0.0,0.0,0,0.0,0.3373860121,0.3115841746,0.3621660173,90.0,90.0,90.0,91.10028839110001,89.5724029541,90.6546554565,47.059997558599996,14.3816785812,11.050000190699999,0,2,25,1,117,50
20,1530571421355,436355, RC,0,39.9586186,-88.445067899,0,0.0,0.0,0.0,0.0,0.0,0.3417493701,0.0,0.0,0.0,0.0,0.0,0.0,0.0,1500,1668,0.0,0.0,40.0638095,-88.2001338333,0.0,0.0,0.0,0.0,0.0,0.0,0.0,0.0,0.0,0.0,0.0,0,0.0,0.3373860121,0.3196772933,0.36382144689999996,90.0,90.0,90.0,90.145362854,89.25408935549999,90.9093093872,47.059997558599996,14.3816785812,11.050000190699999,0,2,25,1,96,52
21,1530571421406,436406, RC,0,39.9586186,-88.445067899,0,0.0,0.0,0.0,0.0,0.0,0.3663045168,0.0,0.0,0.0,0.0,0.0,0.0,0.0,1500,1674,0.0,0.0,40.0638095,-88.2001338333,0.0,0.0,0.0,0.0,0.0,0.0,0.0,0.0,0.0,0.0,0.0,0,0.0,0.3497290611,0.3583033979,0.3743056655,90.0,90.0,90.0,88.681137085,88.6174697876,91.48226165770001,47.059997558599996,14.3816785812,11.050000190699999,0,2,25,1,96,55
22,1530571421456,436456, RC,0,39.9586186,-88.445067899,0,0.0,0.0,0.0,0.0,0.0,0.37881204490000003,0.0,0.0,0.0,0.0,0.0,0.0,0.0,1500,1674,0.0,0.0,40.0638095,-88.2001338333,0.0,0.0,0.0,0.0,0.0,0.0,0.0,0.0,0.0,0.0,0.0,0,0.0,0.3497290611,0.3719145358,0.385709554,90.0,90.0,90.0,89.9543762207,89.12677001950001,91.5459213257,47.059997558599996,14.3816785812,11.050000190699999,0,2,25,1,108,58
23,1530571421507,436507, RC,0,39.9586186,-88.445067899,0,0.0,0.0,0.0,0.0,0.0,0.3979411721,0.0,0.0,0.0,0.0,0.0,0.0,0.0,1500,1674,0.0,0.0,40.0638095,-88.2001338333,0.0,0.0,0.0,0.0,0.0,0.0,0.0,0.0,0.0,0.0,0.0,0,0.0,0.3497290611,0.397665292,0.39821708200000006,90.0,90.0,90.0,90.4636688232,89.63606262209998,90.20902252200001,47.059997558599996,14.3816785812,11.050000190699999,0,2,25,1,93,60
24,1530571421557,436557, RC,0,39.9586186,-88.445067899,0,0.0,0.0,0.0,0.0,0.0,0.4122880399,0.0,0.0,0.0,0.0,0.0,0.0,0.0,1500,1674,0.0,0.0,40.0638095,-88.2001338333,0.0,0.0,0.0,0.0,0.0,0.0,0.0,0.0,0.0,0.0,0.0,0,0.0,0.3497290611,0.4202891588,0.404286921,90.0,90.0,90.0,90.7183227539,90.145362854,89.12677001950001,47.059997558599996,14.3785076141,10.1700000763,0,2,25,1,111,63
25,1530571421608,436608, RC,0,39.9586186,-88.445067899,0,0.0,0.0,0.0,0.0,0.0,0.4063102007,0.0,0.0,0.0,0.0,0.0,0.0,0.0,1500,1674,0.0,0.0,40.0638095,-88.2001338333,0.0,0.0,0.0,0.0,0.0,0.0,0.0,0.0,0.0,0.0,0.0,0,0.0,0.3497290611,0.40796560049999997,0.4046547711,90.0,90.0,90.0,90.7183227539,90.01803588870001,88.9994430542,47.059997558599996,14.3785076141,10.1700000763,0,2,25,1,85,65
26,1530571421659,436659, RC,0,39.9586186,-88.445067899,0,0.0,0.0,0.0,0.0,0.0,0.4143113196,0.0,0.0,0.0,0.0,0.0,0.0,0.0,1500,1674,0.0,0.0,40.0638095,-88.2001338333,0.0,0.0,0.0,0.0,0.0,0.0,0.0,0.0,0.0,0.0,0.0,0,0.0,0.3497290611,0.42451965810000003,0.4041029811,90.0,90.0,90.0,90.4636688232,89.5724029541,89.3814163208,47.059997558599996,14.3785076141,10.1700000763,0,2,25,1,117,68
27,1530571421709,436709, RC,0,39.9586186,-88.445067899,0,0.0,0.0,0.0,0.0,0.0,0.42102488880000005,0.0,0.0,0.0,0.0,0.0,0.0,0.0,1500,1674,0.0,0.0,40.0638095,-88.2001338333,0.0,0.0,0.0,0.0,0.0,0.0,0.0,0.0,0.0,0.0,0.0,0,0.0,0.3497290611,0.4300376475,0.41201213,90.0,90.0,90.0,90.01803588870001,89.3177566528,89.5724029541,47.059997558599996,14.3785076141,10.1700000763,0,2,25,1,89,70
28,1530571421760,436760, RC,0,39.9586186,-88.445067899,0,0.0,0.0,0.0,0.0,0.0,0.4237839282,0.0,0.0,0.0,0.0,0.0,0.0,0.0,1500,1674,0.0,0.0,40.0638095,-88.2001338333,0.0,0.0,0.0,0.0,0.0,0.0,0.0,0.0,0.0,0.0,0.0,0,0.0,0.3497290611,0.4307734072,0.41679444909999996,90.0,90.0,90.0,89.82704925540001,89.63606262209998,89.3177566528,44.9079971313,14.3785076141,10.1700000763,0,2,25,1,92,73
29,1530571421810,436810, RC,0,39.9586186,-88.445067899,0,0.0,0.0,0.0,0.0,0.0,0.4275545478,0.0,0.0,0.0,0.0,0.0,0.0,0.0,1500,1674,0.0,0.0,40.0638095,-88.2001338333,0.0,0.0,0.0,0.0,0.0,0.0,0.0,0.0,0.0,0.0,0.0,0,0.0,0.3497290611,0.44530418520000004,0.4098049402,90.0,90.0,90.0,89.7633895874,89.8907089233,89.0631027222,44.9079971313,14.3785076141,10.1700000763,0,2,25,1,106,75
30,1530571421861,436861, RC,0,39.9586186,-88.445067899,0,0.0,0.0,0.0,0.0,0.0,0.43537175659999994,0.0,0.0,0.0,0.0,0.0,0.0,0.0,1500,1674,0.0,0.0,40.0638095,-88.2001338333,0.0,0.0,0.0,0.0,0.0,0.0,0.0,0.0,0.0,0.0,0.0,0,0.0,0.3497290611,0.44364878539999997,0.4270947278,90.0,90.0,90.0,89.5087432861,89.63606262209998,89.3177566528,44.9079971313,14.3785076141,10.1700000763,0,2,25,1,106,78
31,1530571421912,436912, RC,0,39.9586186,-88.445067899,0,0.0,0.0,0.0,0.0,0.0,0.4223124385,0.0,0.0,0.0,0.0,0.0,0.0,0.0,1500,1674,0.0,0.0,40.0638095,-88.2001338333,0.0,0.0,0.0,0.0,0.0,0.0,0.0,0.0,0.0,0.0,0.0,0,0.0,0.3497290611,0.4414415658,0.40318331119999995,90.0,90.0,90.0,89.5724029541,89.44507598879999,89.44507598879999,44.9079971313,14.3785076141,10.1700000763,0,2,25,1,118,80
32,1530571421962,436962, RC,0,39.9586186,-88.445067899,0,0.0,0.0,0.0,0.0,0.0,0.4265429378,0.0,0.0,0.0,0.0,0.0,0.0,0.0,1500,1674,0.0,0.0,40.0638095,-88.2001338333,0.0,0.0,0.0,0.0,0.0,0.0,0.0,0.0,0.0,0.0,0.0,0,0.0,0.3497290611,0.4430969656,0.4099888802,90.0,90.0,90.0,90.4636688232,89.12677001950001,89.82704925540001,44.9079971313,14.3785076141,10.1700000763,0,2,25,1,163,83
33,1530571422013,437013, RC,0,39.9586186,-88.445067899,0,0.0,0.0,0.0,0.0,0.0,0.4144032598,0.0,0.0,0.0,0.0,0.0,0.0,0.0,1500,1674,0.0,0.0,40.0638095,-88.2001338333,0.0,0.0,0.0,0.0,0.0,0.0,0.0,0.0,0.0,0.0,0.0,0,0.0,0.3497290611,0.4368432164,0.3919633329,90.0,90.0,90.0,90.9093093872,89.5724029541,89.7633895874,44.9079971313,14.3785076141,10.1700000763,0,2,25,1,134,85
34,1530571422063,437063, RC,0,39.9586186,-88.445067899,0,0.0,0.0,0.0,0.0,0.0,0.4284742475,0.0,0.0,0.0,0.0,0.0,0.0,0.0,1500,1674,0.0,0.0,40.0638095,-88.2001338333,0.0,0.0,0.0,0.0,0.0,0.0,0.0,0.0,0.0,0.0,0.0,0,0.0,0.3497290611,0.4478792846,0.40906918049999996,90.0,90.0,90.0,90.3363494873,89.6997299194,89.5724029541,44.9079971313,14.3785076141,10.1700000763,0,2,25,1,56,88
35,1530571422114,437114, RC,0,39.9586186,-88.445067899,0,0.0,0.0,0.0,0.0,0.0,0.42783045770000006,0.0,0.0,0.0,0.0,0.0,0.0,0.0,1500,1674,0.0,0.0,40.0638111667,-88.2001346667,0.0,0.0,0.0,0.0,0.0,0.0,0.0,0.0,0.0,0.0,0.0,0,0.0,0.3497290611,0.45045435429999997,0.40520659090000005,90.0,90.0,90.0,88.681137085,89.8907089233,89.3177566528,44.9079971313,14.3785076141,10.1700000763,0,2,25,1,127,90
36,1530571422165,437165, RC,0,39.9586186,-88.445067899,0,0.0,0.0,0.0,0.0,0.0,0.42084097859999997,0.0,0.0,0.0,0.0,0.0,0.0,0.0,1500,1674,0.0,0.0,40.0638111667,-88.2001346667,0.0,0.0,0.0,0.0,0.0,0.0,0.0,0.0,0.0,0.0,0.0,0,0.0,0.3497290611,0.4427291155,0.39895281200000005,90.0,90.0,90.0,88.93578338620001,90.5273361206,88.8084564209,44.9079971313,14.3785076141,10.1700000763,0,2,25,1,118,93
37,1530571422215,437215, RC,0,39.9586186,-88.445067899,0,0.0,0.0,0.0,0.0,0.0,0.42525538799999996,0.0,0.0,0.0,0.0,0.0,0.0,0.0,1500,1674,0.0,0.0,40.0638111667,-88.2001346667,0.0,0.0,0.0,0.0,0.0,0.0,0.0,0.0,0.0,0.0,0.0,0,0.0,0.3497290611,0.44548812509999997,0.405022651,90.0,90.0,90.0,90.145362854,90.5273361206,88.6174697876,44.9079971313,14.3785076141,10.1700000763,0,2,25,1,121,95
38,1530571422266,437266, RC,0,39.9586186,-88.445067899,0,0.0,0.0,0.0,0.0,0.0,0.4301296473,0.0,0.0,0.0,0.0,0.0,0.0,0.0,1500,1674,0.0,0.0,40.0638111667,-88.2001346667,0.0,0.0,0.0,0.0,0.0,0.0,0.0,0.0,0.0,0.0,0.0,0,0.0,0.3497290611,0.4508222044,0.4094370604,90.0,90.0,90.0,90.2726821899,89.1904296875,89.5087432861,44.9079971313,14.3785076141,10.1700000763,0,2,25,1,80,98
39,1530571422316,437316, RC,0,39.9586186,-88.445067899,0,0.0,0.0,0.0,0.0,0.0,0.42323210840000003,0.0,0.0,0.0,0.0,0.0,0.0,0.0,1500,1674,0.0,0.0,40.0638111667,-88.2001346667,0.0,0.0,0.0,0.0,0.0,0.0,0.0,0.0,0.0,0.0,0.0,0,0.0,0.3497290611,0.43757897619999997,0.40888524060000003,90.0,90.0,90.0,90.145362854,88.1081771851,90.40000915530001,44.9079971313,14.3785076141,10.1700000763,0,2,25,1,46,100
40,1530571422367,437367, RC,0,39.9586186,-88.445067899,0,0.0,0.0,0.0,0.0,0.0,0.42387586829999996,0.0,0.0,0.0,0.0,0.0,0.0,0.0,1500,1674,0.0,0.0,40.0638111667,-88.2001346667,0.0,0.0,0.0,0.0,0.0,0.0,0.0,0.0,0.0,0.0,0.0,0,0.0,0.3497290611,0.4407058358,0.40704590079999997,90.0,90.0,90.0,89.6997299194,88.1718444824,91.10028839110001,44.9079971313,14.3785076141,10.1700000763,0,2,25,1,74,103
41,1530571422417,437417, RC,0,39.9586186,-88.445067899,0,0.0,0.0,0.0,0.0,0.0,0.42635899780000003,0.0,0.0,0.0,0.0,0.0,0.0,0.0,1500,1674,0.0,0.0,40.0638111667,-88.2001346667,0.0,0.0,0.0,0.0,0.0,0.0,0.0,0.0,0.0,0.0,0.0,0,0.0,0.3497290611,0.4443845451,0.4083334804,90.0,90.0,90.0,89.3177566528,90.3363494873,91.2276153564,44.9079971313,14.3785076141,10.1700000763,0,2,25,1,89,105
42,1530571422468,437468, RC,0,39.9586186,-88.445067899,0,0.0,0.0,0.0,0.0,0.0,0.42930191759999997,0.0,0.0,0.0,0.0,0.0,0.0,0.0,1500,1674,0.0,0.0,40.0638111667,-88.2001346667,0.0,0.0,0.0,0.0,0.0,0.0,0.0,0.0,0.0,0.0,0.0,0,0.0,0.3497290611,0.4515579343,0.40704590079999997,90.0,90.0,90.0,89.5724029541,90.0816955566,91.10028839110001,44.9079971313,14.3785076141,10.1700000763,0,2,25,1,71,108
43,1530571422519,437519, RC,0,39.9586186,-88.445067899,0,0.0,0.0,0.0,0.0,0.0,0.4336243868,0.0,0.0,0.0,0.0,0.0,0.0,0.0,1500,1674,0.0,0.0,40.0638111667,-88.2001346667,0.0,0.0,0.0,0.0,0.0,0.0,0.0,0.0,0.0,0.0,0.0,0,0.0,0.3497290611,0.4546848238,0.41256394979999994,90.0,90.0,90.0,89.7633895874,89.7633895874,88.9994430542,44.9079971313,14.3785076141,10.1700000763,0,2,25,1,67,110
44,1530571422569,437569, RC,0,39.9586186,-88.445067899,0,0.0,0.0,0.0,0.0,0.0,0.4294858575,0.0,0.0,0.0,0.0,0.0,0.0,0.0,1500,1674,0.0,0.0,40.0638111667,-88.2001346667,0.0,0.0,0.0,0.0,0.0,0.0,0.0,0.0,0.0,0.0,0.0,0,0.0,0.3497290611,0.45229369399999997,0.40667805079999997,90.0,90.0,90.0,89.5087432861,90.20902252200001,86.89859771729999,44.9079971313,14.3879165649,11.539999961900001,0,2,25,1,100,113
45,1530571422620,437620, RC,0,39.9586186,-88.445067899,0,0.0,0.0,0.0,0.0,0.0,0.42268031840000003,0.0,0.0,0.0,0.0,0.0,0.0,0.0,1500,1674,0.0,0.0,40.0638111667,-88.2001346667,0.0,0.0,0.0,0.0,0.0,0.0,0.0,0.0,0.0,0.0,0.0,0,0.0,0.3497290611,0.4305894673,0.4147711694,90.0,90.0,90.0,89.82704925540001,90.7819747925,87.08958435059999,44.9079971313,14.3879165649,11.539999961900001,0,2,25,1,89,115
46,1530571422670,437670, RC,0,39.9586186,-88.445067899,0,0.0,0.0,0.0,0.0,0.0,0.4265429378,0.0,0.0,0.0,0.0,0.0,0.0,0.0,1500,1674,0.0,0.0,40.0638111667,-88.2001346667,0.0,0.0,0.0,0.0,0.0,0.0,0.0,0.0,0.0,0.0,0.0,0,0.0,0.3497290611,0.4333484769,0.4197373688,90.0,90.0,90.0,90.20902252200001,91.3549346924,88.2991638184,44.9079971313,14.3879165649,11.539999961900001,0,2,25,1,112,118
47,1530571422721,437721, RC,0,39.9586186,-88.445067899,0,0.0,0.0,0.0,0.0,0.0,0.4310493171,0.0,0.0,0.0,0.0,0.0,0.0,0.0,1500,1674,0.0,0.0,40.0638111667,-88.2001346667,0.0,0.0,0.0,0.0,0.0,0.0,0.0,0.0,0.0,0.0,0.0,0,0.0,0.3497290611,0.44732746479999996,0.4147711694,90.0,90.0,90.0,90.20902252200001,89.3177566528,89.3814163208,44.9079971313,14.3879165649,11.539999961900001,0,2,25,1,131,121
48,1530571422771,437771, RC,0,39.9586186,-88.445067899,0,0.0,0.0,0.0,0.0,0.0,0.4266349077,0.0,0.0,0.0,0.0,0.0,0.0,0.0,1500,1674,0.0,0.0,40.0638111667,-88.2001346667,0.0,0.0,0.0,0.0,0.0,0.0,0.0,0.0,0.0,0.0,0.0,0,0.0,0.3497290611,0.4291180074,0.4241517782,90.0,90.0,90.0,90.0816955566,88.6174697876,89.5087432861,44.9079971313,14.3879165649,11.539999961900001,0,2,25,1,132,123
49,1530571422822,437822, RC,0,39.9586186,-88.445067899,0,0.0,0.0,0.0,0.0,0.0,0.4268188179,0.0,0.0,0.0,0.0,0.0,0.0,0.0,1500,1674,0.0,0.0,40.0638111667,-88.2001346667,0.0,0.0,0.0,0.0,0.0,0.0,0.0,0.0,0.0,0.0,0.0,0,0.0,0.3497290611,0.4362914264,0.4173462093,90.0,90.0,90.0,89.63606262209998,88.4264831543,90.40000915530001,44.9079971313,14.3879165649,11.539999961900001,0,2,25,1,137,126
50,1530571422873,437873, RC,0,39.9586186,-88.445067899,0,0.0,0.0,0.0,0.0,0.0,0.4345440567,0.0,0.0,0.0,0.0,0.0,0.0,0.0,1500,1674,0.0,0.0,40.0638111667,-88.2001346667,0.0,0.0,0.0,0.0,0.0,0.0,0.0,0.0,0.0,0.0,0.0,0,0.0,0.3497290611,0.4491668046,0.4199213088,90.0,90.0,90.0,89.82704925540001,88.6174697876,90.7183227539,44.9079971313,14.3879165649,11.539999961900001,0,2,25,1,100,128
51,1530571422923,437923, RC,0,39.9586186,-88.445067899,0,0.0,0.0,0.0,0.0,0.0,0.431968987,0.0,0.0,0.0,0.0,0.0,0.0,0.0,1500,1681,0.0,0.0,40.0638111667,-88.2001346667,0.0,0.0,0.0,0.0,0.0,0.0,0.0,0.0,0.0,0.0,0.0,0,0.0,0.36207199100000004,0.44456845520000005,0.419369489,90.0,90.0,90.0,90.3363494873,89.9543762207,90.7819747925,44.9079971313,14.3879165649,11.539999961900001,0,2,25,1,80,130
52,1530571422974,437974, RC,0,39.9586186,-88.445067899,0,0.0,0.0,0.0,0.0,0.0,0.4346359968,0.0,0.0,0.0,0.0,0.0,0.0,0.0,1500,1681,0.0,0.0,40.0638111667,-88.2001346667,0.0,0.0,0.0,0.0,0.0,0.0,0.0,0.0,0.0,0.0,0.0,0,0.0,0.36207199100000004,0.43665927649999997,0.432612747,90.0,90.0,90.0,90.5273361206,90.40000915530001,90.40000915530001,44.9079971313,14.3879165649,11.539999961900001,0,2,25,1,118,133
53,1530571423024,438024, RC,0,39.9586186,-88.445067899,0,0.0,0.0,0.0,0.0,0.0,0.4472355247,0.0,0.0,0.0,0.0,0.0,0.0,0.0,1500,1694,0.0,0.0,40.0638111667,-88.2001346667,0.0,0.0,0.0,0.0,0.0,0.0,0.0,0.0,0.0,0.0,0.0,0,0.0,0.38881599899999997,0.4502704144,0.44420060520000004,90.0,90.0,90.0,90.8456420898,91.67324829100001,88.74479675290002,44.9079971313,14.3879165649,11.539999961900001,0,2,25,1,107,135
54,1530571423075,438075, RC,0,39.9586186,-88.445067899,0,0.0,0.0,0.0,0.0,0.0,0.4398781359,0.0,0.0,0.0,0.0,0.0,0.0,0.0,1500,1694,0.0,0.0,40.063812166700004,-88.2001406667,0.0,0.0,0.0,0.0,0.0,0.0,0.0,0.0,0.0,0.0,0.0,0,0.0,0.38881599899999997,0.4329806268,0.446775645,90.0,90.0,90.0,90.4636688232,90.5273361206,88.235496521,44.9079971313,14.3879165649,11.539999961900001,0,2,25,1,86,138
55,1530571423125,438125, RC,0,39.9586186,-88.445067899,0,0.0,0.0,0.0,0.0,0.0,0.45091417429999997,0.0,0.0,0.0,0.0,0.0,0.0,0.0,1500,1700,0.0,0.0,40.063812166700004,-88.2001406667,0.0,0.0,0.0,0.0,0.0,0.0,0.0,0.0,0.0,0.0,0.0,0,0.0,0.4011600018,0.4307734072,0.4710549414,90.0,90.0,90.0,89.63606262209998,90.40000915530001,87.3442306519,44.9079971313,14.3879165649,11.539999961900001,0,2,25,1,109,141
56,1530571423176,438176, RC,0,39.9586186,-88.445067899,0,0.0,0.0,0.0,0.0,0.0,0.4794239402,0.0,0.0,0.0,0.0,0.0,0.0,0.0,1500,1700,0.0,0.0,40.063812166700004,-88.2001406667,0.0,0.0,0.0,0.0,0.0,0.0,0.0,0.0,0.0,0.0,0.0,0,0.0,0.4011600018,0.4664565921,0.4923912883,90.0,90.0,90.0,89.7633895874,90.8456420898,87.1532516479,44.9079971313,14.3879165649,11.539999961900001,0,2,25,1,110,143
57,1530571423227,438227, RC,0,39.9586186,-88.445067899,0,0.0,0.0,0.0,0.0,0.0,0.48576968909999996,0.0,0.0,0.0,0.0,0.0,0.0,0.0,1500,1712,0.0,0.0,40.063812166700004,-88.2001406667,0.0,0.0,0.0,0.0,0.0,0.0,0.0,0.0,0.0,0.0,0.0,0,0.0,0.4258470535,0.4789641201,0.4925752282,90.0,90.0,90.0,89.9543762207,89.3177566528,89.63606262209998,44.9079971313,14.3879165649,11.539999961900001,0,2,25,1,95,146
58,1530571423277,438277, RC,0,39.9586186,-88.445067899,0,0.0,0.0,0.0,0.0,0.0,0.4938627779,0.0,0.0,0.0,0.0,0.0,0.0,0.0,1500,1712,0.0,0.0,40.063812166700004,-88.2001406667,0.0,0.0,0.0,0.0,0.0,0.0,0.0,0.0,0.0,0.0,0.0,0,0.0,0.4258470535,0.4820910096,0.5056345463,90.0,90.0,90.0,90.0816955566,88.9994430542,90.2726821899,44.9079971313,14.3879165649,11.539999961900001,0,2,25,1,85,148
59,1530571423328,438328, RC,0,39.9586186,-88.445067899,0,0.0,0.0,0.0,0.0,0.0,0.4790560901,0.0,0.0,0.0,0.0,0.0,0.0,0.0,1500,1719,0.0,0.0,40.063812166700004,-88.2001406667,0.0,0.0,0.0,0.0,0.0,0.0,0.0,0.0,0.0,0.0,0.0,0,0.0,0.43818998340000004,0.4633297324,0.4947824478,90.0,90.0,90.0,89.9543762207,89.63606262209998,90.40000915530001,44.9079971313,14.3879165649,11.539999961900001,0,2,25,1,94,151
60,1530571423378,438378, RC,0,39.9586186,-88.445067899,0,0.0,0.0,0.0,0.0,0.0,0.5090373755,0.0,0.0,0.0,0.0,0.0,0.0,0.0,1500,1719,0.0,0.0,40.063812166700004,-88.2001406667,0.0,0.0,0.0,0.0,0.0,0.0,0.0,0.0,0.0,0.0,0.0,0,0.0,0.43818998340000004,0.5098650455,0.5082096457,90.0,90.0,90.0,90.0816955566,89.8907089233,90.5909881592,44.9079971313,14.3879165649,11.539999961900001,0,2,25,1,94,153
61,1530571423429,438429, RC,0,39.9586186,-88.445067899,0,0.0,0.0,0.0,0.0,0.0,0.515750885,0.0,0.0,0.0,0.0,0.0,0.0,0.0,1500,1719,0.0,0.0,40.063812166700004,-88.2001406667,0.0,0.0,0.0,0.0,0.0,0.0,0.0,0.0,0.0,0.0,0.0,0,0.0,0.43818998340000004,0.5236600637,0.5078417659000001,90.0,90.0,90.0,90.3363494873,88.9994430542,91.1639480591,44.9079971313,14.3879165649,11.539999961900001,0,2,25,1,84,156
62,1530571423479,438479, RC,0,39.9586186,-88.445067899,0,0.0,0.0,0.0,0.0,0.0,0.5267869234,0.0,0.0,0.0,0.0,0.0,0.0,0.0,1500,1719,0.0,0.0,40.063812166700004,-88.2001406667,0.0,0.0,0.0,0.0,0.0,0.0,0.0,0.0,0.0,0.0,0.0,0,0.0,0.43818998340000004,0.5339604020000001,0.5196135044,90.0,90.0,90.0,89.6997299194,89.44507598879999,91.3549346924,44.9079971313,14.3879165649,11.539999961900001,0,2,25,1,94,158
63,1530571423530,438530, RC,0,39.9586186,-88.445067899,0,0.0,0.0,0.0,0.0,0.0,0.5210850239,0.0,0.0,0.0,0.0,0.0,0.0,0.0,1500,1719,0.0,0.0,40.063812166700004,-88.2001406667,0.0,0.0,0.0,0.0,0.0,0.0,0.0,0.0,0.0,0.0,0.0,0,0.0,0.43818998340000004,0.5332246423,0.5089453459000001,90.0,90.0,90.0,89.9543762207,90.5273361206,89.9543762207,44.9079971313,14.3879165649,11.539999961900001,0,2,25,1,74,161
64,1530571423581,438581, RC,0,39.9586186,-88.445067899,0,0.0,0.0,0.0,0.0,0.0,0.5244877338,0.0,0.0,0.0,0.0,0.0,0.0,0.0,1500,1719,0.0,0.0,40.063812166700004,-88.2001406667,0.0,0.0,0.0,0.0,0.0,0.0,0.0,0.0,0.0,0.0,0.0,0,0.0,0.43818998340000004,0.5291780829,0.5197974443,90.0,90.0,90.0,90.20902252200001,90.4636688232,88.55381011959999,44.9079971313,14.3854618073,18.9700012207,0,2,25,1,103,163
65,1530571423631,438631, RC,0,39.9586186,-88.445067899,0,0.0,0.0,0.0,0.0,0.0,0.5328567624,0.0,0.0,0.0,0.0,0.0,0.0,0.0,1500,1719,0.0,0.0,40.063812166700004,-88.2001406667,0.0,0.0,0.0,0.0,0.0,0.0,0.0,0.0,0.0,0.0,0.0,0,0.0,0.43818998340000004,0.5385587215,0.5271548033,90.0,90.0,90.0,89.7633895874,89.7633895874,88.681137085,44.9079971313,14.3854618073,18.9700012207,0,2,25,1,91,166
66,1530571423682,438682, RC,0,39.9586186,-88.445067899,0,0.0,0.0,0.0,0.0,0.0,0.5363515019,0.0,0.0,0.0,0.0,0.0,0.0,0.0,1500,1719,0.0,0.0,40.063812166700004,-88.2001406667,0.0,0.0,0.0,0.0,0.0,0.0,0.0,0.0,0.0,0.0,0.0,0,0.0,0.43818998340000004,0.54941082,0.5232921839,90.0,90.0,90.0,90.20902252200001,88.681137085,89.6997299194,44.9079971313,14.3854618073,18.9700012207,0,2,25,1,84,168
67,1530571423732,438732, RC,0,39.9586186,-88.445067899,0,0.0,0.0,0.0,0.0,0.0,0.5410417914,0.0,0.0,0.0,0.0,0.0,0.0,0.0,1500,1719,0.0,0.0,40.063812166700004,-88.2001406667,0.0,0.0,0.0,0.0,0.0,0.0,0.0,0.0,0.0,0.0,0.0,0,0.0,0.43818998340000004,0.5521697997999999,0.5299137831,90.0,90.0,90.0,90.7183227539,87.7898712158,90.7183227539,44.9079971313,14.3854618073,18.9700012207,0,2,25,1,103,171
68,1530571423783,438783, RC,0,39.9586186,-88.445067899,0,0.0,0.0,0.0,0.0,0.0,0.5320290923,0.0,0.0,0.0,0.0,0.0,0.0,0.0,1500,1719,0.0,0.0,40.063812166700004,-88.2001406667,0.0,0.0,0.0,0.0,0.0,0.0,0.0,0.0,0.0,0.0,0.0,0,0.0,0.43818998340000004,0.5253155231000001,0.5387426614999999,90.0,90.0,90.0,91.0366287231,89.1904296875,90.145362854,44.9079971313,14.3854618073,18.9700012207,0,2,25,1,67,173
69,1530571423833,438833, RC,0,39.9586186,-88.445067899,0,0.0,0.0,0.0,0.0,0.0,0.5468357801,0.0,0.0,0.0,0.0,0.0,0.0,0.0,1500,1719,0.0,0.0,40.063812166700004,-88.2001406667,0.0,0.0,0.0,0.0,0.0,0.0,0.0,0.0,0.0,0.0,0.0,0,0.0,0.43818998340000004,0.5560324192,0.5376390815,90.0,90.0,90.0,90.20902252200001,92.4371948242,88.4264831543,44.9079971313,14.3854618073,18.9700012207,0,2,25,1,72,176
70,1530571423884,438884, RC,0,39.9586186,-88.445067899,0,0.0,0.0,0.0,0.0,0.0,0.5461000203999999,0.0,0.0,0.0,0.0,0.0,0.0,0.0,1500,1719,0.0,0.0,40.063812166700004,-88.2001406667,0.0,0.0,0.0,0.0,0.0,0.0,0.0,0.0,0.0,0.0,0.0,0,0.0,0.43818998340000004,0.5427891612,0.54941082,90.0,90.0,90.0,89.7633895874,91.8642349243,87.4078979492,44.9079971313,14.3854618073,18.9700012207,0,2,25,1,87,178
71,1530571423935,438935, RC,0,39.9586186,-88.445067899,0,0.0,0.0,0.0,0.0,0.0,0.5424213409,0.0,0.0,0.0,0.0,0.0,0.0,0.0,1500,1719,0.0,0.0,40.063812166700004,-88.2001406667,0.0,0.0,0.0,0.0,0.0,0.0,0.0,0.0,0.0,0.0,0.0,0,0.0,0.43818998340000004,0.5442606807,0.5405820012,90.0,90.0,90.0,89.63606262209998,90.4636688232,86.89859771729999,44.9079971313,14.3854618073,18.9700012207,0,2,25,1,67,181
72,1530571423985,438985, RC,0,39.9586186,-88.445067899,0,0.0,0.0,0.0,0.0,0.0,0.554377079,0.0,0.0,0.0,0.0,0.0,0.0,0.0,1500,1719,0.0,0.0,40.063812166700004,-88.2001406667,0.0,0.0,0.0,0.0,0.0,0.0,0.0,0.0,0.0,0.0,0.0,0,0.0,0.43818998340000004,0.5622861981,0.5464679003,90.0,90.0,90.0,89.44507598879999,89.7633895874,88.93578338620001,44.9079971313,14.3854618073,18.9700012207,0,2,25,1,71,183
73,1530571424036,439036, RC,0,39.9586186,-88.445067899,0,0.0,0.0,0.0,0.0,0.0,0.5501465797,0.0,0.0,0.0,0.0,0.0,0.0,0.0,1500,1719,0.0,0.0,40.063812166700004,-88.2001406667,0.0,0.0,0.0,0.0,0.0,0.0,0.0,0.0,0.0,0.0,0.0,0,0.0,0.43818998340000004,0.5608147383,0.5394783616,90.0,90.0,90.0,89.6997299194,89.3177566528,91.4186019897,44.9079971313,14.3854618073,18.9700012207,0,2,25,1,65,186
74,1530571424087,439087, RC,0,39.9586186,-88.445067899,0,0.0,0.0,0.0,0.0,0.0,0.5553886889999999,0.0,0.0,0.0,0.0,0.0,0.0,0.0,1500,1719,0.0,0.0,40.0638123333,-88.20014833329999,0.0,0.0,0.0,0.0,0.0,0.0,0.0,0.0,0.0,0.0,0.0,0,0.0,0.43818998340000004,0.5593432784000001,0.5514340997,90.0,90.0,90.0,89.6997299194,89.0631027222,91.800567627,44.9079971313,14.3854618073,18.9700012207,0,2,25,1,90,188
75,1530571424137,439137, RC,0,39.9586186,-88.445067899,0,0.0,0.0,0.0,0.0,0.0,0.5481233001,0.0,0.0,0.0,0.0,0.0,0.0,0.0,1500,1719,0.0,0.0,40.0638123333,-88.20014833329999,0.0,0.0,0.0,0.0,0.0,0.0,0.0,0.0,0.0,0.0,0.0,0,0.0,0.43818998340000004,0.5538252592,0.5424213409,90.0,90.0,90.0,89.5087432861,89.3177566528,91.48226165770001,44.9079971313,14.3854618073,18.9700012207,0,2,25,1,90,191
76,1530571424188,439188, RC,0,39.9586186,-88.445067899,0,0.0,0.0,0.0,0.0,0.0,0.5529975295,0.0,0.0,0.0,0.0,0.0,0.0,0.0,1500,1719,0.0,0.0,40.0638123333,-88.20014833329999,0.0,0.0,0.0,0.0,0.0,0.0,0.0,0.0,0.0,0.0,0.0,0,0.0,0.43818998340000004,0.5622861981,0.5437088609,90.0,90.0,90.0,90.5273361206,90.4636688232,88.0445098877,44.9079971313,14.3854618073,18.9700012207,0,2,25,1,120,194
77,1530571424238,439238, RC,0,39.9586186,-88.445067899,0,0.0,0.0,0.0,0.0,0.0,0.5522618294,0.0,0.0,0.0,0.0,0.0,0.0,0.0,1500,1719,0.0,0.0,40.0638123333,-88.20014833329999,0.0,0.0,0.0,0.0,0.0,0.0,0.0,0.0,0.0,0.0,0.0,0,0.0,0.43818998340000004,0.5617344379,0.5427891612,90.0,90.0,90.0,90.7819747925,90.5909881592,88.0445098877,44.9079971313,14.3854618073,18.9700012207,0,2,25,1,192,196
78,1530571424289,439289, RC,0,39.9586186,-88.445067899,0,0.0,0.0,0.0,0.0,0.0,0.5593432188,0.0,0.0,0.0,0.0,0.0,0.0,0.0,1500,1719,0.0,0.0,40.0638123333,-88.20014833329999,0.0,0.0,0.0,0.0,0.0,0.0,0.0,0.0,0.0,0.0,0.0,0,0.0,0.43818998340000004,0.5663327575,0.5523537397,90.0,90.0,90.0,88.8084564209,89.82704925540001,88.36282348629999,44.9079971313,14.3854618073,18.9700012207,0,2,25,1,42,199
79,1530571424339,439339, RC,0,39.9586186,-88.445067899,0,0.0,0.0,0.0,0.0,0.0,0.5598030686,0.0,0.0,0.0,0.0,0.0,0.0,0.0,1500,1719,0.0,0.0,40.0638123333,-88.20014833329999,0.0,0.0,0.0,0.0,0.0,0.0,0.0,0.0,0.0,0.0,0.0,0,0.0,0.43818998340000004,0.563757658,0.554377079,90.0,90.0,90.0,87.7898712158,88.9994430542,89.12677001950001,44.9079971313,14.3854618073,18.9700012207,0,2,25,1,34,201
80,1530571424390,439390, RC,0,39.9586186,-88.445067899,0,0.0,0.0,0.0,0.0,0.0,0.5503305197,0.0,0.0,0.0,0.0,0.0,0.0,0.0,1500,1719,0.0,0.0,40.0638123333,-88.20014833329999,0.0,0.0,0.0,0.0,0.0,0.0,0.0,0.0,0.0,0.0,0.0,0,0.0,0.43818998340000004,0.5567681789,0.5438928008,90.0,90.0,90.0,89.82704925540001,88.681137085,89.6997299194,44.9079971313,14.3854618073,18.9700012207,0,2,25,1,24,203
81,1530571424441,439441, RC,0,39.9586186,-88.445067899,0,0.0,0.0,0.0,0.0,0.0,0.5491349697,0.0,0.0,0.0,0.0,0.0,0.0,0.0,1500,1725,0.0,0.0,40.0638123333,-88.20014833329999,0.0,0.0,0.0,0.0,0.0,0.0,0.0,0.0,0.0,0.0,0.0,0,0.0,0.45053303240000003,0.5503305197,0.5479393601,90.0,90.0,90.0,91.3549346924,89.7633895874,89.44507598879999,44.9079971313,14.3854618073,18.9700012207,0,2,25,1,18,206
82,1530571424491,439491, RC,0,39.9586186,-88.445067899,0,0.0,0.0,0.0,0.0,0.0,0.5502384901,0.0,0.0,0.0,0.0,0.0,0.0,0.0,1500,1725,0.0,0.0,40.0638123333,-88.20014833329999,0.0,0.0,0.0,0.0,0.0,0.0,0.0,0.0,0.0,0.0,0.0,0,0.0,0.45053303240000003,0.5484911799000001,0.5519858599,90.0,90.0,90.0,90.7819747925,89.82704925540001,89.25408935549999,44.9079971313,14.3854618073,18.9700012207,0,2,25,1,46,208
83,1530571424542,439542, RC,0,39.9586186,-88.445067899,0,0.0,0.0,0.0,0.0,0.0,0.5519858599,0.0,0.0,0.0,0.0,0.0,0.0,0.0,1500,1725,0.0,0.0,40.0638123333,-88.20014833329999,0.0,0.0,0.0,0.0,0.0,0.0,0.0,0.0,0.0,0.0,0.0,0,0.0,0.45053303240000003,0.5427891612,0.5611826181,90.0,90.0,90.0,90.4636688232,89.82704925540001,89.3177566528,44.9079971313,14.3854618073,18.9700012207,0,2,25,1,31,211
84,1530571424592,439592, RC,0,39.9586186,-88.445067899,0,0.0,0.0,0.0,0.0,0.0,0.557595849,0.0,0.0,0.0,0.0,0.0,0.0,0.0,1500,1725,0.0,0.0,40.0638123333,-88.20014833329999,0.0,0.0,0.0,0.0,0.0,0.0,0.0,0.0,0.0,0.0,0.0,0,0.0,0.45053303240000003,0.54941082,0.5657809377,90.0,90.0,90.0,89.6997299194,90.145362854,88.681137085,44.9079971313,14.390953064000001,14.170000076300001,0,2,25,1,46,214
85,1530571424643,439643, RC,0,39.9586186,-88.445067899,0,0.0,0.0,0.0,0.0,0.0,0.5593432784000001,0.0,0.0,0.0,0.0,0.0,0.0,0.0,1500,1725,0.0,0.0,40.0638123333,-88.20014833329999,0.0,0.0,0.0,0.0,0.0,0.0,0.0,0.0,0.0,0.0,0.0,0,0.0,0.45053303240000003,0.5538252592,0.5648612976,90.0,90.0,90.0,89.82704925540001,91.4186019897,88.1081771851,44.9079971313,14.390953064000001,14.170000076300001,0,2,25,1,44,216
86,1530571424694,439694, RC,0,39.9586186,-88.445067899,0,0.0,0.0,0.0,0.0,0.0,0.5505144596,0.0,0.0,0.0,0.0,0.0,0.0,0.0,1500,1725,0.0,0.0,40.0638123333,-88.20014833329999,0.0,0.0,0.0,0.0,0.0,0.0,0.0,0.0,0.0,0.0,0.0,0,0.0,0.45053303240000003,0.5385587215,0.5624701381,90.0,90.0,90.0,90.0816955566,91.6095809937,88.681137085,44.9079971313,14.390953064000001,14.170000076300001,0,2,25,1,49,219
87,1530571424744,439744, RC,0,39.9586186,-88.445067899,0,0.0,0.0,0.0,0.0,0.0,0.5428811311999999,0.0,0.0,0.0,0.0,0.0,0.0,0.0,1500,1725,0.0,0.0,40.0638123333,-88.20014833329999,0.0,0.0,0.0,0.0,0.0,0.0,0.0,0.0,0.0,0.0,0.0,0,0.0,0.45053303240000003,0.5433409810000001,0.5424213409,90.0,90.0,90.0,89.8907089233,89.9543762207,89.25408935549999,44.9079971313,14.390953064000001,14.170000076300001,0,2,25,1,28,221
88,1530571424795,439795, RC,0,39.9586186,-88.445067899,0,0.0,0.0,0.0,0.0,0.0,0.5426972508,0.0,0.0,0.0,0.0,0.0,0.0,0.0,1500,1725,0.0,0.0,40.0638123333,-88.20014833329999,0.0,0.0,0.0,0.0,0.0,0.0,0.0,0.0,0.0,0.0,0.0,0,0.0,0.45053303240000003,0.5438928008,0.5415017009,90.0,90.0,90.0,89.5724029541,89.63606262209998,90.7183227539,44.9079971313,14.390953064000001,14.170000076300001,0,2,25,1,106,224
89,1530571424845,439845, RC,0,39.9586186,-88.445067899,0,0.0,0.0,0.0,0.0,0.0,0.534972012,0.0,0.0,0.0,0.0,0.0,0.0,0.0,1500,1725,0.0,0.0,40.0638123333,-88.20014833329999,0.0,0.0,0.0,0.0,0.0,0.0,0.0,0.0,0.0,0.0,0.0,0,0.0,0.45053303240000003,0.5473875403,0.5225564837,90.0,90.0,90.0,90.2726821899,89.5087432861,90.7183227539,44.9079971313,14.390953064000001,14.170000076300001,0,2,25,1,59,226
90,1530571424896,439896, RC,0,39.9586186,-88.445067899,0,0.0,0.0,0.0,0.0,0.0,0.5352479218999999,0.0,0.0,0.0,0.0,0.0,0.0,0.0,1500,1725,0.0,0.0,40.0638123333,-88.20014833329999,0.0,0.0,0.0,0.0,0.0,0.0,0.0,0.0,0.0,0.0,0.0,0,0.0,0.45053303240000003,0.5519858599,0.5185099244,90.0,90.0,90.0,90.5273361206,89.9543762207,90.6546554565,44.9079971313,14.390953064000001,14.170000076300001,0,2,25,1,123,229
91,1530571424946,439946, RC,0,39.9586186,-88.445067899,0,0.0,0.0,0.0,0.0,0.0,0.5331326722999999,0.0,0.0,0.0,0.0,0.0,0.0,0.0,1500,1725,0.0,0.0,40.0638123333,-88.20014833329999,0.0,0.0,0.0,0.0,0.0,0.0,0.0,0.0,0.0,0.0,0.0,0,0.0,0.45053303240000003,0.5451803803,0.5210850239,90.0,90.0,90.0,91.48226165770001,90.20902252200001,90.145362854,44.9079971313,14.390953064000001,14.170000076300001,0,2,25,1,139,231
92,1530571424997,439997, RC,0,39.9586186,-88.445067899,0,0.0,0.0,0.0,0.0,0.0,0.5324889421,0.0,0.0,0.0,0.0,0.0,0.0,0.0,1500,1725,0.0,0.0,40.0638123333,-88.20014833329999,0.0,0.0,0.0,0.0,0.0,0.0,0.0,0.0,0.0,0.0,0.0,0,0.0,0.45053303240000003,0.5464679003,0.5185099244,90.0,90.0,90.0,91.0366287231,91.10028839110001,89.3177566528,44.9079971313,14.390953064000001,14.170000076300001,0,2,25,1,113,234
93,1530571425048,440048, RC,0,39.9586186,-88.445067899,0,0.0,0.0,0.0,0.0,0.0,0.5249475836999999,0.0,0.0,0.0,0.0,0.0,0.0,0.0,1500,1725,0.0,0.0,40.0638123333,-88.20014833329999,0.0,0.0,0.0,0.0,0.0,0.0,0.0,0.0,0.0,0.0,0.0,0,0.0,0.45053303240000003,0.5324888825,0.5174062848,90.0,90.0,90.0,90.145362854,91.8642349243,88.235496521,44.9079971313,14.390953064000001,14.170000076300001,0,2,25,1,107,236
94,1530571425098,440098, RC,0,39.9586186,-88.445067899,0,0.0,0.0,0.0,0.0,0.0,0.5212689638,0.0,0.0,0.0,0.0,0.0,0.0,0.0,1500,1725,0.0,0.0,40.0638131667,-88.2001543333,0.0,0.0,0.0,0.0,0.0,0.0,0.0,0.0,0.0,0.0,0.0,0,0.0,0.45053303240000003,0.5372712016,0.5052666664,90.0,90.0,90.0,88.2991638184,90.40000915530001,88.4901504517,44.9079971313,14.390953064000001,14.170000076300001,0,2,25,1,93,239
95,1530571425149,440149, RC,0,39.9586186,-88.445067899,0,0.0,0.0,0.0,0.0,0.0,0.5201653242000001,0.0,0.0,0.0,0.0,0.0,0.0,0.0,1500,1725,0.0,0.0,40.0638131667,-88.2001543333,0.0,0.0,0.0,0.0,0.0,0.0,0.0,0.0,0.0,0.0,0.0,0,0.0,0.45053303240000003,0.5319371223,0.5083935857,90.0,90.0,90.0,88.74479675290002,90.3363494873,88.235496521,44.9079971313,14.390953064000001,14.170000076300001,0,2,25,1,114,241
96,1530571425199,440199, RC,0,39.9586186,-88.445067899,0,0.0,0.0,0.0,0.0,0.0,0.5091292857999999,0.0,0.0,0.0,0.0,0.0,0.0,0.0,1500,1725,0.0,0.0,40.0638131667,-88.2001543333,0.0,0.0,0.0,0.0,0.0,0.0,0.0,0.0,0.0,0.0,0.0,0,0.0,0.45053303240000003,0.5315692425,0.48668932909999996,90.0,90.0,90.0,91.67324829100001,90.4636688232,88.235496521,44.9079971313,14.390953064000001,14.170000076300001,0,2,25,1,100,244
97,1530571425250,440250, RC,0,39.9586186,-88.445067899,0,0.0,0.0,0.0,0.0,0.0,0.5201653242000001,0.0,0.0,0.0,0.0,0.0,0.0,0.0,1500,1725,0.0,0.0,40.0638131667,-88.2001543333,0.0,0.0,0.0,0.0,0.0,0.0,0.0,0.0,0.0,0.0,0.0,0,0.0,0.45053303240000003,0.5391104817,0.5012201071,90.0,90.0,90.0,90.6546554565,90.5909881592,89.7633895874,44.9079971313,14.390953064000001,14.170000076300001,0,2,25,1,159,246
98,1530571425300,440300, RC,0,39.9586186,-88.445067899,0,0.0,0.0,0.0,0.0,0.0,0.5151071548,0.0,0.0,0.0,0.0,0.0,0.0,0.0,1500,1725,0.0,0.0,40.0638131667,-88.2001543333,0.0,0.0,0.0,0.0,0.0,0.0,0.0,0.0,0.0,0.0,0.0,0,0.0,0.45053303240000003,0.5398462414999999,0.49036803840000004,90.0,90.0,90.0,90.5909881592,90.9093093872,89.44507598879999,44.9079971313,14.390953064000001,14.170000076300001,0,2,25,1,91,249
99,1530571425351,440351, RC,0,39.9586186,-88.445067899,0,0.0,0.0,0.0,0.0,0.0,0.5189697742,0.0,0.0,0.0,0.0,0.0,0.0,0.0,1500,1725,0.0,0.0,40.0638131667,-88.2001543333,0.0,0.0,0.0,0.0,0.0,0.0,0.0,0.0,0.0,0.0,0.0,0,0.0,0.45053303240000003,0.5415017009,0.4964378476,90.0,90.0,90.0,90.2726821899,91.1639480591,89.5087432861,44.9079971313,14.390953064000001,14.170000076300001,0,2,25,1,72,251
100,1530571425402,440402, RC,0,39.9586186,-88.445067899,0,0.0,0.0,0.0,0.0,0.0,0.5222805738,0.0,0.0,0.0,0.0,0.0,0.0,0.0,1500,1725,0.0,0.0,40.0638131667,-88.2001543333,0.0,0.0,0.0,0.0,0.0,0.0,0.0,0.0,0.0,0.0,0.0,0,0.0,0.45053303240000003,0.5473875403,0.49717354770000005,90.0,90.0,90.0,90.2726821899,90.01803588870001,89.5087432861,44.9079971313,14.390953064000001,14.170000076300001,0,2,25,1,51,254
101,1530571425452,440452, RC,0,39.9586186,-88.445067899,0,0.0,0.0,0.0,0.0,0.0,0.5252234936,0.0,0.0,0.0,0.0,0.0,0.0,0.0,1500,1725,0.0,0.0,40.0638131667,-88.2001543333,0.0,0.0,0.0,0.0,0.0,0.0,0.0,0.0,0.0,0.0,0.0,0,0.0,0.45053303240000003,0.5457321405,0.5047148466,90.0,90.0,90.0,89.82704925540001,87.7898712158,90.145362854,44.9079971313,14.390953064000001,14.170000076300001,0,2,25,1,46,256
102,1530571425503,440503, RC,0,39.9586186,-88.445067899,0,0.0,0.0,0.0,0.0,0.0,0.520625174,0.0,0.0,0.0,0.0,0.0,0.0,0.0,1500,1725,0.0,0.0,40.0638131667,-88.2001543333,0.0,0.0,0.0,0.0,0.0,0.0,0.0,0.0,0.0,0.0,0.0,0,0.0,0.45053303240000003,0.5444446206,0.4968057275,90.0,90.0,90.0,89.3814163208,87.5988845825,90.7819747925,44.9079971313,14.390953064000001,14.170000076300001,0,2,25,1,75,259
103,1530571425553,440553, RC,0,39.9586186,-88.445067899,0,0.0,0.0,0.0,0.0,0.0,0.5276146531,0.0,0.0,0.0,0.0,0.0,0.0,0.0,1500,1725,0.0,0.0,40.0638131667,-88.2001543333,0.0,0.0,0.0,0.0,0.0,0.0,0.0,0.0,0.0,0.0,0.0,0,0.0,0.45053303240000003,0.5514340997,0.5037952065,90.0,90.0,90.0,89.1904296875,90.3363494873,90.40000915530001,44.9079971313,14.376765251199998,5.7100000381,0,2,25,1,65,261
104,1530571425604,440604, RC,0,39.9586186,-88.445067899,0,0.0,0.0,0.0,0.0,0.0,0.5321210623,0.0,0.0,0.0,0.0,0.0,0.0,0.0,1500,1725,0.0,0.0,40.0638131667,-88.2001543333,0.0,0.0,0.0,0.0,0.0,0.0,0.0,0.0,0.0,0.0,0.0,0,0.0,0.45053303240000003,0.5560324192,0.5082096457,90.0,90.0,90.0,88.9994430542,90.9729614258,89.9543762207,44.9079971313,14.376765251199998,5.7100000381,0,2,25,1,73,264
105,1530571425654,440654, RC,0,39.9586186,-88.445067899,0,0.0,0.0,0.0,0.0,0.0,0.5300058126,0.0,0.0,0.0,0.0,0.0,0.0,0.0,1500,1725,0.0,0.0,40.0638131667,-88.2001543333,0.0,0.0,0.0,0.0,0.0,0.0,0.0,0.0,0.0,0.0,0.0,0,0.0,0.45053303240000003,0.5538252592,0.5061863661,90.0,90.0,90.0,88.681137085,90.3363494873,89.7633895874,44.9079971313,14.376765251199998,5.7100000381,0,2,25,1,80,266
106,1530571425705,440705, RC,0,39.9586186,-88.445067899,0,0.0,0.0,0.0,0.0,0.0,0.5253154635,0.0,0.0,0.0,0.0,0.0,0.0,0.0,1500,1725,0.0,0.0,40.0638131667,-88.2001543333,0.0,0.0,0.0,0.0,0.0,0.0,0.0,0.0,0.0,0.0,0.0,0,0.0,0.45053303240000003,0.5575039386999999,0.4931270182,90.0,90.0,90.0,89.9543762207,89.8907089233,89.5724029541,44.9079971313,14.376765251199998,5.7100000381,0,2,25,1,88,269
107,1530571425755,440755, RC,0,39.9586186,-88.445067899,0,0.0,0.0,0.0,0.0,0.0,0.5361676216,0.0,0.0,0.0,0.0,0.0,0.0,0.0,1500,1725,0.0,0.0,40.0638131667,-88.2001543333,0.0,0.0,0.0,0.0,0.0,0.0,0.0,0.0,0.0,0.0,0.0,0,0.0,0.45053303240000003,0.5635737777000001,0.5087614059000001,90.0,90.0,90.0,91.2276153564,90.5273361206,89.3177566528,44.9079971313,14.376765251199998,5.7100000381,0,2,25,1,91,271
108,1530571425806,440806, RC,0,39.9586186,-88.445067899,0,0.0,0.0,0.0,0.0,0.0,0.5270628333,0.0,0.0,0.0,0.0,0.0,0.0,0.0,1500,1725,0.0,0.0,40.0638131667,-88.2001543333,0.0,0.0,0.0,0.0,0.0,0.0,0.0,0.0,0.0,0.0,0.0,0,0.0,0.45053303240000003,0.5562163591,0.4979093075,90.0,90.0,90.0,91.10028839110001,90.3363494873,89.3814163208,44.9079971313,14.376765251199998,5.7100000381,0,2,25,1,66,274
109,1530571425857,440857, RC,0,39.9586186,-88.445067899,0,0.0,0.0,0.0,0.0,0.0,0.5305576324,0.0,0.0,0.0,0.0,0.0,0.0,0.0,1500,1725,0.0,0.0,40.0638131667,-88.2001543333,0.0,0.0,0.0,0.0,0.0,0.0,0.0,0.0,0.0,0.0,0.0,0,0.0,0.45053303240000003,0.5593432784000001,0.5017719268999999,90.0,90.0,90.0,90.3363494873,90.0816955566,89.1904296875,44.9079971313,14.376765251199998,5.7100000381,0,2,25,1,80,276
110,1530571425907,440907, RC,0,39.9586186,-88.445067899,0,0.0,0.0,0.0,0.0,0.0,0.5295459628,0.0,0.0,0.0,0.0,0.0,0.0,0.0,1500,1725,0.0,0.0,40.0638131667,-88.2001543333,0.0,0.0,0.0,0.0,0.0,0.0,0.0,0.0,0.0,0.0,0.0,0,0.0,0.45053303240000003,0.5532734394,0.5058184862,90.0,90.0,90.0,88.9994430542,89.8907089233,89.0631027222,44.9079971313,14.376765251199998,5.7100000381,0,2,25,1,67,279
111,1530571425958,440958, RC,0,39.9586186,-88.445067899,0,0.0,0.0,0.0,0.0,0.0,0.5270628333,0.0,0.0,0.0,0.0,0.0,0.0,0.0,1500,1725,0.0,0.0,40.0638131667,-88.2001543333,0.0,0.0,0.0,0.0,0.0,0.0,0.0,0.0,0.0,0.0,0.0,0,0.0,0.45053303240000003,0.5564002991,0.4977253675,90.0,90.0,90.0,89.82704925540001,90.6546554565,88.681137085,44.9079971313,14.376765251199998,5.7100000381,0,2,25,1,26,281
112,1530571426008,441008, RC,0,39.9586186,-88.445067899,0,0.0,0.0,0.0,0.0,0.0,0.5223725438,0.0,0.0,0.0,0.0,0.0,0.0,0.0,1500,1725,0.0,0.0,40.0638131667,-88.2001543333,0.0,0.0,0.0,0.0,0.0,0.0,0.0,0.0,0.0,0.0,0.0,0,0.0,0.45053303240000003,0.5462839603,0.4984611273,90.0,90.0,90.0,90.4636688232,90.7819747925,88.4901504517,44.9079971313,14.376765251199998,5.7100000381,0,2,25,1,51,284
113,1530571426059,441059, RC,0,39.9586186,-88.445067899,0,0.0,0.0,0.0,0.0,0.0,0.5240279436,0.0,0.0,0.0,0.0,0.0,0.0,0.0,1500,1725,0.0,0.0,40.0638131667,-88.2001543333,0.0,0.0,0.0,0.0,0.0,0.0,0.0,0.0,0.0,0.0,0.0,0,0.0,0.45053303240000003,0.5506983995,0.49735748770000004,90.0,90.0,90.0,90.8456420898,90.7183227539,88.9994430542,44.9079971313,14.376765251199998,5.7100000381,0,2,25,1,76,286
114,1530571426109,441109, RC,0,39.9586186,-88.445067899,0,0.0,0.0,0.0,0.0,0.0,0.5245797038000001,0.0,0.0,0.0,0.0,0.0,0.0,0.0,1500,1725,0.0,0.0,40.0638115,-88.2001623333,0.0,0.0,0.0,0.0,0.0,0.0,0.0,0.0,0.0,0.0,0.0,0,0.0,0.45053303240000003,0.5595271587,0.4896322787,90.0,90.0,90.0,91.67324829100001,89.82704925540001,89.6997299194,44.9079971313,14.376765251199998,5.7100000381,0,2,25,1,51,289
115,1530571426160,441160, RC,0,39.9586186,-88.445067899,0,0.0,0.0,0.0,0.0,0.0,0.5204412341,0.0,0.0,0.0,0.0,0.0,0.0,0.0,1500,1725,0.0,0.0,40.0638115,-88.2001623333,0.0,0.0,0.0,0.0,0.0,0.0,0.0,0.0,0.0,0.0,0.0,0,0.0,0.45053303240000003,0.5573199986999999,0.48356246950000004,90.0,90.0,90.0,92.0552215576,89.25408935549999,90.40000915530001,44.9079971313,14.376765251199998,5.7100000381,0,2,25,1,88,291
116,1530571426211,441211, RC,0,39.9586186,-88.445067899,0,0.0,0.0,0.0,0.0,0.0,0.5118882656,0.0,0.0,0.0,0.0,0.0,0.0,0.0,1500,1725,0.0,0.0,40.0638115,-88.2001623333,0.0,0.0,0.0,0.0,0.0,0.0,0.0,0.0,0.0,0.0,0.0,0,0.0,0.45053303240000003,0.5521697997999999,0.47160676119999995,90.0,90.0,90.0,90.2726821899,87.5352172852,91.6095809937,44.9079971313,14.376765251199998,5.7100000381,0,2,25,1,59,294
117,1530571426261,441261, RC,0,39.9586186,-88.445067899,0,0.0,0.0,0.0,0.0,0.0,0.5142794251,0.0,0.0,0.0,0.0,0.0,0.0,0.0,1500,1725,0.0,0.0,40.0638115,-88.2001623333,0.0,0.0,0.0,0.0,0.0,0.0,0.0,0.0,0.0,0.0,0.0,0,0.0,0.45053303240000003,0.5541931391,0.474365741,90.0,90.0,90.0,88.74479675290002,89.0631027222,91.1639480591,44.9079971313,14.376765251199998,5.7100000381,0,2,25,1,68,296
118,1530571426312,441312, RC,0,39.9586186,-88.445067899,0,0.0,0.0,0.0,0.0,0.0,0.5079337358,0.0,0.0,0.0,0.0,0.0,0.0,0.0,1500,1725,0.0,0.0,40.0638115,-88.2001623333,0.0,0.0,0.0,0.0,0.0,0.0,0.0,0.0,0.0,0.0,0.0,0,0.0,0.45053303240000003,0.5455482006,0.4703192115,90.0,90.0,90.0,90.145362854,90.5273361206,89.8907089233,44.9079971313,14.376765251199998,5.7100000381,0,2,25,1,90,299
119,1530571426362,441362, RC,0,39.9586186,-88.445067899,0,0.0,0.0,0.0,0.0,0.0,0.506278336,0.0,0.0,0.0,0.0,0.0,0.0,0.0,1500,1725,0.0,0.0,40.0638115,-88.2001623333,0.0,0.0,0.0,0.0,0.0,0.0,0.0,0.0,0.0,0.0,0.0,0,0.0,0.45053303240000003,0.5453643203,0.4671923518,90.0,90.0,90.0,91.2276153564,90.6546554565,88.9994430542,44.9079971313,14.376765251199998,5.7100000381,0,2,25,1,108,302
120,1530571426413,441413, RC,0,39.9586186,-88.445067899,0,0.0,0.0,0.0,0.0,0.0,0.5078417659000001,0.0,0.0,0.0,0.0,0.0,0.0,0.0,1500,1725,0.0,0.0,40.0638115,-88.2001623333,0.0,0.0,0.0,0.0,0.0,0.0,0.0,0.0,0.0,0.0,0.0,0,0.0,0.45053303240000003,0.5409498811,0.47473362090000004,90.0,90.0,90.0,91.0366287231,90.0816955566,88.74479675290002,44.9079971313,14.376765251199998,5.7100000381,0,2,25,1,72,304
121,1530571426463,441463, RC,0,39.9586186,-88.445067899,0,0.0,0.0,0.0,0.0,0.0,0.5138195753,0.0,0.0,0.0,0.0,0.0,0.0,0.0,1500,1725,0.0,0.0,40.0638115,-88.2001623333,0.0,0.0,0.0,0.0,0.0,0.0,0.0,0.0,0.0,0.0,0.0,0,0.0,0.45053303240000003,0.5440767407,0.48356246950000004,90.0,90.0,90.0,89.6997299194,90.01803588870001,88.681137085,44.9079971313,14.376765251199998,5.7100000381,0,2,25,1,121,307
122,1530571426514,441514, RC,0,39.9586186,-88.445067899,0,0.0,0.0,0.0,0.0,0.0,0.5215448141,0.0,0.0,0.0,0.0,0.0,0.0,0.0,1500,1725,0.0,0.0,40.0638115,-88.2001623333,0.0,0.0,0.0,0.0,0.0,0.0,0.0,0.0,0.0,0.0,0.0,0,0.0,0.45053303240000003,0.5573199986999999,0.4857696593,90.0,90.0,90.0,89.9543762207,90.01803588870001,88.93578338620001,44.9079971313,14.376765251199998,5.7100000381,0,2,25,1,117,309
123,1530571426564,441564, RC,0,39.9586186,-88.445067899,0,0.0,0.0,0.0,0.0,0.0,0.5209929943,0.0,0.0,0.0,0.0,0.0,0.0,0.0,1500,1725,0.0,0.0,40.0638115,-88.2001623333,0.0,0.0,0.0,0.0,0.0,0.0,0.0,0.0,0.0,0.0,0.0,0,0.0,0.45053303240000003,0.5573199986999999,0.48466604950000003,90.0,90.0,90.0,89.8907089233,89.82704925540001,89.12677001950001,44.9079971313,14.3665180206,7.1399998665,0,2,25,1,107,312
124,1530571426615,441615, RC,0,39.9586186,-88.445067899,0,0.0,0.0,0.0,0.0,0.0,0.5251315236,0.0,0.0,0.0,0.0,0.0,0.0,0.0,1500,1725,0.0,0.0,40.0638115,-88.2001623333,0.0,0.0,0.0,0.0,0.0,0.0,0.0,0.0,0.0,0.0,0.0,0,0.0,0.45053303240000003,0.5562163591,0.4940466881,90.0,90.0,90.0,90.3363494873,89.0631027222,89.82704925540001,44.9079971313,14.3665180206,7.1399998665,0,2,25,1,83,314
125,1530571426666,441666, RC,0,39.9586186,-88.445067899,0,0.0,0.0,0.0,0.0,0.0,0.5328568220000001,0.0,0.0,0.0,0.0,0.0,0.0,0.0,1500,1725,0.0,0.0,40.0638115,-88.2001623333,0.0,0.0,0.0,0.0,0.0,0.0,0.0,0.0,0.0,0.0,0.0,0,0.0,0.45053303240000003,0.5540091991,0.5117043853000001,90.0,90.0,90.0,89.8907089233,89.8907089233,89.5724029541,44.9079971313,14.3665180206,7.1399998665,0,2,25,1,70,316
126,1530571426716,441716, RC,0,39.9586186,-88.445067899,0,0.0,0.0,0.0,0.0,0.0,0.5291780829,0.0,0.0,0.0,0.0,0.0,0.0,0.0,1500,1725,0.0,0.0,40.0638115,-88.2001623333,0.0,0.0,0.0,0.0,0.0,0.0,0.0,0.0,0.0,0.0,0.0,0,0.0,0.45053303240000003,0.5525376797,0.5058184862,90.0,90.0,90.0,88.9994430542,90.3363494873,88.93578338620001,44.9079971313,14.3665180206,7.1399998665,0,2,25,1,82,318
127,1530571426767,441767, RC,0,39.9586186,-88.445067899,0,0.0,0.0,0.0,0.0,0.0,0.5293620229,0.0,0.0,0.0,0.0,0.0,0.0,0.0,1500,1725,0.0,0.0,40.0638115,-88.2001623333,0.0,0.0,0.0,0.0,0.0,0.0,0.0,0.0,0.0,0.0,0.0,0,0.0,0.45053303240000003,0.5538252592,0.5048987865,90.0,90.0,90.0,89.6997299194,90.5273361206,88.8721160889,44.9079971313,14.3665180206,7.1399998665,0,2,25,1,116,320
128,1530571426817,441817, RC,0,39.9586186,-88.445067899,0,0.0,0.0,0.0,0.0,0.0,0.5332245827000001,0.0,0.0,0.0,0.0,0.0,0.0,0.0,1500,1725,0.0,0.0,40.0638115,-88.2001623333,0.0,0.0,0.0,0.0,0.0,0.0,0.0,0.0,0.0,0.0,0.0,0,0.0,0.45053303240000003,0.5398462414999999,0.5266029835,90.0,90.0,90.0,90.145362854,89.3814163208,89.5087432861,44.9079971313,14.3665180206,7.1399998665,0,2,25,1,71,322
129,1530571426868,441868, RC,0,39.9586186,-88.445067899,0,0.0,0.0,0.0,0.0,0.0,0.5357997417,0.0,0.0,0.0,0.0,0.0,0.0,0.0,1500,1725,0.0,0.0,40.0638115,-88.2001623333,0.0,0.0,0.0,0.0,0.0,0.0,0.0,0.0,0.0,0.0,0.0,0,0.0,0.45053303240000003,0.5444446206,0.5271548033,90.0,90.0,90.0,89.8907089233,88.8721160889,90.145362854,44.9079971313,14.3665180206,7.1399998665,0,2,25,1,47,324
130,1530571426919,441919, RC,0,39.9586186,-88.445067899,0,0.0,0.0,0.0,0.0,0.0,0.5401221514,0.0,0.0,0.0,0.0,0.0,0.0,0.0,1500,1725,0.0,0.0,40.0638115,-88.2001623333,0.0,0.0,0.0,0.0,0.0,0.0,0.0,0.0,0.0,0.0,0.0,0,0.0,0.45053303240000003,0.5523537397,0.5278905629999999,90.0,90.0,90.0,89.5724029541,89.12677001950001,90.01803588870001,45.9840011597,14.3665180206,7.1399998665,0,2,25,1,72,326
131,1530571426969,441969, RC,0,39.9586186,-88.445067899,0,0.0,0.0,0.0,0.0,0.0,0.5509742498,0.0,0.0,0.0,0.0,0.0,0.0,0.0,1500,1725,0.0,0.0,40.0638115,-88.2001623333,0.0,0.0,0.0,0.0,0.0,0.0,0.0,0.0,0.0,0.0,0.0,0,0.0,0.45053303240000003,0.5518019795,0.5501465797,90.0,90.0,90.0,90.01803588870001,90.8456420898,89.5087432861,45.9840011597,14.3665180206,7.1399998665,0,2,25,1,82,328
132,1530571427020,442020, RC,0,39.9586186,-88.445067899,0,0.0,0.0,0.0,0.0,0.0,0.5518019795,0.0,0.0,0.0,0.0,0.0,0.0,0.0,1500,1725,0.0,0.0,40.0638115,-88.2001623333,0.0,0.0,0.0,0.0,0.0,0.0,0.0,0.0,0.0,0.0,0.0,0,0.0,0.45053303240000003,0.5576878786,0.5459160805,90.0,90.0,90.0,90.2726821899,90.5273361206,89.6997299194,45.9840011597,14.3665180206,7.1399998665,0,2,25,1,91,329
133,1530571427070,442070, RC,0,39.9586186,-88.445067899,0,0.0,0.0,0.0,0.0,0.0,0.5508822799,0.0,0.0,0.0,0.0,0.0,0.0,0.0,1476,1725,0.0,0.0,40.063811,-88.20016916670001,0.0,0.0,0.0,0.0,0.0,0.0,0.0,0.0,0.0,0.0,0.0,0,-0.0465040207,0.45053303240000003,0.5562163591,0.5455482006,90.0,90.0,90.0,89.9543762207,88.55381011959999,90.7183227539,45.9840011597,14.3665180206,7.1399998665,0,2,25,1,120,331
134,1530571427121,442121, RC,0,39.9586186,-88.445067899,0,0.0,0.0,0.0,0.0,0.0,0.519705534,0.0,0.0,0.0,0.0,0.0,0.0,0.0,1476,1725,0.0,0.0,40.063811,-88.20016916670001,0.0,0.0,0.0,0.0,0.0,0.0,0.0,0.0,0.0,0.0,0.0,0,-0.0465040207,0.45053303240000003,0.5254994631000001,0.5139115453,90.0,90.0,90.0,90.0816955566,89.25408935549999,90.7183227539,45.9840011597,14.3665180206,7.1399998665,0,2,25,1,79,333
135,1530571427172,442172, RC,0,39.9586186,-88.445067899,0,0.0,0.0,0.0,0.0,0.0,0.5262351632,0.0,0.0,0.0,0.0,0.0,0.0,0.0,1442,1725,0.0,0.0,40.063811,-88.20016916670001,0.0,0.0,0.0,0.0,0.0,0.0,0.0,0.0,0.0,0.0,0.0,0,-0.1144409776,0.45053303240000003,0.5209010839,0.5315692425,90.0,90.0,90.0,91.29127502440001,90.8456420898,89.6997299194,45.9840011597,14.3665180206,7.1399998665,0,2,25,1,69,335
136,1530571427222,442222, RC,0,39.9586186,-88.445067899,0,0.0,0.0,0.0,0.0,0.0,0.5118882656,0.0,0.0,0.0,0.0,0.0,0.0,0.0,1442,1725,0.0,0.0,40.063811,-88.20016916670001,0.0,0.0,0.0,0.0,0.0,0.0,0.0,0.0,0.0,0.0,0.0,0,-0.1144409776,0.45053303240000003,0.5050827265,0.5186938643,90.0,90.0,90.0,90.20902252200001,91.5459213257,88.93578338620001,45.9840011597,14.3665180206,7.1399998665,0,2,25,1,87,337
137,1530571427273,442273, RC,0,39.9586186,-88.445067899,0,0.0,0.0,0.0,0.0,0.0,0.5194295645,0.0,0.0,0.0,0.0,0.0,0.0,0.0,1422,1725,0.0,0.0,40.063811,-88.20016916670001,0.0,0.0,0.0,0.0,0.0,0.0,0.0,0.0,0.0,0.0,0.0,0,-0.15410298109999998,0.45053303240000003,0.4938627481,0.5449964404,90.0,90.0,90.0,87.9171905518,90.9093093872,88.4901504517,45.9840011597,14.3665180206,7.1399998665,0,2,25,1,85,339
138,1530571427323,442323, RC,0,39.9586186,-88.445067899,0,0.0,0.0,0.0,0.0,0.0,0.5241199136,0.0,0.0,0.0,0.0,0.0,0.0,0.0,1422,1725,0.0,0.0,40.063811,-88.20016916670001,0.0,0.0,0.0,0.0,0.0,0.0,0.0,0.0,0.0,0.0,0.0,0,-0.15410298109999998,0.45053303240000003,0.4710549414,0.5771848559,90.0,90.0,90.0,88.93578338620001,89.6997299194,88.74479675290002,45.9840011597,14.3665180206,7.1399998665,0,2,25,1,85,340
139,1530571427374,442374, RC,0,39.9586186,-88.445067899,0,0.0,0.0,0.0,0.0,0.0,0.5294539928,0.0,0.0,0.0,0.0,0.0,0.0,0.0,1417,1725,0.0,0.0,40.063811,-88.20016916670001,0.0,0.0,0.0,0.0,0.0,0.0,0.0,0.0,0.0,0.0,0.0,0,-0.1655179858,0.45053303240000003,0.44714352490000003,0.611764431,90.0,90.0,90.0,89.9543762207,88.55381011959999,90.2726821899,45.9840011597,14.3665180206,7.1399998665,0,2,25,1,64,342
140,1530571427424,442424, RC,0,39.9586186,-88.445067899,0,0.0,0.0,0.0,0.0,0.0,0.519521594,0.0,0.0,0.0,0.0,0.0,0.0,0.0,1417,1725,0.0,0.0,40.063811,-88.20016916670001,0.0,0.0,0.0,0.0,0.0,0.0,0.0,0.0,0.0,0.0,0.0,0,-0.1655179858,0.45053303240000003,0.4502704144,0.5887727141,90.0,90.0,90.0,90.2726821899,88.1081771851,91.2276153564,45.9840011597,14.3665180206,7.1399998665,0,2,25,1,58,344
141,1530571427475,442475, RC,0,39.9586186,-88.445067899,0,0.0,0.0,0.0,0.0,0.0,0.4831945896,0.0,0.0,0.0,0.0,0.0,0.0,0.0,1500,1725,0.0,0.0,40.063811,-88.20016916670001,0.0,0.0,0.0,0.0,0.0,0.0,0.0,0.0,0.0,0.0,0.0,0,0.0,0.45053303240000003,0.4322448671,0.5341443418999999,90.0,90.0,90.0,91.3549346924,88.6174697876,92.1825408936,45.9840011597,14.3665180206,7.1399998665,0,2,25,1,96,346
142,1530571427526,442526, RC,0,39.9586186,-88.445067899,0,0.0,0.0,0.0,0.0,0.0,0.487057209,0.0,0.0,0.0,0.0,0.0,0.0,0.0,1500,1725,0.0,0.0,40.063811,-88.20016916670001,0.0,0.0,0.0,0.0,0.0,0.0,0.0,0.0,0.0,0.0,0.0,0,0.0,0.45053303240000003,0.4377629161,0.5363515019,90.0,90.0,90.0,91.9915542603,89.63606262209998,91.3549346924,45.9840011597,14.3665180206,7.1399998665,0,2,25,1,19,348
143,1530571427576,442576, RC,0,39.9586186,-88.445067899,0,0.0,0.0,0.0,0.0,0.0,0.4882527888,0.0,0.0,0.0,0.0,0.0,0.0,0.0,1500,1725,0.0,0.0,40.063811,-88.20016916670001,0.0,0.0,0.0,0.0,0.0,0.0,0.0,0.0,0.0,0.0,0.0,0,0.0,0.45053303240000003,0.45725989340000006,0.5192456840999999,90.0,90.0,90.0,90.20902252200001,90.01803588870001,89.5087432861,45.9840011597,14.3792314529,5.2100000381000005,0,2,25,1,68,350
144,1530571427627,442627, RC,0,39.9586186,-88.445067899,0,0.0,0.0,0.0,0.0,0.0,0.49202340840000003,0.0,0.0,0.0,0.0,0.0,0.0,0.0,1500,1725,0.0,0.0,40.063811,-88.20016916670001,0.0,0.0,0.0,0.0,0.0,0.0,0.0,0.0,0.0,0.0,0.0,0,0.0,0.45053303240000003,0.4618582428,0.5221886039,90.0,90.0,90.0,89.0631027222,90.6546554565,88.6174697876,45.9840011597,14.3792314529,5.2100000381000005,0,2,25,1,80,352
145,1530571427677,442677, RC,0,39.9586186,-88.445067899,0,0.0,0.0,0.0,0.0,0.0,0.4945985079,0.0,0.0,0.0,0.0,0.0,0.0,0.0,1500,1725,0.0,0.0,40.063811,-88.20016916670001,0.0,0.0,0.0,0.0,0.0,0.0,0.0,0.0,0.0,0.0,0.0,0,0.0,0.45053303240000003,0.4831945896,0.5060024261,90.0,90.0,90.0,88.8084564209,91.1639480591,87.9808578491,45.9840011597,14.3792314529,5.2100000381000005,0,2,25,1,86,354
146,1530571427728,442728, RC,0,39.9586186,-88.445067899,0,0.0,0.0,0.0,0.0,0.0,0.4968976974,0.0,0.0,0.0,0.0,0.0,0.0,0.0,1500,1725,0.0,0.0,40.063811,-88.20016916670001,0.0,0.0,0.0,0.0,0.0,0.0,0.0,0.0,0.0,0.0,0.0,0,0.0,0.45053303240000003,0.4953342378,0.4984611273,90.0,90.0,90.0,89.44507598879999,91.10028839110001,87.47155761719999,45.9840011597,14.3792314529,5.2100000381000005,0,2,25,1,102,356
147,1530571427779,442779, RC,0,39.9586186,-88.445067899,0,0.0,0.0,0.0,0.0,0.0,0.4851258993,0.0,0.0,0.0,0.0,0.0,0.0,0.0,1500,1725,0.0,0.0,40.063811,-88.20016916670001,0.0,0.0,0.0,0.0,0.0,0.0,0.0,0.0,0.0,0.0,0.0,0,0.0,0.45053303240000003,0.5039791465,0.4662726521,90.0,90.0,90.0,88.93578338620001,89.25408935549999,88.36282348629999,45.9840011597,14.3792314529,5.2100000381000005,0,2,25,1,85,358
148,1530571427829,442829, RC,0,39.9586186,-88.445067899,0,0.0,0.0,0.0,0.0,0.0,0.4996566772,0.0,0.0,0.0,0.0,0.0,0.0,0.0,1500,1725,0.0,0.0,40.063811,-88.20016916670001,0.0,0.0,0.0,0.0,0.0,0.0,0.0,0.0,0.0,0.0,0.0,0,0.0,0.45053303240000003,0.5205332040999999,0.4787801802,90.0,90.0,90.0,89.9543762207,88.681137085,90.9093093872,45.9840011597,14.3792314529,5.2100000381000005,0,2,25,1,67,360
149,1530571427880,442880, RC,0,39.9586186,-88.445067899,0,0.0,0.0,0.0,0.0,0.0,0.49137964840000004,0.0,0.0,0.0,0.0,0.0,0.0,0.0,1500,1725,0.0,0.0,40.063811,-88.20016916670001,0.0,0.0,0.0,0.0,0.0,0.0,0.0,0.0,0.0,0.0,0.0,0,0.0,0.45053303240000003,0.5304656029,0.45229369399999997,90.0,90.0,90.0,91.0366287231,89.3814163208,91.10028839110001,45.9840011597,14.3792314529,5.2100000381000005,0,2,25,1,109,362
