,(0)linux time (ms),    (1)uptime  (ms),      (2)drive mode,(3)mpc step counter,(4)mpc origin latitude  (deg),(5)mpc origin longitude  (deg),(6)closest trajectory point index to robot,(7)mpc error x (W;E)  (m),(8)mpc error y (W;E)  (m),(9)abs mpc error (m),(10)input [x] for mhe (m),(11)input [y] for mhe (m),(12)input [speed] for mhe (m/s),(13)input [vyaw] for mhe (rad/s),(14)mhe output x  (m),(15)mhe output y  (m),(16)mhe output speed  (m/s),(17)mhe output yaw  (rad),(18)mpc reference heading (rad),(19)mpc turn rate command (rad/s),(20)turn rate command as PWM,(21)throttle command as PWM,(22)primary gps latitude (deg),(23)primary gps longitude (deg),(24)secondary gps latitude  (deg),(25)secondary gps longitude (deg),(26)accelerometer x (m/s^2),(27)accelerometer y (m/s^2),(28)accelerometer z (m/s^2),(29)gyro yaw rate (rad/s),(30)gyro pitch rate   (rad/s),(31)gyro roll rate (rad/s),      (32)yaw (rad),  (33)pitch   (rad),     (34)roll (rad),(35)sonar1 measurement (m),(36)ultrasonic sensor measurement (m),(37)primary gps time (s),(38)normalized turn rate command,(39)normalized throttle command,(40)speed calculation from encoder left (m/s),(41)speed calculation from encoder right (m/s),(42)front gimbal target angle (degrees from straight down),(43)left gimbal target angle  (degrees from straight down),(44)right gimbal target angle  (degrees from straight down),(45)front gimbal measured angle  (degrees from straight down),(46)left gimbal measured angle    (degrees from straight down),(47)right gimbal measured angle  (degrees from straight down),(48)internal temperature (C),(49)battery voltage (V),(50)primary gps type,(51)secondary gps type,    (52)MPC R value, (53)MPC Q[0] value,Unnamed: 54,weed_num,start
0,1530571221807,236807, RC,0,39.9586186,-88.445067899,0,0.0,0.0,0.0,0.0,0.0,0.0,0.0,0.0,0.0,0.0,0.0,0.0,0.0,1500,1500,0.0,0.0,40.0636785,-88.1999173333,0.0,0.0,0.0,0.0,0.0,0.0,0.0,0.0,0.0,0.0,0.0,0,0.0,0.0,0.0,0.0,90.0,90.0,90.0,90.01803588870001,89.8907089233,89.7633895874,44.9079971313,14.427810668900001,3.4600000381,0,2,25,1,94,7460
1,1530571221858,236858, RC,0,39.9586186,-88.445067899,0,0.0,0.0,0.0,0.0,0.0,0.0,0.0,0.0,0.0,0.0,0.0,0.0,0.0,1500,1500,0.0,0.0,40.0636785,-88.1999173333,0.0,0.0,0.0,0.0,0.0,0.0,0.0,0.0,0.0,0.0,0.0,0,0.0,0.0,0.0,0.0,90.0,90.0,90.0,90.01803588870001,89.8907089233,89.7633895874,44.9079971313,14.427810668900001,3.4600000381,0,2,25,1,91,7461
2,1530571221909,236909, RC,0,39.9586186,-88.445067899,0,0.0,0.0,0.0,0.0,0.0,0.0,0.0,0.0,0.0,0.0,0.0,0.0,0.0,1500,1500,0.0,0.0,40.0636785,-88.1999173333,0.0,0.0,0.0,0.0,0.0,0.0,0.0,0.0,0.0,0.0,0.0,0,0.0,0.0,0.0,0.0,90.0,90.0,90.0,90.01803588870001,89.8907089233,89.7633895874,44.9079971313,14.427810668900001,3.4600000381,0,2,25,1,88,7463
3,1530571221959,236959, RC,0,39.9586186,-88.445067899,0,0.0,0.0,0.0,0.0,0.0,0.0,0.0,0.0,0.0,0.0,0.0,0.0,0.0,1500,1500,0.0,0.0,40.0636785,-88.1999173333,0.0,0.0,0.0,0.0,0.0,0.0,0.0,0.0,0.0,0.0,0.0,0,0.0,0.0,0.0,0.0,90.0,90.0,90.0,90.01803588870001,89.8907089233,89.7633895874,44.9079971313,14.427810668900001,3.4600000381,0,2,25,1,92,7465
4,1530571222010,237010, RC,0,39.9586186,-88.445067899,0,0.0,0.0,0.0,0.0,0.0,0.0,0.0,0.0,0.0,0.0,0.0,0.0,0.0,1500,1500,0.0,0.0,40.0636785,-88.1999173333,0.0,0.0,0.0,0.0,0.0,0.0,0.0,0.0,0.0,0.0,0.0,0,0.0,0.0,0.0,0.0,90.0,90.0,90.0,90.01803588870001,89.8907089233,89.7633895874,44.9079971313,14.427810668900001,3.4600000381,0,2,25,1,89,7467
5,1530571222060,237060, RC,0,39.9586186,-88.445067899,0,0.0,0.0,0.0,0.0,0.0,0.0,0.0,0.0,0.0,0.0,0.0,0.0,0.0,1500,1500,0.0,0.0,40.0636771667,-88.1999133333,0.0,0.0,0.0,0.0,0.0,0.0,0.0,0.0,0.0,0.0,0.0,0,0.0,0.0,0.0,0.0,90.0,90.0,90.0,90.01803588870001,89.8907089233,89.7633895874,44.9079971313,14.427810668900001,3.4600000381,0,2,25,1,89,7468
6,1530571222111,237111, RC,0,39.9586186,-88.445067899,0,0.0,0.0,0.0,0.0,0.0,0.0,0.0,0.0,0.0,0.0,0.0,0.0,0.0,1500,1500,0.0,0.0,40.0636771667,-88.1999133333,0.0,0.0,0.0,0.0,0.0,0.0,0.0,0.0,0.0,0.0,0.0,0,0.0,0.0,0.0,0.0,90.0,90.0,90.0,90.01803588870001,89.8907089233,89.5724029541,44.9079971313,14.427810668900001,3.4600000381,0,2,25,1,86,7470
7,1530571222162,237162, RC,0,39.9586186,-88.445067899,0,0.0,0.0,0.0,0.0,0.0,0.0,0.0,0.0,0.0,0.0,0.0,0.0,0.0,1500,1500,0.0,0.0,40.0636771667,-88.1999133333,0.0,0.0,0.0,0.0,0.0,0.0,0.0,0.0,0.0,0.0,0.0,0,0.0,0.0,0.0,0.0,90.0,90.0,90.0,90.01803588870001,89.8907089233,89.5724029541,44.9079971313,14.427810668900001,3.4600000381,0,2,25,1,94,7472
8,1530571222212,237212, RC,0,39.9586186,-88.445067899,0,0.0,0.0,0.0,0.0,0.0,0.0,0.0,0.0,0.0,0.0,0.0,0.0,0.0,1500,1500,0.0,0.0,40.0636771667,-88.1999133333,0.0,0.0,0.0,0.0,0.0,0.0,0.0,0.0,0.0,0.0,0.0,0,0.0,0.0,0.0,0.0,90.0,90.0,90.0,90.01803588870001,89.8907089233,89.5724029541,44.9079971313,14.427810668900001,3.4600000381,0,2,25,1,98,7473
9,1530571222263,237263, RC,0,39.9586186,-88.445067899,0,0.0,0.0,0.0,0.0,0.0,0.0,0.0,0.0,0.0,0.0,0.0,0.0,0.0,1500,1500,0.0,0.0,40.0636771667,-88.1999133333,0.0,0.0,0.0,0.0,0.0,0.0,0.0,0.0,0.0,0.0,0.0,0,0.0,0.0,0.0,0.0,90.0,90.0,90.0,90.01803588870001,89.8907089233,89.5724029541,44.9079971313,14.427810668900001,3.4600000381,0,2,25,1,97,7475
10,1530571222313,237313, RC,0,39.9586186,-88.445067899,0,0.0,0.0,0.0,0.0,0.0,0.0,0.0,0.0,0.0,0.0,0.0,0.0,0.0,1500,1500,0.0,0.0,40.0636771667,-88.1999133333,0.0,0.0,0.0,0.0,0.0,0.0,0.0,0.0,0.0,0.0,0.0,0,0.0,0.0,0.0,0.0,90.0,90.0,90.0,90.01803588870001,89.8907089233,89.5724029541,44.9079971313,14.427810668900001,3.4600000381,0,2,25,1,97,7477
11,1530571222364,237364, RC,0,39.9586186,-88.445067899,0,0.0,0.0,0.0,0.0,0.0,0.0,0.0,0.0,0.0,0.0,0.0,0.0,0.0,1500,1500,0.0,0.0,40.0636771667,-88.1999133333,0.0,0.0,0.0,0.0,0.0,0.0,0.0,0.0,0.0,0.0,0.0,0,0.0,0.0,0.0,0.0,90.0,90.0,90.0,90.01803588870001,89.8907089233,89.5724029541,44.9079971313,14.427810668900001,3.4600000381,0,2,25,1,90,7478
12,1530571222415,237415, RC,0,39.9586186,-88.445067899,0,0.0,0.0,0.0,0.0,0.0,0.0,0.0,0.0,0.0,0.0,0.0,0.0,0.0,1500,1500,0.0,0.0,40.0636771667,-88.1999133333,0.0,0.0,0.0,0.0,0.0,0.0,0.0,0.0,0.0,0.0,0.0,0,0.0,0.0,0.0,0.0,90.0,90.0,90.0,90.01803588870001,89.8907089233,89.5724029541,44.9079971313,14.427810668900001,3.4600000381,0,2,25,1,96,7480
13,1530571222465,237465, RC,0,39.9586186,-88.445067899,0,0.0,0.0,0.0,0.0,0.0,0.0,0.0,0.0,0.0,0.0,0.0,0.0,0.0,1500,1500,0.0,0.0,40.0636771667,-88.1999133333,0.0,0.0,0.0,0.0,0.0,0.0,0.0,0.0,0.0,0.0,0.0,0,0.0,0.0,0.0,0.0,90.0,90.0,90.0,90.01803588870001,89.8907089233,89.5724029541,44.9079971313,14.427810668900001,3.4600000381,0,2,25,1,96,7481
14,1530571222516,237516, RC,0,39.9586186,-88.445067899,0,0.0,0.0,0.0,0.0,0.0,0.0,0.0,0.0,0.0,0.0,0.0,0.0,0.0,1500,1500,0.0,0.0,40.0636771667,-88.1999133333,0.0,0.0,0.0,0.0,0.0,0.0,0.0,0.0,0.0,0.0,0.0,0,0.0,0.0,0.0,0.0,90.0,90.0,90.0,90.01803588870001,89.8907089233,89.5724029541,44.9079971313,14.440858840899999,3.2300000191000002,0,2,25,1,93,7483
15,1530571222566,237566, RC,0,39.9586186,-88.445067899,0,0.0,0.0,0.0,0.0,0.0,0.0,0.0,0.0,0.0,0.0,0.0,0.0,0.0,1500,1500,0.0,0.0,40.0636771667,-88.1999133333,0.0,0.0,0.0,0.0,0.0,0.0,0.0,0.0,0.0,0.0,0.0,0,0.0,0.0,0.0,0.0,90.0,90.0,90.0,90.01803588870001,89.8907089233,89.5724029541,44.9079971313,14.440858840899999,3.2300000191000002,0,2,25,1,85,7484
16,1530571222617,237617, RC,0,39.9586186,-88.445067899,0,0.0,0.0,0.0,0.0,0.0,0.0,0.0,0.0,0.0,0.0,0.0,0.0,0.0,1500,1500,0.0,0.0,40.0636771667,-88.1999133333,0.0,0.0,0.0,0.0,0.0,0.0,0.0,0.0,0.0,0.0,0.0,0,0.0,0.0,0.0,0.0,90.0,90.0,90.0,90.01803588870001,89.8907089233,89.5724029541,44.9079971313,14.440858840899999,3.2300000191000002,0,2,25,1,93,7486
17,1530571222667,237667, RC,0,39.9586186,-88.445067899,0,0.0,0.0,0.0,0.0,0.0,0.0,0.0,0.0,0.0,0.0,0.0,0.0,0.0,1500,1500,0.0,0.0,40.0636771667,-88.1999133333,0.0,0.0,0.0,0.0,0.0,0.0,0.0,0.0,0.0,0.0,0.0,0,0.0,0.0,0.0,0.0,90.0,90.0,90.0,90.01803588870001,89.8907089233,89.5724029541,44.9079971313,14.440858840899999,3.2300000191000002,0,2,25,1,92,7487
18,1530571222718,237718, RC,0,39.9586186,-88.445067899,0,0.0,0.0,0.0,0.0,0.0,0.0,0.0,0.0,0.0,0.0,0.0,0.0,0.0,1500,1500,0.0,0.0,40.0636771667,-88.1999133333,0.0,0.0,0.0,0.0,0.0,0.0,0.0,0.0,0.0,0.0,0.0,0,0.0,0.0,0.0,0.0,90.0,90.0,90.0,90.01803588870001,89.8907089233,89.5724029541,44.9079971313,14.440858840899999,3.2300000191000002,0,2,25,1,92,7489
19,1530571222769,237769, RC,0,39.9586186,-88.445067899,0,0.0,0.0,0.0,0.0,0.0,0.0,0.0,0.0,0.0,0.0,0.0,0.0,0.0,1500,1500,0.0,0.0,40.0636771667,-88.1999133333,0.0,0.0,0.0,0.0,0.0,0.0,0.0,0.0,0.0,0.0,0.0,0,0.0,0.0,0.0,0.0,90.0,90.0,90.0,90.01803588870001,89.8907089233,89.5724029541,44.9079971313,14.440858840899999,3.2300000191000002,0,2,25,1,92,7491
20,1530571222819,237819, RC,0,39.9586186,-88.445067899,0,0.0,0.0,0.0,0.0,0.0,0.0,0.0,0.0,0.0,0.0,0.0,0.0,0.0,1500,1500,0.0,0.0,40.0636771667,-88.1999133333,0.0,0.0,0.0,0.0,0.0,0.0,0.0,0.0,0.0,0.0,0.0,0,0.0,0.0,0.0,0.0,90.0,90.0,90.0,90.01803588870001,89.8907089233,89.5724029541,44.9079971313,14.440858840899999,3.2300000191000002,0,2,25,1,100,7492
21,1530571222870,237870, RC,0,39.9586186,-88.445067899,0,0.0,0.0,0.0,0.0,0.0,0.0,0.0,0.0,0.0,0.0,0.0,0.0,0.0,1500,1500,0.0,0.0,40.0636771667,-88.1999133333,0.0,0.0,0.0,0.0,0.0,0.0,0.0,0.0,0.0,0.0,0.0,0,0.0,0.0,0.0,0.0,90.0,90.0,90.0,90.01803588870001,89.8907089233,89.5724029541,44.9079971313,14.440858840899999,3.2300000191000002,0,2,25,1,98,7494
22,1530571222920,237920, RC,0,39.9586186,-88.445067899,0,0.0,0.0,0.0,0.0,0.0,0.0,0.0,0.0,0.0,0.0,0.0,0.0,0.0,1500,1500,0.0,0.0,40.0636771667,-88.1999133333,0.0,0.0,0.0,0.0,0.0,0.0,0.0,0.0,0.0,0.0,0.0,0,0.0,0.0,0.0,0.0,90.0,90.0,90.0,90.01803588870001,89.8907089233,89.5724029541,44.9079971313,14.440858840899999,3.2300000191000002,0,2,25,1,95,7495
23,1530571222971,237971, RC,0,39.9586186,-88.445067899,0,0.0,0.0,0.0,0.0,0.0,0.0,0.0,0.0,0.0,0.0,0.0,0.0,0.0,1500,1500,0.0,0.0,40.0636771667,-88.1999133333,0.0,0.0,0.0,0.0,0.0,0.0,0.0,0.0,0.0,0.0,0.0,0,0.0,0.0,0.0,0.0,90.0,90.0,90.0,90.01803588870001,89.8907089233,89.5724029541,44.9079971313,14.440858840899999,3.2300000191000002,0,2,25,1,90,7497
24,1530571223021,238021, RC,0,39.9586186,-88.445067899,0,0.0,0.0,0.0,0.0,0.0,0.0,0.0,0.0,0.0,0.0,0.0,0.0,0.0,1500,1500,0.0,0.0,40.0636771667,-88.1999133333,0.0,0.0,0.0,0.0,0.0,0.0,0.0,0.0,0.0,0.0,0.0,0,0.0,0.0,0.0,0.0,90.0,90.0,90.0,90.01803588870001,89.8907089233,89.5724029541,44.9079971313,14.440858840899999,3.2300000191000002,0,2,25,1,97,7498
25,1530571223072,238072, RC,0,39.9586186,-88.445067899,0,0.0,0.0,0.0,0.0,0.0,0.0,0.0,0.0,0.0,0.0,0.0,0.0,0.0,1500,1500,0.0,0.0,40.0636771667,-88.1999133333,0.0,0.0,0.0,0.0,0.0,0.0,0.0,0.0,0.0,0.0,0.0,0,0.0,0.0,0.0,0.0,90.0,90.0,90.0,90.01803588870001,89.8907089233,89.5724029541,44.9079971313,14.440858840899999,3.2300000191000002,0,2,25,1,98,7500
26,1530571223122,238122, RC,0,39.9586186,-88.445067899,0,0.0,0.0,0.0,0.0,0.0,0.0,0.0,0.0,0.0,0.0,0.0,0.0,0.0,1500,1500,0.0,0.0,40.0636765,-88.1999095,0.0,0.0,0.0,0.0,0.0,0.0,0.0,0.0,0.0,0.0,0.0,0,0.0,0.0,0.0,0.0,90.0,90.0,90.0,90.01803588870001,89.8907089233,89.5724029541,44.9079971313,14.440858840899999,3.2300000191000002,0,2,25,1,94,7502
27,1530571223173,238173, RC,0,39.9586186,-88.445067899,0,0.0,0.0,0.0,0.0,0.0,0.0,0.0,0.0,0.0,0.0,0.0,0.0,0.0,1500,1500,0.0,0.0,40.0636765,-88.1999095,0.0,0.0,0.0,0.0,0.0,0.0,0.0,0.0,0.0,0.0,0.0,0,0.0,0.0,0.0,0.0,90.0,90.0,90.0,90.01803588870001,89.8907089233,89.5724029541,44.9079971313,14.440858840899999,3.2300000191000002,0,2,25,1,86,7503
28,1530571223224,238224, RC,0,39.9586186,-88.445067899,0,0.0,0.0,0.0,0.0,0.0,0.0,0.0,0.0,0.0,0.0,0.0,0.0,0.0,1500,1500,0.0,0.0,40.0636765,-88.1999095,0.0,0.0,0.0,0.0,0.0,0.0,0.0,0.0,0.0,0.0,0.0,0,0.0,0.0,0.0,0.0,90.0,90.0,90.0,90.01803588870001,89.8907089233,89.5724029541,44.9079971313,14.440858840899999,3.2300000191000002,0,2,25,1,91,7505
29,1530571223274,238274, RC,0,39.9586186,-88.445067899,0,0.0,0.0,0.0,0.0,0.0,0.0,0.0,0.0,0.0,0.0,0.0,0.0,0.0,1500,1500,0.0,0.0,40.0636765,-88.1999095,0.0,0.0,0.0,0.0,0.0,0.0,0.0,0.0,0.0,0.0,0.0,0,0.0,0.0,0.0,0.0,90.0,90.0,90.0,90.01803588870001,89.8907089233,89.5724029541,44.9079971313,14.440858840899999,3.2300000191000002,0,2,25,1,92,7506
30,1530571223325,238325, RC,0,39.9586186,-88.445067899,0,0.0,0.0,0.0,0.0,0.0,0.0,0.0,0.0,0.0,0.0,0.0,0.0,0.0,1500,1500,0.0,0.0,40.0636765,-88.1999095,0.0,0.0,0.0,0.0,0.0,0.0,0.0,0.0,0.0,0.0,0.0,0,0.0,0.0,0.0,0.0,90.0,90.0,90.0,90.01803588870001,89.8907089233,89.5724029541,44.9079971313,14.440858840899999,3.2300000191000002,0,2,25,1,94,7508
31,1530571223375,238375, RC,0,39.9586186,-88.445067899,0,0.0,0.0,0.0,0.0,0.0,0.0,0.0,0.0,0.0,0.0,0.0,0.0,0.0,1500,1500,0.0,0.0,40.0636765,-88.1999095,0.0,0.0,0.0,0.0,0.0,0.0,0.0,0.0,0.0,0.0,0.0,0,0.0,0.0,0.0,0.0,90.0,90.0,90.0,90.01803588870001,89.8907089233,89.5724029541,44.9079971313,14.440858840899999,3.2300000191000002,0,2,25,1,91,7509
32,1530571223426,238426, RC,0,39.9586186,-88.445067899,0,0.0,0.0,0.0,0.0,0.0,0.0,0.0,0.0,0.0,0.0,0.0,0.0,0.0,1500,1500,0.0,0.0,40.0636765,-88.1999095,0.0,0.0,0.0,0.0,0.0,0.0,0.0,0.0,0.0,0.0,0.0,0,0.0,0.0,0.0,0.0,90.0,90.0,90.0,90.01803588870001,89.8907089233,89.5724029541,44.9079971313,14.440858840899999,3.2300000191000002,0,2,25,1,96,7511
33,1530571223476,238476, RC,0,39.9586186,-88.445067899,0,0.0,0.0,0.0,0.0,0.0,0.0,0.0,0.0,0.0,0.0,0.0,0.0,0.0,1500,1500,0.0,0.0,40.0636765,-88.1999095,0.0,0.0,0.0,0.0,0.0,0.0,0.0,0.0,0.0,0.0,0.0,0,0.0,0.0,0.0,0.0,90.0,90.0,90.0,90.01803588870001,89.8907089233,89.5724029541,44.9079971313,14.440858840899999,3.2300000191000002,0,2,25,1,101,7512
34,1530571223527,238527, RC,0,39.9586186,-88.445067899,0,0.0,0.0,0.0,0.0,0.0,0.0,0.0,0.0,0.0,0.0,0.0,0.0,0.0,1500,1500,0.0,0.0,40.0636765,-88.1999095,0.0,0.0,0.0,0.0,0.0,0.0,0.0,0.0,0.0,0.0,0.0,0,0.0,0.0,0.0,0.0,90.0,90.0,90.0,90.01803588870001,89.8907089233,89.5724029541,44.9079971313,14.4485502243,3.2899999619,0,2,25,1,82,7514
35,1530571223577,238577, RC,0,39.9586186,-88.445067899,0,0.0,0.0,0.0,0.0,0.0,0.0,0.0,0.0,0.0,0.0,0.0,0.0,0.0,1500,1500,0.0,0.0,40.0636765,-88.1999095,0.0,0.0,0.0,0.0,0.0,0.0,0.0,0.0,0.0,0.0,0.0,0,0.0,0.0,0.0,0.0,90.0,90.0,90.0,90.01803588870001,89.8907089233,89.5724029541,44.9079971313,14.4485502243,3.2899999619,0,2,25,1,83,7516
36,1530571223628,238628, RC,0,39.9586186,-88.445067899,0,0.0,0.0,0.0,0.0,0.0,0.0,0.0,0.0,0.0,0.0,0.0,0.0,0.0,1500,1500,0.0,0.0,40.0636765,-88.1999095,0.0,0.0,0.0,0.0,0.0,0.0,0.0,0.0,0.0,0.0,0.0,0,0.0,0.0,0.0,0.0,90.0,90.0,90.0,90.01803588870001,89.8907089233,89.5724029541,44.9079971313,14.4485502243,3.2899999619,0,2,25,1,90,7517
37,1530571223679,238679, RC,0,39.9586186,-88.445067899,0,0.0,0.0,0.0,0.0,0.0,0.0,0.0,0.0,0.0,0.0,0.0,0.0,0.0,1500,1500,0.0,0.0,40.0636765,-88.1999095,0.0,0.0,0.0,0.0,0.0,0.0,0.0,0.0,0.0,0.0,0.0,0,0.0,0.0,0.0,0.0,90.0,90.0,90.0,90.01803588870001,89.8907089233,89.5724029541,44.9079971313,14.4485502243,3.2899999619,0,2,25,1,91,7519
38,1530571223731,238731, RC,0,39.9586186,-88.445067899,0,0.0,0.0,0.0,0.0,0.0,0.0,0.0,0.0,0.0,0.0,0.0,0.0,0.0,1500,1500,0.0,0.0,40.0636765,-88.1999095,0.0,0.0,0.0,0.0,0.0,0.0,0.0,0.0,0.0,0.0,0.0,0,0.0,0.0,0.0,0.0,90.0,90.0,90.0,90.01803588870001,89.8907089233,89.5724029541,44.9079971313,14.4485502243,3.2899999619,0,2,25,1,97,7520
39,1530571223782,238782, RC,0,39.9586186,-88.445067899,0,0.0,0.0,0.0,0.0,0.0,0.0,0.0,0.0,0.0,0.0,0.0,0.0,0.0,1500,1500,0.0,0.0,40.0636765,-88.1999095,0.0,0.0,0.0,0.0,0.0,0.0,0.0,0.0,0.0,0.0,0.0,0,0.0,0.0,0.0,0.0,90.0,90.0,90.0,90.01803588870001,89.8907089233,89.5724029541,44.9079971313,14.4485502243,3.2899999619,0,2,25,1,93,7522
40,1530571223833,238833, RC,0,39.9586186,-88.445067899,0,0.0,0.0,0.0,0.0,0.0,0.0,0.0,0.0,0.0,0.0,0.0,0.0,0.0,1500,1500,0.0,0.0,40.0636765,-88.1999095,0.0,0.0,0.0,0.0,0.0,0.0,0.0,0.0,0.0,0.0,0.0,0,0.0,0.0,0.0,0.0,90.0,90.0,90.0,90.01803588870001,89.9543762207,89.5724029541,44.9079971313,14.4485502243,3.2899999619,0,2,25,1,94,7523
41,1530571223883,238883, RC,0,39.9586186,-88.445067899,0,0.0,0.0,0.0,0.0,0.0,0.0,0.0,0.0,0.0,0.0,0.0,0.0,0.0,1500,1500,0.0,0.0,40.0636765,-88.1999095,0.0,0.0,0.0,0.0,0.0,0.0,0.0,0.0,0.0,0.0,0.0,0,0.0,0.0,0.0,0.0,90.0,90.0,90.0,90.01803588870001,89.9543762207,89.5724029541,44.9079971313,14.4485502243,3.2899999619,0,2,25,1,102,7525
42,1530571223934,238934, RC,0,39.9586186,-88.445067899,0,0.0,0.0,0.0,0.0,0.0,0.0,0.0,0.0,0.0,0.0,0.0,0.0,0.0,1500,1500,0.0,0.0,40.0636765,-88.1999095,0.0,0.0,0.0,0.0,0.0,0.0,0.0,0.0,0.0,0.0,0.0,0,0.0,0.0,0.0,0.0,90.0,90.0,90.0,90.01803588870001,89.9543762207,89.5724029541,44.9079971313,14.4485502243,3.2899999619,0,2,25,1,102,7527
43,1530571223984,238984, RC,0,39.9586186,-88.445067899,0,0.0,0.0,0.0,0.0,0.0,0.0,0.0,0.0,0.0,0.0,0.0,0.0,0.0,1500,1500,0.0,0.0,40.0636765,-88.1999095,0.0,0.0,0.0,0.0,0.0,0.0,0.0,0.0,0.0,0.0,0.0,0,0.0,0.0,0.0,0.0,90.0,90.0,90.0,90.01803588870001,89.9543762207,89.5724029541,44.9079971313,14.4485502243,3.2899999619,0,2,25,1,103,7528
44,1530571224035,239035, RC,0,39.9586186,-88.445067899,0,0.0,0.0,0.0,0.0,0.0,0.0,0.0,0.0,0.0,0.0,0.0,0.0,0.0,1500,1500,0.0,0.0,40.0636765,-88.1999095,0.0,0.0,0.0,0.0,0.0,0.0,0.0,0.0,0.0,0.0,0.0,0,0.0,0.0,0.0,0.0,90.0,90.0,90.0,90.01803588870001,89.9543762207,89.5724029541,44.9079971313,14.4485502243,3.2899999619,0,2,25,1,95,7530
45,1530571224086,239086, RC,0,39.9586186,-88.445067899,0,0.0,0.0,0.0,0.0,0.0,0.0,0.0,0.0,0.0,0.0,0.0,0.0,0.0,1500,1500,0.0,0.0,40.0636765,-88.1999095,0.0,0.0,0.0,0.0,0.0,0.0,0.0,0.0,0.0,0.0,0.0,0,0.0,0.0,0.0,0.0,90.0,90.0,90.0,90.01803588870001,89.9543762207,89.5724029541,44.9079971313,14.4485502243,3.2899999619,0,2,25,1,98,7531
46,1530571224136,239136, RC,0,39.9586186,-88.445067899,0,0.0,0.0,0.0,0.0,0.0,0.0,0.0,0.0,0.0,0.0,0.0,0.0,0.0,1500,1500,0.0,0.0,40.0636756667,-88.1999053333,0.0,0.0,0.0,0.0,0.0,0.0,0.0,0.0,0.0,0.0,0.0,0,0.0,0.0,0.0,0.0,90.0,90.0,90.0,90.01803588870001,89.9543762207,89.5724029541,45.445999145500004,14.4485502243,3.2899999619,0,2,25,1,99,7533
47,1530571224187,239187, RC,0,39.9586186,-88.445067899,0,0.0,0.0,0.0,0.0,0.0,0.0,0.0,0.0,0.0,0.0,0.0,0.0,0.0,1500,1500,0.0,0.0,40.0636756667,-88.1999053333,0.0,0.0,0.0,0.0,0.0,0.0,0.0,0.0,0.0,0.0,0.0,0,0.0,0.0,0.0,0.0,90.0,90.0,90.0,90.01803588870001,89.9543762207,89.5724029541,45.445999145500004,14.4485502243,3.2899999619,0,2,25,1,96,7534
48,1530571224237,239237, RC,0,39.9586186,-88.445067899,0,0.0,0.0,0.0,0.0,0.0,0.0,0.0,0.0,0.0,0.0,0.0,0.0,0.0,1500,1500,0.0,0.0,40.0636756667,-88.1999053333,0.0,0.0,0.0,0.0,0.0,0.0,0.0,0.0,0.0,0.0,0.0,0,0.0,0.0,0.0,0.0,90.0,90.0,90.0,90.01803588870001,89.9543762207,89.5724029541,45.445999145500004,14.4485502243,3.2899999619,0,2,25,1,86,7536
49,1530571224288,239288, RC,0,39.9586186,-88.445067899,0,0.0,0.0,0.0,0.0,0.0,0.0,0.0,0.0,0.0,0.0,0.0,0.0,0.0,1500,1500,0.0,0.0,40.0636756667,-88.1999053333,0.0,0.0,0.0,0.0,0.0,0.0,0.0,0.0,0.0,0.0,0.0,0,0.0,0.0,0.0,0.0,90.0,90.0,90.0,90.01803588870001,89.9543762207,89.5724029541,45.445999145500004,14.4485502243,3.2899999619,0,2,25,1,90,7538
50,1530571224339,239339, RC,0,39.9586186,-88.445067899,0,0.0,0.0,0.0,0.0,0.0,0.0,0.0,0.0,0.0,0.0,0.0,0.0,0.0,1500,1500,0.0,0.0,40.0636756667,-88.1999053333,0.0,0.0,0.0,0.0,0.0,0.0,0.0,0.0,0.0,0.0,0.0,0,0.0,0.0,0.0,0.0,90.0,90.0,90.0,90.01803588870001,89.9543762207,89.5724029541,45.445999145500004,14.4485502243,3.2899999619,0,2,25,1,87,7539
51,1530571224389,239389, RC,0,39.9586186,-88.445067899,0,0.0,0.0,0.0,0.0,0.0,0.0,0.0,0.0,0.0,0.0,0.0,0.0,0.0,1500,1500,0.0,0.0,40.0636756667,-88.1999053333,0.0,0.0,0.0,0.0,0.0,0.0,0.0,0.0,0.0,0.0,0.0,0,0.0,0.0,0.0,0.0,90.0,90.0,90.0,90.01803588870001,89.9543762207,89.5724029541,45.445999145500004,14.4485502243,3.2899999619,0,2,25,1,90,7541
52,1530571224440,239440, RC,0,39.9586186,-88.445067899,0,0.0,0.0,0.0,0.0,0.0,0.0,0.0,0.0,0.0,0.0,0.0,0.0,0.0,1500,1500,0.0,0.0,40.0636756667,-88.1999053333,0.0,0.0,0.0,0.0,0.0,0.0,0.0,0.0,0.0,0.0,0.0,0,0.0,0.0,0.0,0.0,90.0,90.0,90.0,90.01803588870001,89.9543762207,89.5724029541,45.445999145500004,14.4485502243,3.2899999619,0,2,25,1,91,7542
53,1530571224490,239490, RC,0,39.9586186,-88.445067899,0,0.0,0.0,0.0,0.0,0.0,0.0,0.0,0.0,0.0,0.0,0.0,0.0,0.0,1500,1500,0.0,0.0,40.0636756667,-88.1999053333,0.0,0.0,0.0,0.0,0.0,0.0,0.0,0.0,0.0,0.0,0.0,0,0.0,0.0,0.0,0.0,90.0,90.0,90.0,90.01803588870001,89.9543762207,89.5724029541,45.445999145500004,14.4485502243,3.2899999619,0,2,25,1,98,7544
54,1530571224541,239541, RC,0,39.9586186,-88.445067899,0,0.0,0.0,0.0,0.0,0.0,0.0,0.0,0.0,0.0,0.0,0.0,0.0,0.0,1500,1500,0.0,0.0,40.0636756667,-88.1999053333,0.0,0.0,0.0,0.0,0.0,0.0,0.0,0.0,0.0,0.0,0.0,0,0.0,0.0,0.0,0.0,90.0,90.0,90.0,90.01803588870001,89.9543762207,89.5724029541,45.445999145500004,14.4749908447,3.2899999619,0,2,25,1,104,7545
55,1530571224591,239591, RC,0,39.9586186,-88.445067899,0,0.0,0.0,0.0,0.0,0.0,0.0,0.0,0.0,0.0,0.0,0.0,0.0,0.0,1500,1500,0.0,0.0,40.0636756667,-88.1999053333,0.0,0.0,0.0,0.0,0.0,0.0,0.0,0.0,0.0,0.0,0.0,0,0.0,0.0,0.0,0.0,90.0,90.0,90.0,90.01803588870001,89.9543762207,89.5724029541,45.445999145500004,14.4749908447,3.2899999619,0,2,25,1,101,7547
56,1530571224642,239642, RC,0,39.9586186,-88.445067899,0,0.0,0.0,0.0,0.0,0.0,0.0,0.0,0.0,0.0,0.0,0.0,0.0,0.0,1500,1500,0.0,0.0,40.0636756667,-88.1999053333,0.0,0.0,0.0,0.0,0.0,0.0,0.0,0.0,0.0,0.0,0.0,0,0.0,0.0,0.0,0.0,90.0,90.0,90.0,90.01803588870001,89.9543762207,89.5724029541,45.445999145500004,14.4749908447,3.2899999619,0,2,25,1,98,7548
57,1530571224693,239693, RC,0,39.9586186,-88.445067899,0,0.0,0.0,0.0,0.0,0.0,0.0,0.0,0.0,0.0,0.0,0.0,0.0,0.0,1500,1500,0.0,0.0,40.0636756667,-88.1999053333,0.0,0.0,0.0,0.0,0.0,0.0,0.0,0.0,0.0,0.0,0.0,0,0.0,0.0,0.0,0.0,90.0,90.0,90.0,90.01803588870001,89.9543762207,89.5724029541,45.445999145500004,14.4749908447,3.2899999619,0,2,25,1,91,7550
58,1530571224743,239743, RC,0,39.9586186,-88.445067899,0,0.0,0.0,0.0,0.0,0.0,0.0,0.0,0.0,0.0,0.0,0.0,0.0,0.0,1500,1500,0.0,0.0,40.0636756667,-88.1999053333,0.0,0.0,0.0,0.0,0.0,0.0,0.0,0.0,0.0,0.0,0.0,0,0.0,0.0,0.0,0.0,90.0,90.0,90.0,90.01803588870001,89.9543762207,89.5724029541,45.445999145500004,14.4749908447,3.2899999619,0,2,25,1,99,7552
59,1530571224794,239794, RC,0,39.9586186,-88.445067899,0,0.0,0.0,0.0,0.0,0.0,0.0,0.0,0.0,0.0,0.0,0.0,0.0,0.0,1500,1500,0.0,0.0,40.0636756667,-88.1999053333,0.0,0.0,0.0,0.0,0.0,0.0,0.0,0.0,0.0,0.0,0.0,0,0.0,0.0,0.0,0.0,90.0,90.0,90.0,90.01803588870001,89.9543762207,89.5724029541,45.445999145500004,14.4749908447,3.2899999619,0,2,25,1,94,7553
60,1530571224844,239844, RC,0,39.9586186,-88.445067899,0,0.0,0.0,0.0,0.0,0.0,0.0,0.0,0.0,0.0,0.0,0.0,0.0,0.0,1500,1500,0.0,0.0,40.0636756667,-88.1999053333,0.0,0.0,0.0,0.0,0.0,0.0,0.0,0.0,0.0,0.0,0.0,0,0.0,0.0,0.0,0.0,90.0,90.0,90.0,90.01803588870001,89.9543762207,89.5724029541,45.445999145500004,14.4749908447,3.2899999619,0,2,25,1,101,7555
61,1530571224895,239895, RC,0,39.9586186,-88.445067899,0,0.0,0.0,0.0,0.0,0.0,0.0,0.0,0.0,0.0,0.0,0.0,0.0,0.0,1500,1500,0.0,0.0,40.0636756667,-88.1999053333,0.0,0.0,0.0,0.0,0.0,0.0,0.0,0.0,0.0,0.0,0.0,0,0.0,0.0,0.0,0.0,90.0,90.0,90.0,90.01803588870001,89.9543762207,89.5724029541,45.445999145500004,14.4749908447,3.2899999619,0,2,25,1,86,7557
62,1530571224945,239945, RC,0,39.9586186,-88.445067899,0,0.0,0.0,0.0,0.0,0.0,0.0,0.0,0.0,0.0,0.0,0.0,0.0,0.0,1500,1500,0.0,0.0,40.0636756667,-88.1999053333,0.0,0.0,0.0,0.0,0.0,0.0,0.0,0.0,0.0,0.0,0.0,0,0.0,0.0,0.0,0.0,90.0,90.0,90.0,90.01803588870001,89.9543762207,89.5724029541,45.445999145500004,14.4749908447,3.2899999619,0,2,25,1,91,7558
63,1530571224996,239996, RC,0,39.9586186,-88.445067899,0,0.0,0.0,0.0,0.0,0.0,0.0,0.0,0.0,0.0,0.0,0.0,0.0,0.0,1500,1500,0.0,0.0,40.0636756667,-88.1999053333,0.0,0.0,0.0,0.0,0.0,0.0,0.0,0.0,0.0,0.0,0.0,0,0.0,0.0,0.0,0.0,90.0,90.0,90.0,90.01803588870001,89.9543762207,89.5724029541,45.445999145500004,14.4749908447,3.2899999619,0,2,25,1,96,7560
64,1530571225046,240046, RC,0,39.9586186,-88.445067899,0,0.0,0.0,0.0,0.0,0.0,0.0,0.0,0.0,0.0,0.0,0.0,0.0,0.0,1500,1500,0.0,0.0,40.0636756667,-88.1999053333,0.0,0.0,0.0,0.0,0.0,0.0,0.0,0.0,0.0,0.0,0.0,0,0.0,0.0,0.0,0.0,90.0,90.0,90.0,90.01803588870001,89.9543762207,89.5724029541,45.445999145500004,14.4749908447,3.2899999619,0,2,25,1,95,7562
65,1530571225097,240097, RC,0,39.9586186,-88.445067899,0,0.0,0.0,0.0,0.0,0.0,0.0,0.0,0.0,0.0,0.0,0.0,0.0,0.0,1500,1500,0.0,0.0,40.0636751667,-88.1999031667,0.0,0.0,0.0,0.0,0.0,0.0,0.0,0.0,0.0,0.0,0.0,0,0.0,0.0,0.0,0.0,90.0,90.0,90.0,90.01803588870001,89.9543762207,89.5724029541,45.445999145500004,14.4749908447,3.2899999619,0,2,25,1,91,7563
66,1530571225148,240148, RC,0,39.9586186,-88.445067899,0,0.0,0.0,0.0,0.0,0.0,0.0,0.0,0.0,0.0,0.0,0.0,0.0,0.0,1500,1500,0.0,0.0,40.0636751667,-88.1999031667,0.0,0.0,0.0,0.0,0.0,0.0,0.0,0.0,0.0,0.0,0.0,0,0.0,0.0,0.0,0.0,90.0,90.0,90.0,90.01803588870001,89.9543762207,89.5724029541,45.445999145500004,14.4749908447,3.2899999619,0,2,25,1,95,7565
67,1530571225198,240198, RC,0,39.9586186,-88.445067899,0,0.0,0.0,0.0,0.0,0.0,0.0,0.0,0.0,0.0,0.0,0.0,0.0,0.0,1500,1500,0.0,0.0,40.0636751667,-88.1999031667,0.0,0.0,0.0,0.0,0.0,0.0,0.0,0.0,0.0,0.0,0.0,0,0.0,0.0,0.0,0.0,90.0,90.0,90.0,90.01803588870001,89.9543762207,89.5724029541,45.445999145500004,14.4749908447,3.2899999619,0,2,25,1,101,7567
68,1530571225249,240249, RC,0,39.9586186,-88.445067899,0,0.0,0.0,0.0,0.0,0.0,0.0,0.0,0.0,0.0,0.0,0.0,0.0,0.0,1500,1500,0.0,0.0,40.0636751667,-88.1999031667,0.0,0.0,0.0,0.0,0.0,0.0,0.0,0.0,0.0,0.0,0.0,0,0.0,0.0,0.0,0.0,90.0,90.0,90.0,90.01803588870001,89.9543762207,89.5724029541,45.445999145500004,14.4749908447,3.2899999619,0,2,25,1,95,7568
69,1530571225299,240299, RC,0,39.9586186,-88.445067899,0,0.0,0.0,0.0,0.0,0.0,0.0,0.0,0.0,0.0,0.0,0.0,0.0,0.0,1500,1500,0.0,0.0,40.0636751667,-88.1999031667,0.0,0.0,0.0,0.0,0.0,0.0,0.0,0.0,0.0,0.0,0.0,0,0.0,0.0,0.0,0.0,90.0,90.0,90.0,90.01803588870001,89.9543762207,89.5724029541,45.445999145500004,14.4749908447,3.2899999619,0,2,25,1,98,7570
70,1530571225350,240350, RC,0,39.9586186,-88.445067899,0,0.0,0.0,0.0,0.0,0.0,0.0,0.0,0.0,0.0,0.0,0.0,0.0,0.0,1500,1500,0.0,0.0,40.0636751667,-88.1999031667,0.0,0.0,0.0,0.0,0.0,0.0,0.0,0.0,0.0,0.0,0.0,0,0.0,0.0,0.0,0.0,90.0,90.0,90.0,90.01803588870001,89.9543762207,89.5724029541,45.445999145500004,14.4749908447,3.2899999619,0,2,25,1,94,7572
71,1530571225400,240400, RC,0,39.9586186,-88.445067899,0,0.0,0.0,0.0,0.0,0.0,0.0,0.0,0.0,0.0,0.0,0.0,0.0,0.0,1500,1500,0.0,0.0,40.0636751667,-88.1999031667,0.0,0.0,0.0,0.0,0.0,0.0,0.0,0.0,0.0,0.0,0.0,0,0.0,0.0,0.0,0.0,90.0,90.0,90.0,90.01803588870001,89.9543762207,89.5724029541,45.445999145500004,14.4749908447,3.2899999619,0,2,25,1,93,7573
72,1530571225451,240451, RC,0,39.9586186,-88.445067899,0,0.0,0.0,0.0,0.0,0.0,0.0,0.0,0.0,0.0,0.0,0.0,0.0,0.0,1500,1500,0.0,0.0,40.0636751667,-88.1999031667,0.0,0.0,0.0,0.0,0.0,0.0,0.0,0.0,0.0,0.0,0.0,0,0.0,0.0,0.0,0.0,90.0,90.0,90.0,90.01803588870001,89.9543762207,89.5724029541,45.445999145500004,14.4749908447,3.2899999619,0,2,25,1,93,7575
73,1530571225502,240502, RC,0,39.9586186,-88.445067899,0,0.0,0.0,0.0,0.0,0.0,0.0,0.0,0.0,0.0,0.0,0.0,0.0,0.0,1500,1500,0.0,0.0,40.0636751667,-88.1999031667,0.0,0.0,0.0,0.0,0.0,0.0,0.0,0.0,0.0,0.0,0.0,0,0.0,0.0,0.0,0.0,90.0,90.0,90.0,90.01803588870001,89.9543762207,89.5724029541,45.445999145500004,14.4749908447,3.2899999619,0,2,25,1,99,7577
74,1530571225552,240552, RC,0,39.9586186,-88.445067899,0,0.0,0.0,0.0,0.0,0.0,0.0,0.0,0.0,0.0,0.0,0.0,0.0,0.0,1500,1500,0.0,0.0,40.0636751667,-88.1999031667,0.0,0.0,0.0,0.0,0.0,0.0,0.0,0.0,0.0,0.0,0.0,0,0.0,0.0,0.0,0.0,90.0,90.0,90.0,90.01803588870001,89.9543762207,89.5724029541,45.445999145500004,14.4829845428,3.2899999619,0,2,25,1,97,7578
75,1530571225603,240603, RC,0,39.9586186,-88.445067899,0,0.0,0.0,0.0,0.0,0.0,0.0,0.0,0.0,0.0,0.0,0.0,0.0,0.0,1500,1500,0.0,0.0,40.0636751667,-88.1999031667,0.0,0.0,0.0,0.0,0.0,0.0,0.0,0.0,0.0,0.0,0.0,0,0.0,0.0,0.0,0.0,90.0,90.0,90.0,90.01803588870001,89.9543762207,89.5724029541,45.445999145500004,14.4829845428,3.2899999619,0,2,25,1,101,7580
76,1530571225653,240653, RC,0,39.9586186,-88.445067899,0,0.0,0.0,0.0,0.0,0.0,0.0,0.0,0.0,0.0,0.0,0.0,0.0,0.0,1500,1500,0.0,0.0,40.0636751667,-88.1999031667,0.0,0.0,0.0,0.0,0.0,0.0,0.0,0.0,0.0,0.0,0.0,0,0.0,0.0,0.0,0.0,90.0,90.0,90.0,90.01803588870001,89.9543762207,89.5724029541,45.445999145500004,14.4829845428,3.2899999619,0,2,25,1,98,7581
77,1530571225704,240704, RC,0,39.9586186,-88.445067899,0,0.0,0.0,0.0,0.0,0.0,0.0,0.0,0.0,0.0,0.0,0.0,0.0,0.0,1500,1500,0.0,0.0,40.0636751667,-88.1999031667,0.0,0.0,0.0,0.0,0.0,0.0,0.0,0.0,0.0,0.0,0.0,0,0.0,0.0,0.0,0.0,90.0,90.0,90.0,90.01803588870001,89.9543762207,89.5724029541,45.445999145500004,14.4829845428,3.2899999619,0,2,25,1,101,7583
78,1530571225754,240754, RC,0,39.9586186,-88.445067899,0,0.0,0.0,0.0,0.0,0.0,0.0,0.0,0.0,0.0,0.0,0.0,0.0,0.0,1500,1500,0.0,0.0,40.0636751667,-88.1999031667,0.0,0.0,0.0,0.0,0.0,0.0,0.0,0.0,0.0,0.0,0.0,0,0.0,0.0,0.0,0.0,90.0,90.0,90.0,90.01803588870001,89.9543762207,89.5724029541,45.445999145500004,14.4829845428,3.2899999619,0,2,25,1,90,7585
79,1530571225805,240805, RC,0,39.9586186,-88.445067899,0,0.0,0.0,0.0,0.0,0.0,0.0,0.0,0.0,0.0,0.0,0.0,0.0,0.0,1500,1500,0.0,0.0,40.0636751667,-88.1999031667,0.0,0.0,0.0,0.0,0.0,0.0,0.0,0.0,0.0,0.0,0.0,0,0.0,0.0,0.0,0.0,90.0,90.0,90.0,90.01803588870001,89.9543762207,89.5724029541,45.445999145500004,14.4829845428,3.2899999619,0,2,25,1,94,7586
80,1530571225855,240855, RC,0,39.9586186,-88.445067899,0,0.0,0.0,0.0,0.0,0.0,0.0,0.0,0.0,0.0,0.0,0.0,0.0,0.0,1500,1500,0.0,0.0,40.0636751667,-88.1999031667,0.0,0.0,0.0,0.0,0.0,0.0,0.0,0.0,0.0,0.0,0.0,0,0.0,0.0,0.0,0.0,90.0,90.0,90.0,90.01803588870001,89.9543762207,89.5724029541,45.445999145500004,14.4829845428,3.2899999619,0,2,25,1,93,7588
81,1530571225906,240906, RC,0,39.9586186,-88.445067899,0,0.0,0.0,0.0,0.0,0.0,0.0,0.0,0.0,0.0,0.0,0.0,0.0,0.0,1500,1500,0.0,0.0,40.0636751667,-88.1999031667,0.0,0.0,0.0,0.0,0.0,0.0,0.0,0.0,0.0,0.0,0.0,0,0.0,0.0,0.0,0.0,90.0,90.0,90.0,90.01803588870001,89.9543762207,89.5724029541,45.445999145500004,14.4829845428,3.2899999619,0,2,25,1,103,7590
82,1530571225957,240957, RC,0,39.9586186,-88.445067899,0,0.0,0.0,0.0,0.0,0.0,0.0,0.0,0.0,0.0,0.0,0.0,0.0,0.0,1500,1500,0.0,0.0,40.0636751667,-88.1999031667,0.0,0.0,0.0,0.0,0.0,0.0,0.0,0.0,0.0,0.0,0.0,0,0.0,0.0,0.0,0.0,90.0,90.0,90.0,90.01803588870001,89.9543762207,89.5724029541,45.445999145500004,14.4829845428,3.2899999619,0,2,25,1,105,7591
83,1530571226007,241007, RC,0,39.9586186,-88.445067899,0,0.0,0.0,0.0,0.0,0.0,0.0,0.0,0.0,0.0,0.0,0.0,0.0,0.0,1500,1500,0.0,0.0,40.0636751667,-88.1999031667,0.0,0.0,0.0,0.0,0.0,0.0,0.0,0.0,0.0,0.0,0.0,0,0.0,0.0,0.0,0.0,90.0,90.0,90.0,90.01803588870001,89.9543762207,89.5724029541,45.445999145500004,14.4829845428,3.2899999619,0,2,25,1,94,7593
84,1530571226058,241058, RC,0,39.9586186,-88.445067899,0,0.0,0.0,0.0,0.0,0.0,0.0,0.0,0.0,0.0,0.0,0.0,0.0,0.0,1500,1500,0.0,0.0,40.0636751667,-88.1999031667,0.0,0.0,0.0,0.0,0.0,0.0,0.0,0.0,0.0,0.0,0.0,0,0.0,0.0,0.0,0.0,90.0,90.0,90.0,90.01803588870001,89.9543762207,89.5724029541,45.445999145500004,14.4829845428,3.2899999619,0,2,25,1,97,7595
85,1530571226108,241108, RC,0,39.9586186,-88.445067899,0,0.0,0.0,0.0,0.0,0.0,0.0,0.0,0.0,0.0,0.0,0.0,0.0,0.0,1500,1500,0.0,0.0,40.0636745,-88.1999005,0.0,0.0,0.0,0.0,0.0,0.0,0.0,0.0,0.0,0.0,0.0,0,0.0,0.0,0.0,0.0,90.0,90.0,90.0,90.01803588870001,89.9543762207,89.5724029541,45.445999145500004,14.4829845428,3.2899999619,0,2,25,1,98,7596
86,1530571226159,241159, RC,0,39.9586186,-88.445067899,0,0.0,0.0,0.0,0.0,0.0,0.0,0.0,0.0,0.0,0.0,0.0,0.0,0.0,1500,1500,0.0,0.0,40.0636745,-88.1999005,0.0,0.0,0.0,0.0,0.0,0.0,0.0,0.0,0.0,0.0,0.0,0,0.0,0.0,0.0,0.0,90.0,90.0,90.0,90.01803588870001,89.9543762207,89.5724029541,45.445999145500004,14.4829845428,3.2899999619,0,2,25,1,97,7598
87,1530571226209,241209, RC,0,39.9586186,-88.445067899,0,0.0,0.0,0.0,0.0,0.0,0.0,0.0,0.0,0.0,0.0,0.0,0.0,0.0,1500,1500,0.0,0.0,40.0636745,-88.1999005,0.0,0.0,0.0,0.0,0.0,0.0,0.0,0.0,0.0,0.0,0.0,0,0.0,0.0,0.0,0.0,90.0,90.0,90.0,90.01803588870001,89.9543762207,89.5724029541,45.445999145500004,14.4829845428,3.2899999619,0,2,25,1,93,7600
88,1530571226260,241260, RC,0,39.9586186,-88.445067899,0,0.0,0.0,0.0,0.0,0.0,0.0,0.0,0.0,0.0,0.0,0.0,0.0,0.0,1500,1500,0.0,0.0,40.0636745,-88.1999005,0.0,0.0,0.0,0.0,0.0,0.0,0.0,0.0,0.0,0.0,0.0,0,0.0,0.0,0.0,0.0,90.0,90.0,90.0,90.01803588870001,89.9543762207,89.5724029541,45.445999145500004,14.4829845428,3.2899999619,0,2,25,1,99,7601
89,1530571226310,241310, RC,0,39.9586186,-88.445067899,0,0.0,0.0,0.0,0.0,0.0,0.0,0.0,0.0,0.0,0.0,0.0,0.0,0.0,1500,1500,0.0,0.0,40.0636745,-88.1999005,0.0,0.0,0.0,0.0,0.0,0.0,0.0,0.0,0.0,0.0,0.0,0,0.0,0.0,0.0,0.0,90.0,90.0,90.0,90.01803588870001,89.9543762207,89.5724029541,45.445999145500004,14.4829845428,3.2899999619,0,2,25,1,98,7603
90,1530571226361,241361, RC,0,39.9586186,-88.445067899,0,0.0,0.0,0.0,0.0,0.0,0.0,0.0,0.0,0.0,0.0,0.0,0.0,0.0,1500,1500,0.0,0.0,40.0636745,-88.1999005,0.0,0.0,0.0,0.0,0.0,0.0,0.0,0.0,0.0,0.0,0.0,0,0.0,0.0,0.0,0.0,90.0,90.0,90.0,90.01803588870001,89.9543762207,89.5724029541,45.445999145500004,14.4829845428,3.2899999619,0,2,25,1,97,7605
91,1530571226412,241412, RC,0,39.9586186,-88.445067899,0,0.0,0.0,0.0,0.0,0.0,0.0,0.0,0.0,0.0,0.0,0.0,0.0,0.0,1500,1500,0.0,0.0,40.0636745,-88.1999005,0.0,0.0,0.0,0.0,0.0,0.0,0.0,0.0,0.0,0.0,0.0,0,0.0,0.0,0.0,0.0,90.0,90.0,90.0,90.01803588870001,89.9543762207,89.5724029541,45.445999145500004,14.4829845428,3.2899999619,0,2,25,1,99,7606
92,1530571226462,241462, RC,0,39.9586186,-88.445067899,0,0.0,0.0,0.0,0.0,0.0,0.0,0.0,0.0,0.0,0.0,0.0,0.0,0.0,1500,1500,0.0,0.0,40.0636745,-88.1999005,0.0,0.0,0.0,0.0,0.0,0.0,0.0,0.0,0.0,0.0,0.0,0,0.0,0.0,0.0,0.0,90.0,90.0,90.0,90.01803588870001,89.9543762207,89.5724029541,45.445999145500004,14.4829845428,3.2899999619,0,2,25,1,105,7608
93,1530571226513,241513, RC,0,39.9586186,-88.445067899,0,0.0,0.0,0.0,0.0,0.0,0.0,0.0,0.0,0.0,0.0,0.0,0.0,0.0,1500,1500,0.0,0.0,40.0636745,-88.1999005,0.0,0.0,0.0,0.0,0.0,0.0,0.0,0.0,0.0,0.0,0.0,0,0.0,0.0,0.0,0.0,90.0,90.0,90.0,90.01803588870001,89.9543762207,89.5724029541,45.445999145500004,14.4829845428,3.2899999619,0,2,25,1,98,7610
94,1530571226563,241563, RC,0,39.9586186,-88.445067899,0,0.0,0.0,0.0,0.0,0.0,0.0,0.0,0.0,0.0,0.0,0.0,0.0,0.0,1500,1500,0.0,0.0,40.0636745,-88.1999005,0.0,0.0,0.0,0.0,0.0,0.0,0.0,0.0,0.0,0.0,0.0,0,0.0,0.0,0.0,0.0,90.0,90.0,90.0,90.01803588870001,89.9543762207,89.5724029541,45.445999145500004,14.495069503800002,3.4000000954000003,0,2,25,1,98,7611
95,1530571226614,241614, RC,0,39.9586186,-88.445067899,0,0.0,0.0,0.0,0.0,0.0,0.0,0.0,0.0,0.0,0.0,0.0,0.0,0.0,1500,1500,0.0,0.0,40.0636745,-88.1999005,0.0,0.0,0.0,0.0,0.0,0.0,0.0,0.0,0.0,0.0,0.0,0,0.0,0.0,0.0,0.0,90.0,90.0,90.0,90.01803588870001,90.40000915530001,89.5724029541,45.445999145500004,14.495069503800002,3.4000000954000003,0,2,25,1,97,7613
96,1530571226664,241664, RC,0,39.9586186,-88.445067899,0,0.0,0.0,0.0,0.0,0.0,0.0,0.0,0.0,0.0,0.0,0.0,0.0,0.0,1500,1500,0.0,0.0,40.0636745,-88.1999005,0.0,0.0,0.0,0.0,0.0,0.0,0.0,0.0,0.0,0.0,0.0,0,0.0,0.0,0.0,0.0,90.0,90.0,90.0,90.01803588870001,90.40000915530001,89.5724029541,45.445999145500004,14.495069503800002,3.4000000954000003,0,2,25,1,101,7615
97,1530571226715,241715, RC,0,39.9586186,-88.445067899,0,0.0,0.0,0.0,0.0,0.0,0.0,0.0,0.0,0.0,0.0,0.0,0.0,0.0,1500,1500,0.0,0.0,40.0636745,-88.1999005,0.0,0.0,0.0,0.0,0.0,0.0,0.0,0.0,0.0,0.0,0.0,0,0.0,0.0,0.0,0.0,90.0,90.0,90.0,90.01803588870001,90.40000915530001,89.5724029541,45.445999145500004,14.495069503800002,3.4000000954000003,0,2,25,1,104,7616
98,1530571226766,241766, RC,0,39.9586186,-88.445067899,0,0.0,0.0,0.0,0.0,0.0,0.0,0.0,0.0,0.0,0.0,0.0,0.0,0.0,1500,1500,0.0,0.0,40.0636745,-88.1999005,0.0,0.0,0.0,0.0,0.0,0.0,0.0,0.0,0.0,0.0,0.0,0,0.0,0.0,0.0,0.0,90.0,90.0,90.0,90.01803588870001,90.40000915530001,89.5724029541,45.445999145500004,14.495069503800002,3.4000000954000003,0,2,25,1,104,7618
99,1530571226816,241816, RC,0,39.9586186,-88.445067899,0,0.0,0.0,0.0,0.0,0.0,0.0,0.0,0.0,0.0,0.0,0.0,0.0,0.0,1500,1500,0.0,0.0,40.0636745,-88.1999005,0.0,0.0,0.0,0.0,0.0,0.0,0.0,0.0,0.0,0.0,0.0,0,0.0,0.0,0.0,0.0,90.0,90.0,90.0,90.01803588870001,90.40000915530001,89.5724029541,45.445999145500004,14.495069503800002,3.4000000954000003,0,2,25,1,100,7620
100,1530571226867,241867, RC,0,39.9586186,-88.445067899,0,0.0,0.0,0.0,0.0,0.0,0.0,0.0,0.0,0.0,0.0,0.0,0.0,0.0,1500,1500,0.0,0.0,40.0636745,-88.1999005,0.0,0.0,0.0,0.0,0.0,0.0,0.0,0.0,0.0,0.0,0.0,0,0.0,0.0,0.0,0.0,90.0,90.0,90.0,90.01803588870001,90.40000915530001,89.5724029541,45.445999145500004,14.495069503800002,3.4000000954000003,0,2,25,1,95,7621
101,1530571226917,241917, RC,0,39.9586186,-88.445067899,0,0.0,0.0,0.0,0.0,0.0,0.0,0.0,0.0,0.0,0.0,0.0,0.0,0.0,1500,1500,0.0,0.0,40.0636745,-88.1999005,0.0,0.0,0.0,0.0,0.0,0.0,0.0,0.0,0.0,0.0,0.0,0,0.0,0.0,0.0,0.0,90.0,90.0,90.0,90.01803588870001,90.40000915530001,89.5724029541,45.445999145500004,14.495069503800002,3.4000000954000003,0,2,25,1,94,7623
102,1530571226968,241968, RC,0,39.9586186,-88.445067899,0,0.0,0.0,0.0,0.0,0.0,0.0,0.0,0.0,0.0,0.0,0.0,0.0,0.0,1500,1500,0.0,0.0,40.0636745,-88.1999005,0.0,0.0,0.0,0.0,0.0,0.0,0.0,0.0,0.0,0.0,0.0,0,0.0,0.0,0.0,0.0,90.0,90.0,90.0,90.01803588870001,90.40000915530001,89.5724029541,45.445999145500004,14.495069503800002,3.4000000954000003,0,2,25,1,91,7625
103,1530571227019,242019, RC,0,39.9586186,-88.445067899,0,0.0,0.0,0.0,0.0,0.0,0.0,0.0,0.0,0.0,0.0,0.0,0.0,0.0,1500,1500,0.0,0.0,40.0636745,-88.1999005,0.0,0.0,0.0,0.0,0.0,0.0,0.0,0.0,0.0,0.0,0.0,0,0.0,0.0,0.0,0.0,90.0,90.0,90.0,90.01803588870001,90.40000915530001,89.5724029541,45.445999145500004,14.495069503800002,3.4000000954000003,0,2,25,1,94,7626
104,1530571227069,242069, RC,0,39.9586186,-88.445067899,0,0.0,0.0,0.0,0.0,0.0,0.0,0.0,0.0,0.0,0.0,0.0,0.0,0.0,1500,1500,0.0,0.0,40.0636745,-88.1999005,0.0,0.0,0.0,0.0,0.0,0.0,0.0,0.0,0.0,0.0,0.0,0,0.0,0.0,0.0,0.0,90.0,90.0,90.0,90.01803588870001,90.40000915530001,89.5724029541,45.445999145500004,14.495069503800002,3.4000000954000003,0,2,25,1,85,7628
105,1530571227120,242120, RC,0,39.9586186,-88.445067899,0,0.0,0.0,0.0,0.0,0.0,0.0,0.0,0.0,0.0,0.0,0.0,0.0,0.0,1500,1500,0.0,0.0,40.0636726667,-88.1998981667,0.0,0.0,0.0,0.0,0.0,0.0,0.0,0.0,0.0,0.0,0.0,0,0.0,0.0,0.0,0.0,90.0,90.0,90.0,90.01803588870001,90.40000915530001,89.5724029541,45.445999145500004,14.495069503800002,3.4000000954000003,0,2,25,1,105,7630
106,1530571227170,242170, RC,0,39.9586186,-88.445067899,0,0.0,0.0,0.0,0.0,0.0,0.0,0.0,0.0,0.0,0.0,0.0,0.0,0.0,1500,1500,0.0,0.0,40.0636726667,-88.1998981667,0.0,0.0,0.0,0.0,0.0,0.0,0.0,0.0,0.0,0.0,0.0,0,0.0,0.0,0.0,0.0,90.0,90.0,90.0,90.01803588870001,90.40000915530001,89.5724029541,45.445999145500004,14.495069503800002,3.4000000954000003,0,2,25,1,104,7631
107,1530571227221,242221, RC,0,39.9586186,-88.445067899,0,0.0,0.0,0.0,0.0,0.0,0.0,0.0,0.0,0.0,0.0,0.0,0.0,0.0,1500,1500,0.0,0.0,40.0636726667,-88.1998981667,0.0,0.0,0.0,0.0,0.0,0.0,0.0,0.0,0.0,0.0,0.0,0,0.0,0.0,0.0,0.0,90.0,90.0,90.0,90.01803588870001,90.40000915530001,89.5724029541,45.445999145500004,14.495069503800002,3.4000000954000003,0,2,25,1,96,7633
108,1530571227271,242271, RC,0,39.9586186,-88.445067899,0,0.0,0.0,0.0,0.0,0.0,0.0,0.0,0.0,0.0,0.0,0.0,0.0,0.0,1500,1500,0.0,0.0,40.0636726667,-88.1998981667,0.0,0.0,0.0,0.0,0.0,0.0,0.0,0.0,0.0,0.0,0.0,0,0.0,0.0,0.0,0.0,90.0,90.0,90.0,90.01803588870001,90.40000915530001,89.5724029541,45.445999145500004,14.495069503800002,3.4000000954000003,0,2,25,1,99,7635
109,1530571227322,242322, RC,0,39.9586186,-88.445067899,0,0.0,0.0,0.0,0.0,0.0,0.0,0.0,0.0,0.0,0.0,0.0,0.0,0.0,1500,1500,0.0,0.0,40.0636726667,-88.1998981667,0.0,0.0,0.0,0.0,0.0,0.0,0.0,0.0,0.0,0.0,0.0,0,0.0,0.0,0.0,0.0,90.0,90.0,90.0,90.01803588870001,90.40000915530001,89.5724029541,45.445999145500004,14.495069503800002,3.4000000954000003,0,2,25,1,94,7636
110,1530571227372,242372, RC,0,39.9586186,-88.445067899,0,0.0,0.0,0.0,0.0,0.0,0.0,0.0,0.0,0.0,0.0,0.0,0.0,0.0,1500,1500,0.0,0.0,40.0636726667,-88.1998981667,0.0,0.0,0.0,0.0,0.0,0.0,0.0,0.0,0.0,0.0,0.0,0,0.0,0.0,0.0,0.0,90.0,90.0,90.0,90.01803588870001,90.40000915530001,89.5724029541,45.445999145500004,14.495069503800002,3.4000000954000003,0,2,25,1,92,7638
111,1530571227423,242423, RC,0,39.9586186,-88.445067899,0,0.0,0.0,0.0,0.0,0.0,0.0,0.0,0.0,0.0,0.0,0.0,0.0,0.0,1500,1500,0.0,0.0,40.0636726667,-88.1998981667,0.0,0.0,0.0,0.0,0.0,0.0,0.0,0.0,0.0,0.0,0.0,0,0.0,0.0,0.0,0.0,90.0,90.0,90.0,90.01803588870001,90.40000915530001,89.5724029541,45.445999145500004,14.495069503800002,3.4000000954000003,0,2,25,1,96,7640
112,1530571227474,242474, RC,0,39.9586186,-88.445067899,0,0.0,0.0,0.0,0.0,0.0,0.0,0.0,0.0,0.0,0.0,0.0,0.0,0.0,1500,1500,0.0,0.0,40.0636726667,-88.1998981667,0.0,0.0,0.0,0.0,0.0,0.0,0.0,0.0,0.0,0.0,0.0,0,0.0,0.0,0.0,0.0,90.0,90.0,90.0,90.01803588870001,90.40000915530001,89.5724029541,45.445999145500004,14.495069503800002,3.4000000954000003,0,2,25,1,98,7641
113,1530571227524,242524, RC,0,39.9586186,-88.445067899,0,0.0,0.0,0.0,0.0,0.0,0.0,0.0,0.0,0.0,0.0,0.0,0.0,0.0,1500,1500,0.0,0.0,40.0636726667,-88.1998981667,0.0,0.0,0.0,0.0,0.0,0.0,0.0,0.0,0.0,0.0,0.0,0,0.0,0.0,0.0,0.0,90.0,90.0,90.0,90.01803588870001,90.40000915530001,89.5724029541,45.445999145500004,14.513282775899999,3.2399997711,0,2,25,1,90,7643
114,1530571227575,242575, RC,0,39.9586186,-88.445067899,0,0.0,0.0,0.0,0.0,0.0,0.0,0.0,0.0,0.0,0.0,0.0,0.0,0.0,1500,1500,0.0,0.0,40.0636726667,-88.1998981667,0.0,0.0,0.0,0.0,0.0,0.0,0.0,0.0,0.0,0.0,0.0,0,0.0,0.0,0.0,0.0,90.0,90.0,90.0,90.01803588870001,90.40000915530001,89.5724029541,45.445999145500004,14.513282775899999,3.2399997711,0,2,25,1,97,7644
115,1530571227625,242625, RC,0,39.9586186,-88.445067899,0,0.0,0.0,0.0,0.0,0.0,0.0,0.0,0.0,0.0,0.0,0.0,0.0,0.0,1500,1500,0.0,0.0,40.0636726667,-88.1998981667,0.0,0.0,0.0,0.0,0.0,0.0,0.0,0.0,0.0,0.0,0.0,0,0.0,0.0,0.0,0.0,90.0,90.0,90.0,90.01803588870001,90.40000915530001,89.5724029541,45.445999145500004,14.513282775899999,3.2399997711,0,2,25,1,100,7646
116,1530571227676,242676, RC,0,39.9586186,-88.445067899,0,0.0,0.0,0.0,0.0,0.0,0.0,0.0,0.0,0.0,0.0,0.0,0.0,0.0,1500,1500,0.0,0.0,40.0636726667,-88.1998981667,0.0,0.0,0.0,0.0,0.0,0.0,0.0,0.0,0.0,0.0,0.0,0,0.0,0.0,0.0,0.0,90.0,90.0,90.0,90.01803588870001,90.40000915530001,89.5724029541,45.445999145500004,14.513282775899999,3.2399997711,0,2,25,1,87,7648
117,1530571227726,242726, RC,0,39.9586186,-88.445067899,0,0.0,0.0,0.0,0.0,0.0,0.0,0.0,0.0,0.0,0.0,0.0,0.0,0.0,1500,1500,0.0,0.0,40.0636726667,-88.1998981667,0.0,0.0,0.0,0.0,0.0,0.0,0.0,0.0,0.0,0.0,0.0,0,0.0,0.0,0.0,0.0,90.0,90.0,90.0,90.01803588870001,90.40000915530001,89.5724029541,45.445999145500004,14.513282775899999,3.2399997711,0,2,25,1,93,7649
118,1530571227777,242777, RC,0,39.9586186,-88.445067899,0,0.0,0.0,0.0,0.0,0.0,0.0,0.0,0.0,0.0,0.0,0.0,0.0,0.0,1500,1500,0.0,0.0,40.0636726667,-88.1998981667,0.0,0.0,0.0,0.0,0.0,0.0,0.0,0.0,0.0,0.0,0.0,0,0.0,0.0,0.0,0.0,90.0,90.0,90.0,90.01803588870001,90.40000915530001,89.5724029541,45.445999145500004,14.513282775899999,3.2399997711,0,2,25,1,98,7651
119,1530571227827,242827, RC,0,39.9586186,-88.445067899,0,0.0,0.0,0.0,0.0,0.0,0.0,0.0,0.0,0.0,0.0,0.0,0.0,0.0,1500,1500,0.0,0.0,40.0636726667,-88.1998981667,0.0,0.0,0.0,0.0,0.0,0.0,0.0,0.0,0.0,0.0,0.0,0,0.0,0.0,0.0,0.0,90.0,90.0,90.0,90.01803588870001,90.40000915530001,89.5724029541,45.445999145500004,14.513282775899999,3.2399997711,0,2,25,1,99,7653
120,1530571227878,242878, RC,0,39.9586186,-88.445067899,0,0.0,0.0,0.0,0.0,0.0,0.0,0.0,0.0,0.0,0.0,0.0,0.0,0.0,1500,1500,0.0,0.0,40.0636726667,-88.1998981667,0.0,0.0,0.0,0.0,0.0,0.0,0.0,0.0,0.0,0.0,0.0,0,0.0,0.0,0.0,0.0,90.0,90.0,90.0,90.01803588870001,90.40000915530001,89.5724029541,45.445999145500004,14.513282775899999,3.2399997711,0,2,25,1,94,7654
121,1530571227929,242929, RC,0,39.9586186,-88.445067899,0,0.0,0.0,0.0,0.0,0.0,0.0,0.0,0.0,0.0,0.0,0.0,0.0,0.0,1500,1500,0.0,0.0,40.0636726667,-88.1998981667,0.0,0.0,0.0,0.0,0.0,0.0,0.0,0.0,0.0,0.0,0.0,0,0.0,0.0,0.0,0.0,90.0,90.0,90.0,90.01803588870001,90.40000915530001,89.5724029541,45.445999145500004,14.513282775899999,3.2399997711,0,2,25,1,91,7656
122,1530571227979,242979, RC,0,39.9586186,-88.445067899,0,0.0,0.0,0.0,0.0,0.0,0.0,0.0,0.0,0.0,0.0,0.0,0.0,0.0,1500,1500,0.0,0.0,40.0636726667,-88.1998981667,0.0,0.0,0.0,0.0,0.0,0.0,0.0,0.0,0.0,0.0,0.0,0,0.0,0.0,0.0,0.0,90.0,90.0,90.0,90.01803588870001,90.40000915530001,89.5724029541,45.445999145500004,14.513282775899999,3.2399997711,0,2,25,1,95,7658
123,1530571228030,243030, RC,0,39.9586186,-88.445067899,0,0.0,0.0,0.0,0.0,0.0,0.0,0.0,0.0,0.0,0.0,0.0,0.0,0.0,1500,1500,0.0,0.0,40.0636726667,-88.1998981667,0.0,0.0,0.0,0.0,0.0,0.0,0.0,0.0,0.0,0.0,0.0,0,0.0,0.0,0.0,0.0,90.0,90.0,90.0,90.01803588870001,90.40000915530001,89.5724029541,45.445999145500004,14.513282775899999,3.2399997711,0,2,25,1,90,7659
124,1530571228080,243080, RC,0,39.9586186,-88.445067899,0,0.0,0.0,0.0,0.0,0.0,0.0,0.0,0.0,0.0,0.0,0.0,0.0,0.0,1500,1500,0.0,0.0,40.063671,-88.199896,0.0,0.0,0.0,0.0,0.0,0.0,0.0,0.0,0.0,0.0,0.0,0,0.0,0.0,0.0,0.0,90.0,90.0,90.0,90.01803588870001,90.40000915530001,89.5724029541,45.445999145500004,14.513282775899999,3.2399997711,0,2,25,1,95,7661
125,1530571228131,243131, RC,0,39.9586186,-88.445067899,0,0.0,0.0,0.0,0.0,0.0,0.0,0.0,0.0,0.0,0.0,0.0,0.0,0.0,1500,1500,0.0,0.0,40.063671,-88.199896,0.0,0.0,0.0,0.0,0.0,0.0,0.0,0.0,0.0,0.0,0.0,0,0.0,0.0,0.0,0.0,90.0,90.0,90.0,90.01803588870001,90.40000915530001,89.5724029541,45.445999145500004,14.513282775899999,3.2399997711,0,2,25,1,94,7663
126,1530571228182,243182, RC,0,39.9586186,-88.445067899,0,0.0,0.0,0.0,0.0,0.0,0.0,0.0,0.0,0.0,0.0,0.0,0.0,0.0,1500,1500,0.0,0.0,40.063671,-88.199896,0.0,0.0,0.0,0.0,0.0,0.0,0.0,0.0,0.0,0.0,0.0,0,0.0,0.0,0.0,0.0,90.0,90.0,90.0,90.01803588870001,90.40000915530001,89.5724029541,45.445999145500004,14.513282775899999,3.2399997711,0,2,25,1,91,7664
127,1530571228232,243232, RC,0,39.9586186,-88.445067899,0,0.0,0.0,0.0,0.0,0.0,0.0,0.0,0.0,0.0,0.0,0.0,0.0,0.0,1500,1500,0.0,0.0,40.063671,-88.199896,0.0,0.0,0.0,0.0,0.0,0.0,0.0,0.0,0.0,0.0,0.0,0,0.0,0.0,0.0,0.0,90.0,90.0,90.0,90.01803588870001,90.40000915530001,89.5724029541,45.445999145500004,14.513282775899999,3.2399997711,0,2,25,1,93,7666
128,1530571228283,243283, RC,0,39.9586186,-88.445067899,0,0.0,0.0,0.0,0.0,0.0,0.0,0.0,0.0,0.0,0.0,0.0,0.0,0.0,1500,1500,0.0,0.0,40.063671,-88.199896,0.0,0.0,0.0,0.0,0.0,0.0,0.0,0.0,0.0,0.0,0.0,0,0.0,0.0,0.0,0.0,90.0,90.0,90.0,90.01803588870001,90.40000915530001,89.5724029541,45.445999145500004,14.513282775899999,3.2399997711,0,2,25,1,95,7668
129,1530571228333,243333, RC,0,39.9586186,-88.445067899,0,0.0,0.0,0.0,0.0,0.0,0.0,0.0,0.0,0.0,0.0,0.0,0.0,0.0,1500,1500,0.0,0.0,40.063671,-88.199896,0.0,0.0,0.0,0.0,0.0,0.0,0.0,0.0,0.0,0.0,0.0,0,0.0,0.0,0.0,0.0,90.0,90.0,90.0,90.01803588870001,90.40000915530001,89.5724029541,45.445999145500004,14.513282775899999,3.2399997711,0,2,25,1,90,7669
130,1530571228384,243384, RC,0,39.9586186,-88.445067899,0,0.0,0.0,0.0,0.0,0.0,0.0,0.0,0.0,0.0,0.0,0.0,0.0,0.0,1500,1500,0.0,0.0,40.063671,-88.199896,0.0,0.0,0.0,0.0,0.0,0.0,0.0,0.0,0.0,0.0,0.0,0,0.0,0.0,0.0,0.0,90.0,90.0,90.0,90.01803588870001,90.40000915530001,89.5724029541,45.445999145500004,14.513282775899999,3.2399997711,0,2,25,1,95,7671
131,1530571228434,243434, RC,0,39.9586186,-88.445067899,0,0.0,0.0,0.0,0.0,0.0,0.0,0.0,0.0,0.0,0.0,0.0,0.0,0.0,1500,1500,0.0,0.0,40.063671,-88.199896,0.0,0.0,0.0,0.0,0.0,0.0,0.0,0.0,0.0,0.0,0.0,0,0.0,0.0,0.0,0.0,90.0,90.0,90.0,90.01803588870001,90.3363494873,89.5724029541,45.445999145500004,14.513282775899999,3.2399997711,0,2,25,1,97,7673
132,1530571228485,243485, RC,0,39.9586186,-88.445067899,0,0.0,0.0,0.0,0.0,0.0,0.0,0.0,0.0,0.0,0.0,0.0,0.0,0.0,1500,1500,0.0,0.0,40.063671,-88.199896,0.0,0.0,0.0,0.0,0.0,0.0,0.0,0.0,0.0,0.0,0.0,0,0.0,0.0,0.0,0.0,90.0,90.0,90.0,90.01803588870001,90.145362854,89.5724029541,45.445999145500004,14.513282775899999,3.2399997711,0,2,25,1,99,7674
133,1530571228536,243536, RC,0,39.9586186,-88.445067899,0,0.0,0.0,0.0,0.0,0.0,0.0,0.0,0.0,0.0,0.0,0.0,0.0,0.0,1500,1500,0.0,0.0,40.063671,-88.199896,0.0,0.0,0.0,0.0,0.0,0.0,0.0,0.0,0.0,0.0,0.0,0,0.0,0.0,0.0,0.0,90.0,90.0,90.0,90.01803588870001,90.145362854,89.5724029541,45.445999145500004,14.5182418823,3.3499999045999997,0,2,25,1,93,7677
134,1530571228586,243586, RC,0,39.9586186,-88.445067899,0,0.0,0.0,0.0,0.0,0.0,0.0,0.0,0.0,0.0,0.0,0.0,0.0,0.0,1500,1500,0.0,0.0,40.063671,-88.199896,0.0,0.0,0.0,0.0,0.0,0.0,0.0,0.0,0.0,0.0,0.0,0,0.0,0.0,0.0,0.0,90.0,90.0,90.0,90.01803588870001,90.145362854,89.5724029541,45.445999145500004,14.5182418823,3.3499999045999997,0,2,25,1,102,7679
135,1530571228637,243637, RC,0,39.9586186,-88.445067899,0,0.0,0.0,0.0,0.0,0.0,0.0,0.0,0.0,0.0,0.0,0.0,0.0,0.0,1500,1500,0.0,0.0,40.063671,-88.199896,0.0,0.0,0.0,0.0,0.0,0.0,0.0,0.0,0.0,0.0,0.0,0,0.0,0.0,0.0,0.0,90.0,90.0,90.0,90.01803588870001,90.145362854,89.5724029541,45.445999145500004,14.5182418823,3.3499999045999997,0,2,25,1,103,7681
136,1530571228687,243687, RC,0,39.9586186,-88.445067899,0,0.0,0.0,0.0,0.0,0.0,0.0,0.0,0.0,0.0,0.0,0.0,0.0,0.0,1500,1500,0.0,0.0,40.063671,-88.199896,0.0,0.0,0.0,0.0,0.0,0.0,0.0,0.0,0.0,0.0,0.0,0,0.0,0.0,0.0,0.0,90.0,90.0,90.0,90.01803588870001,90.145362854,89.5724029541,45.445999145500004,14.5182418823,3.3499999045999997,0,2,25,1,102,7682
137,1530571228738,243738, RC,0,39.9586186,-88.445067899,0,0.0,0.0,0.0,0.0,0.0,0.0,0.0,0.0,0.0,0.0,0.0,0.0,0.0,1500,1500,0.0,0.0,40.063671,-88.199896,0.0,0.0,0.0,0.0,0.0,0.0,0.0,0.0,0.0,0.0,0.0,0,0.0,0.0,0.0,0.0,90.0,90.0,90.0,90.01803588870001,90.145362854,89.5724029541,45.445999145500004,14.5182418823,3.3499999045999997,0,2,25,1,99,7684
138,1530571228789,243789, RC,0,39.9586186,-88.445067899,0,0.0,0.0,0.0,0.0,0.0,0.0,0.0,0.0,0.0,0.0,0.0,0.0,0.0,1500,1500,0.0,0.0,40.063671,-88.199896,0.0,0.0,0.0,0.0,0.0,0.0,0.0,0.0,0.0,0.0,0.0,0,0.0,0.0,0.0,0.0,90.0,90.0,90.0,90.01803588870001,90.145362854,89.5724029541,45.445999145500004,14.5182418823,3.3499999045999997,0,2,25,1,98,7686
139,1530571228839,243839, RC,0,39.9586186,-88.445067899,0,0.0,0.0,0.0,0.0,0.0,0.0,0.0,0.0,0.0,0.0,0.0,0.0,0.0,1500,1500,0.0,0.0,40.063671,-88.199896,0.0,0.0,0.0,0.0,0.0,0.0,0.0,0.0,0.0,0.0,0.0,0,0.0,0.0,0.0,0.0,90.0,90.0,90.0,90.01803588870001,90.145362854,89.5724029541,45.445999145500004,14.5182418823,3.3499999045999997,0,2,25,1,97,7687
140,1530571228890,243890, RC,0,39.9586186,-88.445067899,0,0.0,0.0,0.0,0.0,0.0,0.0,0.0,0.0,0.0,0.0,0.0,0.0,0.0,1500,1500,0.0,0.0,40.063671,-88.199896,0.0,0.0,0.0,0.0,0.0,0.0,0.0,0.0,0.0,0.0,0.0,0,0.0,0.0,0.0,0.0,90.0,90.0,90.0,90.01803588870001,90.145362854,89.5724029541,45.445999145500004,14.5182418823,3.3499999045999997,0,2,25,1,98,7689
141,1530571228940,243940, RC,0,39.9586186,-88.445067899,0,0.0,0.0,0.0,0.0,0.0,0.0,0.0,0.0,0.0,0.0,0.0,0.0,0.0,1500,1500,0.0,0.0,40.063671,-88.199896,0.0,0.0,0.0,0.0,0.0,0.0,0.0,0.0,0.0,0.0,0.0,0,0.0,0.0,0.0,0.0,90.0,90.0,90.0,90.01803588870001,90.145362854,89.5724029541,45.445999145500004,14.5182418823,3.3499999045999997,0,2,25,1,100,7691
142,1530571228991,243991, RC,0,39.9586186,-88.445067899,0,0.0,0.0,0.0,0.0,0.0,0.0,0.0,0.0,0.0,0.0,0.0,0.0,0.0,1500,1500,0.0,0.0,40.063671,-88.199896,0.0,0.0,0.0,0.0,0.0,0.0,0.0,0.0,0.0,0.0,0.0,0,0.0,0.0,0.0,0.0,90.0,90.0,90.0,90.01803588870001,90.145362854,89.5724029541,45.445999145500004,14.5182418823,3.3499999045999997,0,2,25,1,101,7693
143,1530571229041,244041, RC,0,39.9586186,-88.445067899,0,0.0,0.0,0.0,0.0,0.0,0.0,0.0,0.0,0.0,0.0,0.0,0.0,0.0,1500,1500,0.0,0.0,40.063671,-88.199896,0.0,0.0,0.0,0.0,0.0,0.0,0.0,0.0,0.0,0.0,0.0,0,0.0,0.0,0.0,0.0,90.0,90.0,90.0,90.01803588870001,90.145362854,89.5724029541,45.445999145500004,14.5182418823,3.3499999045999997,0,2,25,1,99,7694
144,1530571229092,244092, RC,0,39.9586186,-88.445067899,0,0.0,0.0,0.0,0.0,0.0,0.0,0.0,0.0,0.0,0.0,0.0,0.0,0.0,1500,1500,0.0,0.0,40.06367,-88.1998936667,0.0,0.0,0.0,0.0,0.0,0.0,0.0,0.0,0.0,0.0,0.0,0,0.0,0.0,0.0,0.0,90.0,90.0,90.0,90.01803588870001,90.145362854,89.5724029541,45.445999145500004,14.5182418823,3.3499999045999997,0,2,25,1,94,7696
145,1530571229143,244143, RC,0,39.9586186,-88.445067899,0,0.0,0.0,0.0,0.0,0.0,0.0,0.0,0.0,0.0,0.0,0.0,0.0,0.0,1500,1500,0.0,0.0,40.06367,-88.1998936667,0.0,0.0,0.0,0.0,0.0,0.0,0.0,0.0,0.0,0.0,0.0,0,0.0,0.0,0.0,0.0,90.0,90.0,90.0,90.01803588870001,90.145362854,89.5724029541,45.445999145500004,14.5182418823,3.3499999045999997,0,2,25,1,95,7698
146,1530571229193,244193, RC,0,39.9586186,-88.445067899,0,0.0,0.0,0.0,0.0,0.0,0.0,0.0,0.0,0.0,0.0,0.0,0.0,0.0,1500,1500,0.0,0.0,40.06367,-88.1998936667,0.0,0.0,0.0,0.0,0.0,0.0,0.0,0.0,0.0,0.0,0.0,0,0.0,0.0,0.0,0.0,90.0,90.0,90.0,90.01803588870001,90.145362854,89.5724029541,45.445999145500004,14.5182418823,3.3499999045999997,0,2,25,1,95,7700
147,1530571229244,244244, RC,0,39.9586186,-88.445067899,0,0.0,0.0,0.0,0.0,0.0,0.0,0.0,0.0,0.0,0.0,0.0,0.0,0.0,1500,1500,0.0,0.0,40.06367,-88.1998936667,0.0,0.0,0.0,0.0,0.0,0.0,0.0,0.0,0.0,0.0,0.0,0,0.0,0.0,0.0,0.0,90.0,90.0,90.0,90.01803588870001,90.145362854,89.5724029541,45.445999145500004,14.5182418823,3.3499999045999997,0,2,25,1,95,7701
148,1530571229294,244294, RC,0,39.9586186,-88.445067899,0,0.0,0.0,0.0,0.0,0.0,0.0,0.0,0.0,0.0,0.0,0.0,0.0,0.0,1500,1500,0.0,0.0,40.06367,-88.1998936667,0.0,0.0,0.0,0.0,0.0,0.0,0.0,0.0,0.0,0.0,0.0,0,0.0,0.0,0.0,0.0,90.0,90.0,90.0,90.01803588870001,90.145362854,89.5724029541,45.445999145500004,14.5182418823,3.3499999045999997,0,2,25,1,92,7703
149,1530571229345,244345, RC,0,39.9586186,-88.445067899,0,0.0,0.0,0.0,0.0,0.0,0.0,0.0,0.0,0.0,0.0,0.0,0.0,0.0,1500,1500,0.0,0.0,40.06367,-88.1998936667,0.0,0.0,0.0,0.0,0.0,0.0,0.0,0.0,0.0,0.0,0.0,0,0.0,0.0,0.0,0.0,90.0,90.0,90.0,90.01803588870001,90.145362854,89.5724029541,44.9079971313,14.5182418823,3.3499999045999997,0,2,25,1,87,7705
150,1530571229395,244395, RC,0,39.9586186,-88.445067899,0,0.0,0.0,0.0,0.0,0.0,0.0,0.0,0.0,0.0,0.0,0.0,0.0,0.0,1500,1500,0.0,0.0,40.06367,-88.1998936667,0.0,0.0,0.0,0.0,0.0,0.0,0.0,0.0,0.0,0.0,0.0,0,0.0,0.0,0.0,0.0,90.0,90.0,90.0,90.01803588870001,90.145362854,89.5724029541,44.9079971313,14.5182418823,3.3499999045999997,0,2,25,1,85,7707
151,1530571229446,244446, RC,0,39.9586186,-88.445067899,0,0.0,0.0,0.0,0.0,0.0,0.0,0.0,0.0,0.0,0.0,0.0,0.0,0.0,1500,1500,0.0,0.0,40.06367,-88.1998936667,0.0,0.0,0.0,0.0,0.0,0.0,0.0,0.0,0.0,0.0,0.0,0,0.0,0.0,0.0,0.0,90.0,90.0,90.0,90.01803588870001,90.145362854,89.5724029541,44.9079971313,14.5182418823,3.3499999045999997,0,2,25,1,96,7709
152,1530571229496,244496, RC,0,39.9586186,-88.445067899,0,0.0,0.0,0.0,0.0,0.0,0.0,0.0,0.0,0.0,0.0,0.0,0.0,0.0,1500,1500,0.0,0.0,40.06367,-88.1998936667,0.0,0.0,0.0,0.0,0.0,0.0,0.0,0.0,0.0,0.0,0.0,0,0.0,0.0,0.0,0.0,90.0,90.0,90.0,90.01803588870001,90.145362854,89.5724029541,44.9079971313,14.5182418823,3.3499999045999997,0,2,25,1,96,7710
153,1530571229547,244547, RC,0,39.9586186,-88.445067899,0,0.0,0.0,0.0,0.0,0.0,0.0,0.0,0.0,0.0,0.0,0.0,0.0,0.0,1500,1500,0.0,0.0,40.06367,-88.1998936667,0.0,0.0,0.0,0.0,0.0,0.0,0.0,0.0,0.0,0.0,0.0,0,0.0,0.0,0.0,0.0,90.0,90.0,90.0,90.01803588870001,90.145362854,89.5724029541,44.9079971313,14.5182695389,3.4600000381,0,2,25,1,93,7712
154,1530571229598,244598, RC,0,39.9586186,-88.445067899,0,0.0,0.0,0.0,0.0,0.0,0.0,0.0,0.0,0.0,0.0,0.0,0.0,0.0,1500,1500,0.0,0.0,40.06367,-88.1998936667,0.0,0.0,0.0,0.0,0.0,0.0,0.0,0.0,0.0,0.0,0.0,0,0.0,0.0,0.0,0.0,90.0,90.0,90.0,90.01803588870001,90.145362854,89.5724029541,44.9079971313,14.5182695389,3.4600000381,0,2,25,1,92,7714
155,1530571229648,244648, RC,0,39.9586186,-88.445067899,0,0.0,0.0,0.0,0.0,0.0,0.0,0.0,0.0,0.0,0.0,0.0,0.0,0.0,1500,1500,0.0,0.0,40.06367,-88.1998936667,0.0,0.0,0.0,0.0,0.0,0.0,0.0,0.0,0.0,0.0,0.0,0,0.0,0.0,0.0,0.0,90.0,90.0,90.0,90.01803588870001,90.145362854,89.5724029541,44.9079971313,14.5182695389,3.4600000381,0,2,25,1,93,7716
156,1530571229699,244699, RC,0,39.9586186,-88.445067899,0,0.0,0.0,0.0,0.0,0.0,0.0,0.0,0.0,0.0,0.0,0.0,0.0,0.0,1500,1500,0.0,0.0,40.06367,-88.1998936667,0.0,0.0,0.0,0.0,0.0,0.0,0.0,0.0,0.0,0.0,0.0,0,0.0,0.0,0.0,0.0,90.0,90.0,90.0,90.01803588870001,90.145362854,89.5724029541,44.9079971313,14.5182695389,3.4600000381,0,2,25,1,92,7717
157,1530571229749,244749, RC,0,39.9586186,-88.445067899,0,0.0,0.0,0.0,0.0,0.0,0.0,0.0,0.0,0.0,0.0,0.0,0.0,0.0,1500,1500,0.0,0.0,40.06367,-88.1998936667,0.0,0.0,0.0,0.0,0.0,0.0,0.0,0.0,0.0,0.0,0.0,0,0.0,0.0,0.0,0.0,90.0,90.0,90.0,90.01803588870001,90.145362854,89.5724029541,44.9079971313,14.5182695389,3.4600000381,0,2,25,1,98,7719
158,1530571229800,244800, RC,0,39.9586186,-88.445067899,0,0.0,0.0,0.0,0.0,0.0,0.0,0.0,0.0,0.0,0.0,0.0,0.0,0.0,1500,1500,0.0,0.0,40.06367,-88.1998936667,0.0,0.0,0.0,0.0,0.0,0.0,0.0,0.0,0.0,0.0,0.0,0,0.0,0.0,0.0,0.0,90.0,90.0,90.0,90.01803588870001,90.145362854,89.5724029541,44.9079971313,14.5182695389,3.4600000381,0,2,25,1,94,7721
159,1530571229851,244851, RC,0,39.9586186,-88.445067899,0,0.0,0.0,0.0,0.0,0.0,0.0,0.0,0.0,0.0,0.0,0.0,0.0,0.0,1500,1500,0.0,0.0,40.06367,-88.1998936667,0.0,0.0,0.0,0.0,0.0,0.0,0.0,0.0,0.0,0.0,0.0,0,0.0,0.0,0.0,0.0,90.0,90.0,90.0,90.01803588870001,90.145362854,89.5724029541,44.9079971313,14.5182695389,3.4600000381,0,2,25,1,99,7723
160,1530571229901,244901, RC,0,39.9586186,-88.445067899,0,0.0,0.0,0.0,0.0,0.0,0.0,0.0,0.0,0.0,0.0,0.0,0.0,0.0,1500,1500,0.0,0.0,40.06367,-88.1998936667,0.0,0.0,0.0,0.0,0.0,0.0,0.0,0.0,0.0,0.0,0.0,0,0.0,0.0,0.0,0.0,90.0,90.0,90.0,90.01803588870001,90.145362854,89.5724029541,44.9079971313,14.5182695389,3.4600000381,0,2,25,1,93,7724
161,1530571229952,244952, RC,0,39.9586186,-88.445067899,0,0.0,0.0,0.0,0.0,0.0,0.0,0.0,0.0,0.0,0.0,0.0,0.0,0.0,1500,1500,0.0,0.0,40.06367,-88.1998936667,0.0,0.0,0.0,0.0,0.0,0.0,0.0,0.0,0.0,0.0,0.0,0,0.0,0.0,0.0,0.0,90.0,90.0,90.0,90.01803588870001,90.145362854,89.5724029541,44.9079971313,14.5182695389,3.4600000381,0,2,25,1,84,7726
162,1530571230002,245002, RC,0,39.9586186,-88.445067899,0,0.0,0.0,0.0,0.0,0.0,0.0,0.0,0.0,0.0,0.0,0.0,0.0,0.0,1500,1500,0.0,0.0,40.06367,-88.1998936667,0.0,0.0,0.0,0.0,0.0,0.0,0.0,0.0,0.0,0.0,0.0,0,0.0,0.0,0.0,0.0,90.0,90.0,90.0,90.01803588870001,90.145362854,89.5724029541,44.9079971313,14.5182695389,3.4600000381,0,2,25,1,84,7728
163,1530571230053,245053, RC,0,39.9586186,-88.445067899,0,0.0,0.0,0.0,0.0,0.0,0.0,0.0,0.0,0.0,0.0,0.0,0.0,0.0,1500,1500,0.0,0.0,40.06367,-88.1998936667,0.0,0.0,0.0,0.0,0.0,0.0,0.0,0.0,0.0,0.0,0.0,0,0.0,0.0,0.0,0.0,90.0,90.0,90.0,90.01803588870001,90.145362854,89.5724029541,44.9079971313,14.5182695389,3.4600000381,0,2,25,1,98,7730
164,1530571230103,245103, RC,0,39.9586186,-88.445067899,0,0.0,0.0,0.0,0.0,0.0,0.0,0.0,0.0,0.0,0.0,0.0,0.0,0.0,1500,1500,0.0,0.0,40.0636701667,-88.1998906667,0.0,0.0,0.0,0.0,0.0,0.0,0.0,0.0,0.0,0.0,0.0,0,0.0,0.0,0.0,0.0,90.0,90.0,90.0,90.01803588870001,90.145362854,89.5724029541,44.9079971313,14.5182695389,3.4600000381,0,2,25,1,87,7732
165,1530571230154,245154, RC,0,39.9586186,-88.445067899,0,0.0,0.0,0.0,0.0,0.0,0.0,0.0,0.0,0.0,0.0,0.0,0.0,0.0,1500,1500,0.0,0.0,40.0636701667,-88.1998906667,0.0,0.0,0.0,0.0,0.0,0.0,0.0,0.0,0.0,0.0,0.0,0,0.0,0.0,0.0,0.0,90.0,90.0,90.0,90.01803588870001,90.145362854,89.5724029541,44.9079971313,14.5182695389,3.4600000381,0,2,25,1,93,7733
166,1530571230204,245204, RC,0,39.9586186,-88.445067899,0,0.0,0.0,0.0,0.0,0.0,0.0,0.0,0.0,0.0,0.0,0.0,0.0,0.0,1500,1500,0.0,0.0,40.0636701667,-88.1998906667,0.0,0.0,0.0,0.0,0.0,0.0,0.0,0.0,0.0,0.0,0.0,0,0.0,0.0,0.0,0.0,90.0,90.0,90.0,90.01803588870001,90.145362854,89.5724029541,44.9079971313,14.5182695389,3.4600000381,0,2,25,1,90,7735
167,1530571230255,245255, RC,0,39.9586186,-88.445067899,0,0.0,0.0,0.0,0.0,0.0,0.0,0.0,0.0,0.0,0.0,0.0,0.0,0.0,1500,1500,0.0,0.0,40.0636701667,-88.1998906667,0.0,0.0,0.0,0.0,0.0,0.0,0.0,0.0,0.0,0.0,0.0,0,0.0,0.0,0.0,0.0,90.0,90.0,90.0,90.01803588870001,90.145362854,89.5724029541,44.9079971313,14.5182695389,3.4600000381,0,2,25,1,85,7737
168,1530571230305,245305, RC,0,39.9586186,-88.445067899,0,0.0,0.0,0.0,0.0,0.0,0.0,0.0,0.0,0.0,0.0,0.0,0.0,0.0,1500,1500,0.0,0.0,40.0636701667,-88.1998906667,0.0,0.0,0.0,0.0,0.0,0.0,0.0,0.0,0.0,0.0,0.0,0,0.0,0.0,0.0,0.0,90.0,90.0,90.0,90.01803588870001,90.145362854,89.5724029541,44.9079971313,14.5182695389,3.4600000381,0,2,25,1,83,7739
169,1530571230356,245356, RC,0,39.9586186,-88.445067899,0,0.0,0.0,0.0,0.0,0.0,0.0,0.0,0.0,0.0,0.0,0.0,0.0,0.0,1500,1500,0.0,0.0,40.0636701667,-88.1998906667,0.0,0.0,0.0,0.0,0.0,0.0,0.0,0.0,0.0,0.0,0.0,0,0.0,0.0,0.0,0.0,90.0,90.0,90.0,90.01803588870001,90.145362854,89.5724029541,44.9079971313,14.5182695389,3.4600000381,0,2,25,1,91,7740
