,(0)linux time (ms),    (1)uptime  (ms),      (2)drive mode,(3)mpc step counter,(4)mpc origin latitude  (deg),(5)mpc origin longitude  (deg),(6)closest trajectory point index to robot,(7)mpc error x (W;E)  (m),(8)mpc error y (W;E)  (m),(9)abs mpc error (m),(10)input [x] for mhe (m),(11)input [y] for mhe (m),(12)input [speed] for mhe (m/s),(13)input [vyaw] for mhe (rad/s),(14)mhe output x  (m),(15)mhe output y  (m),(16)mhe output speed  (m/s),(17)mhe output yaw  (rad),(18)mpc reference heading (rad),(19)mpc turn rate command (rad/s),(20)turn rate command as PWM,(21)throttle command as PWM,(22)primary gps latitude (deg),(23)primary gps longitude (deg),(24)secondary gps latitude  (deg),(25)secondary gps longitude (deg),(26)accelerometer x (m/s^2),(27)accelerometer y (m/s^2),(28)accelerometer z (m/s^2),(29)gyro yaw rate (rad/s),(30)gyro pitch rate   (rad/s),(31)gyro roll rate (rad/s),      (32)yaw (rad),  (33)pitch   (rad),     (34)roll (rad),(35)sonar1 measurement (m),(36)ultrasonic sensor measurement (m),(37)primary gps time (s),(38)normalized turn rate command,(39)normalized throttle command,(40)speed calculation from encoder left (m/s),(41)speed calculation from encoder right (m/s),(42)front gimbal target angle (degrees from straight down),(43)left gimbal target angle  (degrees from straight down),(44)right gimbal target angle  (degrees from straight down),(45)front gimbal measured angle  (degrees from straight down),(46)left gimbal measured angle    (degrees from straight down),(47)right gimbal measured angle  (degrees from straight down),(48)internal temperature (C),(49)battery voltage (V),(50)primary gps type,(51)secondary gps type,    (52)MPC R value, (53)MPC Q[0] value,Unnamed: 54,weed_num,start
0,1530571371019,386019, RC,0,39.9586186,-88.445067899,0,0.0,0.0,0.0,0.0,0.0,0.0,0.0,0.0,0.0,0.0,0.0,0.0,0.0,1500,1500,0.0,0.0,40.063795,-88.1999151667,0.0,0.0,0.0,0.0,0.0,0.0,0.0,0.0,0.0,0.0,0.0,0,0.0,0.0,0.0,0.0,90.0,90.0,90.0,90.3363494873,89.7633895874,89.9543762207,44.9079971313,14.392672538800001,2.629999876,0,2,25,1,96,0
1,1530571371069,386069, RC,0,39.9586186,-88.445067899,0,0.0,0.0,0.0,0.0,0.0,0.0,0.0,0.0,0.0,0.0,0.0,0.0,0.0,1500,1500,0.0,0.0,40.063795,-88.1999151667,0.0,0.0,0.0,0.0,0.0,0.0,0.0,0.0,0.0,0.0,0.0,0,0.0,0.0,0.0,0.0,90.0,90.0,90.0,90.3363494873,89.7633895874,89.9543762207,44.9079971313,14.392672538800001,2.629999876,0,2,25,1,96,0
2,1530571371119,386119, RC,0,39.9586186,-88.445067899,0,0.0,0.0,0.0,0.0,0.0,0.0,0.0,0.0,0.0,0.0,0.0,0.0,0.0,1500,1480,0.0,0.0,40.063795,-88.1999151667,0.0,0.0,0.0,0.0,0.0,0.0,0.0,0.0,0.0,0.0,0.0,0,0.0,-0.0395690203,0.0,0.0,90.0,90.0,90.0,90.3363494873,89.7633895874,89.9543762207,44.9079971313,14.392672538800001,2.629999876,0,2,25,1,96,0
3,1530571371170,386170, RC,0,39.9586186,-88.445067899,0,0.0,0.0,0.0,0.0,0.0,0.0067135906,0.0,0.0,0.0,0.0,0.0,0.0,0.0,1500,1480,0.0,0.0,40.063795,-88.1999151667,0.0,0.0,0.0,0.0,0.0,0.0,0.0,0.0,0.0,0.0,0.0,0,0.0,-0.0395690203,-0.0058858879,-0.0075412933,90.0,90.0,90.0,90.3363494873,89.7633895874,89.9543762207,44.9079971313,14.392672538800001,2.629999876,0,2,25,1,126,2
4,1530571371220,386220, RC,0,39.9586186,-88.445067899,0,0.0,0.0,0.0,0.0,0.0,0.0131512806,0.0,0.0,0.0,0.0,0.0,0.0,0.0,1500,1480,0.0,0.0,40.0637941667,-88.1999171667,0.0,0.0,0.0,0.0,0.0,0.0,0.0,0.0,0.0,0.0,0.0,0,0.0,-0.0395690203,-0.0126914456,-0.0136111155,90.0,90.0,90.0,90.3363494873,89.6997299194,90.01803588870001,44.9079971313,14.392672538800001,2.629999876,0,2,25,1,127,4
5,1530571371271,386271, RC,0,39.9586186,-88.445067899,0,0.0,0.0,0.0,0.0,0.0,0.022991748500000003,0.0,0.0,0.0,0.0,0.0,0.0,0.0,1500,1480,0.0,0.0,40.0637941667,-88.1999171667,0.0,0.0,0.0,0.0,0.0,0.0,0.0,0.0,0.0,0.0,0.0,0,0.0,-0.0395690203,-0.022256012999999998,-0.023727484,90.0,90.0,90.0,90.40000915530001,89.5724029541,90.01803588870001,44.9079971313,14.392672538800001,2.629999876,0,2,25,1,135,6
6,1530571371321,386321, RC,0,39.9586186,-88.445067899,0,0.0,0.0,0.0,0.0,0.0,0.0281419009,0.0,0.0,0.0,0.0,0.0,0.0,0.0,1500,1508,0.0,0.0,40.0637941667,-88.1999171667,0.0,0.0,0.0,0.0,0.0,0.0,0.0,0.0,0.0,0.0,0.0,0,0.0,0.0161379576,-0.027957966600000002,-0.0283258334,90.0,90.0,90.0,90.3363494873,89.44507598879999,90.0816955566,44.9079971313,14.392672538800001,2.629999876,0,2,25,1,129,8
7,1530571371372,386372, RC,0,39.9586186,-88.445067899,0,0.0,0.0,0.0,0.0,0.0,0.0270382948,0.0,0.0,0.0,0.0,0.0,0.0,0.0,1500,1508,0.0,0.0,40.0637941667,-88.1999171667,0.0,0.0,0.0,0.0,0.0,0.0,0.0,0.0,0.0,0.0,0.0,0,0.0,0.0161379576,-0.0248310883,-0.0292455032,90.0,90.0,90.0,90.2726821899,89.25408935549999,90.2726821899,44.9079971313,14.392672538800001,2.629999876,0,2,25,1,140,10
8,1530571371422,386422, RC,0,39.9586186,-88.445067899,0,0.0,0.0,0.0,0.0,0.0,0.017289795,0.0,0.0,0.0,0.0,0.0,0.0,0.0,1500,1557,0.0,0.0,40.0637941667,-88.1999171667,0.0,0.0,0.0,0.0,0.0,0.0,0.0,0.0,0.0,0.0,0.0,0,0.0,0.11468994619999999,-0.0167379919,-0.017841598,90.0,90.0,90.0,90.4636688232,89.3814163208,90.3363494873,44.9079971313,14.392672538800001,2.629999876,0,2,25,1,148,12
9,1530571371473,386473, RC,0,39.9586186,-88.445067899,0,0.0,0.0,0.0,0.0,0.0,0.0053340858,0.0,0.0,0.0,0.0,0.0,0.0,0.0,1500,1557,0.0,0.0,40.0637941667,-88.1999171667,0.0,0.0,0.0,0.0,0.0,0.0,0.0,0.0,0.0,0.0,0.0,0,0.0,0.11468994619999999,-0.0038626138000000003,-0.0068055578000000005,90.0,90.0,90.0,90.3363494873,90.0816955566,90.2726821899,44.9079971313,14.392672538800001,2.629999876,0,2,25,1,141,14
10,1530571371524,386524, RC,0,39.9586186,-88.445067899,0,0.0,0.0,0.0,0.0,0.0,0.0243712533,0.0,0.0,0.0,0.0,0.0,0.0,0.0,1500,1607,0.0,0.0,40.0637941667,-88.1999171667,0.0,0.0,0.0,0.0,0.0,0.0,0.0,0.0,0.0,0.0,0.0,0,0.0,0.2152930498,0.020232738899999998,0.0285097677,90.0,90.0,90.0,90.40000915530001,90.20902252200001,90.0816955566,44.9079971313,14.392672538800001,2.629999876,0,2,25,1,139,16
11,1530571371574,386574, RC,0,39.9586186,-88.445067899,0,0.0,0.0,0.0,0.0,0.0,0.0457995608,0.0,0.0,0.0,0.0,0.0,0.0,0.0,1500,1607,0.0,0.0,40.0637941667,-88.1999171667,0.0,0.0,0.0,0.0,0.0,0.0,0.0,0.0,0.0,0.0,0.0,0,0.0,0.2152930498,0.0459834971,0.0456156284,90.0,90.0,90.0,90.7819747925,90.40000915530001,89.6997299194,44.9079971313,14.3953952789,18.9099998474,0,2,25,1,135,18
12,1530571371625,386625, RC,0,39.9586186,-88.445067899,0,0.0,0.0,0.0,0.0,0.0,0.0722860545,0.0,0.0,0.0,0.0,0.0,0.0,0.0,1500,1635,0.0,0.0,40.0637941667,-88.1999171667,0.0,0.0,0.0,0.0,0.0,0.0,0.0,0.0,0.0,0.0,0.0,0,0.0,0.2715539932,0.0711824521,0.07338966429999999,90.0,90.0,90.0,90.3363494873,90.7819747925,89.5087432861,44.9079971313,14.3953952789,18.9099998474,0,2,25,1,138,20
13,1530571371675,386675, RC,0,39.9586186,-88.445067899,0,0.0,0.0,0.0,0.0,0.0,0.1010717303,0.0,0.0,0.0,0.0,0.0,0.0,0.0,1500,1635,0.0,0.0,40.0637941667,-88.1999171667,0.0,0.0,0.0,0.0,0.0,0.0,0.0,0.0,0.0,0.0,0.0,0,0.0,0.2715539932,0.09509387609999999,0.1070495844,90.0,90.0,90.0,89.5724029541,90.7183227539,89.25408935549999,44.9079971313,14.3953952789,18.9099998474,0,2,25,1,130,22
14,1530571371726,386726, RC,0,39.9586186,-88.445067899,0,0.0,0.0,0.0,0.0,0.0,0.16388517619999998,0.0,0.0,0.0,0.0,0.0,0.0,0.0,1500,1654,0.0,0.0,40.0637941667,-88.1999171667,0.0,0.0,0.0,0.0,0.0,0.0,0.0,0.0,0.0,0.0,0.0,0,0.0,0.3085839748,0.1666442007,0.1611261666,90.0,90.0,90.0,90.6546554565,90.40000915530001,88.9994430542,44.9079971313,14.3953952789,18.9099998474,0,2,25,1,132,23
15,1530571371776,386776, RC,0,39.9586186,-88.445067899,0,0.0,0.0,0.0,0.0,0.0,0.218881458,0.0,0.0,0.0,0.0,0.0,0.0,0.0,1500,1654,0.0,0.0,40.0637941667,-88.1999171667,0.0,0.0,0.0,0.0,0.0,0.0,0.0,0.0,0.0,0.0,0.0,0,0.0,0.3085839748,0.2157545835,0.22200833260000002,90.0,90.0,90.0,90.5273361206,89.5724029541,89.25408935549999,44.9079971313,14.3953952789,18.9099998474,0,2,25,1,127,25
16,1530571371827,386827, RC,0,39.9586186,-88.445067899,0,0.0,0.0,0.0,0.0,0.0,0.26633644100000003,0.0,0.0,0.0,0.0,0.0,0.0,0.0,1500,1672,0.0,0.0,40.0637941667,-88.1999171667,0.0,0.0,0.0,0.0,0.0,0.0,0.0,0.0,0.0,0.0,0.0,0,0.0,0.3456139565,0.2575075924,0.2751652598,90.0,90.0,90.0,89.5724029541,90.2726821899,88.93578338620001,44.9079971313,14.3953952789,18.9099998474,0,2,25,1,139,26
17,1530571371878,386878, RC,0,39.9586186,-88.445067899,0,0.0,0.0,0.0,0.0,0.0,0.2981570065,0.0,0.0,0.0,0.0,0.0,0.0,0.0,1500,1672,0.0,0.0,40.0637941667,-88.1999171667,0.0,0.0,0.0,0.0,0.0,0.0,0.0,0.0,0.0,0.0,0.0,0,0.0,0.3456139565,0.2961337268,0.30018028620000003,90.0,90.0,90.0,89.25408935549999,90.40000915530001,88.681137085,44.9079971313,14.3953952789,18.9099998474,0,2,25,1,160,28
18,1530571371928,386928, RC,0,39.9586186,-88.445067899,0,0.0,0.0,0.0,0.0,0.0,0.3338401914,0.0,0.0,0.0,0.0,0.0,0.0,0.0,1500,1678,0.0,0.0,40.0637941667,-88.1999171667,0.0,0.0,0.0,0.0,0.0,0.0,0.0,0.0,0.0,0.0,0.0,0,0.0,0.3579579592,0.3257471025,0.3419332802,90.0,90.0,90.0,89.6997299194,90.3363494873,88.74479675290002,44.9079971313,14.3953952789,18.9099998474,0,2,25,1,122,30
19,1530571371979,386979, RC,0,39.9586186,-88.445067899,0,0.0,0.0,0.0,0.0,0.0,0.35499259829999996,0.0,0.0,0.0,0.0,0.0,0.0,0.0,1500,1678,0.0,0.0,40.0637941667,-88.1999171667,0.0,0.0,0.0,0.0,0.0,0.0,0.0,0.0,0.0,0.0,0.0,0,0.0,0.3579579592,0.3533371985,0.35664799810000003,90.0,90.0,90.0,89.3177566528,90.01803588870001,89.12677001950001,44.9079971313,14.3953952789,18.9099998474,0,2,25,1,120,31
20,1530571372029,387029, RC,0,39.9586186,-88.445067899,0,0.0,0.0,0.0,0.0,0.0,0.3814790845,0.0,0.0,0.0,0.0,0.0,0.0,0.0,1500,1678,0.0,0.0,40.0637941667,-88.1999171667,0.0,0.0,0.0,0.0,0.0,0.0,0.0,0.0,0.0,0.0,0.0,0,0.0,0.3579579592,0.3892043233,0.37375387549999994,90.0,90.0,90.0,89.63606262209998,89.6997299194,89.44507598879999,44.9079971313,14.3953952789,18.9099998474,0,2,25,1,127,33
21,1530571372080,387080, RC,0,39.9586186,-88.445067899,0,0.0,0.0,0.0,0.0,0.0,0.4018957913,0.0,0.0,0.0,0.0,0.0,0.0,0.0,1500,1678,0.0,0.0,40.0637941667,-88.1999171667,0.0,0.0,0.0,0.0,0.0,0.0,0.0,0.0,0.0,0.0,0.0,0,0.0,0.3579579592,0.39527416229999995,0.4085174203,90.0,90.0,90.0,89.8907089233,88.8721160889,90.145362854,44.9079971313,14.3953952789,18.9099998474,0,2,25,1,113,35
22,1530571372130,387130, RC,0,39.9586186,-88.445067899,0,0.0,0.0,0.0,0.0,0.0,0.4064021707,0.0,0.0,0.0,0.0,0.0,0.0,0.0,1500,1685,0.0,0.0,40.0637941667,-88.1999171667,0.0,0.0,0.0,0.0,0.0,0.0,0.0,0.0,0.0,0.0,0.0,0,0.0,0.3703010082,0.4035511911,0.4092531204,90.0,90.0,90.0,89.5724029541,88.8721160889,90.4636688232,44.9079971313,14.3953952789,18.9099998474,0,2,25,1,120,36
23,1530571372181,387181, RC,0,39.9586186,-88.445067899,0,0.0,0.0,0.0,0.0,0.0,0.41661047939999996,0.0,0.0,0.0,0.0,0.0,0.0,0.0,1500,1685,0.0,0.0,40.0637941667,-88.1999171667,0.0,0.0,0.0,0.0,0.0,0.0,0.0,0.0,0.0,0.0,0.0,0,0.0,0.3703010082,0.4234160185,0.4098049402,90.0,90.0,90.0,89.5724029541,90.20902252200001,90.2726821899,44.9079971313,14.3953952789,18.9099998474,0,2,25,1,119,38
24,1530571372232,387232, RC,0,39.9586186,-88.445067899,0,0.0,0.0,0.0,0.0,0.0,0.4167944193,0.0,0.0,0.0,0.0,0.0,0.0,0.0,1500,1685,0.0,0.0,40.063795,-88.199917,0.0,0.0,0.0,0.0,0.0,0.0,0.0,0.0,0.0,0.0,0.0,0,0.0,0.3703010082,0.4276465178,0.4059423208,90.0,90.0,90.0,89.9543762207,90.5273361206,89.8907089233,44.9079971313,14.3953952789,18.9099998474,0,2,25,1,116,39
25,1530571372282,387282, RC,0,39.9586186,-88.445067899,0,0.0,0.0,0.0,0.0,0.0,0.4110924602,0.0,0.0,0.0,0.0,0.0,0.0,0.0,1500,1685,0.0,0.0,40.063795,-88.199917,0.0,0.0,0.0,0.0,0.0,0.0,0.0,0.0,0.0,0.0,0.0,0,0.0,0.3703010082,0.4331645668,0.38902038340000006,90.0,90.0,90.0,89.8907089233,89.5087432861,90.145362854,44.9079971313,14.3953952789,18.9099998474,0,2,25,1,113,41
26,1530571372333,387333, RC,0,39.9586186,-88.445067899,0,0.0,0.0,0.0,0.0,0.0,0.41697835920000004,0.0,0.0,0.0,0.0,0.0,0.0,0.0,1500,1685,0.0,0.0,40.063795,-88.199917,0.0,0.0,0.0,0.0,0.0,0.0,0.0,0.0,0.0,0.0,0.0,0,0.0,0.3703010082,0.4412576556,0.3926990628,90.0,90.0,90.0,89.0631027222,89.3814163208,90.9093093872,44.9079971313,14.3953952789,18.9099998474,0,2,25,1,133,43
27,1530571372383,387383, RC,0,39.9586186,-88.445067899,0,0.0,0.0,0.0,0.0,0.0,0.40713787079999997,0.0,0.0,0.0,0.0,0.0,0.0,0.0,1500,1685,0.0,0.0,40.063795,-88.199917,0.0,0.0,0.0,0.0,0.0,0.0,0.0,0.0,0.0,0.0,0.0,0,0.0,0.3703010082,0.4287501276,0.38552564380000004,90.0,90.0,90.0,89.44507598879999,89.25408935549999,91.10028839110001,44.9079971313,14.3953952789,18.9099998474,0,2,25,1,129,44
28,1530571372434,387434, RC,0,39.9586186,-88.445067899,0,0.0,0.0,0.0,0.0,0.0,0.4101728201,0.0,0.0,0.0,0.0,0.0,0.0,0.0,1500,1685,0.0,0.0,40.063795,-88.199917,0.0,0.0,0.0,0.0,0.0,0.0,0.0,0.0,0.0,0.0,0.0,0,0.0,0.3703010082,0.4291180074,0.391227603,90.0,90.0,90.0,90.7819747925,90.0816955566,90.7819747925,44.9079971313,14.3953952789,18.9099998474,0,2,25,1,132,46
29,1530571372484,387484, RC,0,39.9586186,-88.445067899,0,0.0,0.0,0.0,0.0,0.0,0.4110924602,0.0,0.0,0.0,0.0,0.0,0.0,0.0,1500,1685,0.0,0.0,40.063795,-88.199917,0.0,0.0,0.0,0.0,0.0,0.0,0.0,0.0,0.0,0.0,0.0,0,0.0,0.3703010082,0.4322448671,0.3899400532,90.0,90.0,90.0,91.0366287231,91.3549346924,87.9808578491,44.9079971313,14.3953952789,18.9099998474,0,2,25,1,138,47
30,1530571372535,387535, RC,0,39.9586186,-88.445067899,0,0.0,0.0,0.0,0.0,0.0,0.4168863893,0.0,0.0,0.0,0.0,0.0,0.0,0.0,1500,1685,0.0,0.0,40.063795,-88.199917,0.0,0.0,0.0,0.0,0.0,0.0,0.0,0.0,0.0,0.0,0.0,0,0.0,0.3703010082,0.4270947278,0.40667805079999997,90.0,90.0,90.0,90.9729614258,92.5645141602,86.13465881350001,44.9079971313,14.3953952789,18.9099998474,0,2,25,1,156,49
31,1530571372586,387586, RC,0,39.9586186,-88.445067899,0,0.0,0.0,0.0,0.0,0.0,0.4215767086,0.0,0.0,0.0,0.0,0.0,0.0,0.0,1500,1685,0.0,0.0,40.063795,-88.199917,0.0,0.0,0.0,0.0,0.0,0.0,0.0,0.0,0.0,0.0,0.0,0,0.0,0.3703010082,0.4359235764,0.40722984079999996,90.0,90.0,90.0,90.3363494873,91.10028839110001,85.6253585815,44.9079971313,14.3931379318,3.8400001526,0,2,25,1,170,51
32,1530571372636,387636, RC,0,39.9586186,-88.445067899,0,0.0,0.0,0.0,0.0,0.0,0.43068143729999997,0.0,0.0,0.0,0.0,0.0,0.0,0.0,1500,1685,0.0,0.0,40.063795,-88.199917,0.0,0.0,0.0,0.0,0.0,0.0,0.0,0.0,0.0,0.0,0.0,0,0.0,0.3703010082,0.4425451756,0.418817699,90.0,90.0,90.0,89.8907089233,89.63606262209998,87.9171905518,44.9079971313,14.3931379318,3.8400001526,0,2,25,1,176,52
33,1530571372687,387687, RC,0,39.9586186,-88.445067899,0,0.0,0.0,0.0,0.0,0.0,0.4270027876,0.0,0.0,0.0,0.0,0.0,0.0,0.0,1500,1685,0.0,0.0,40.063795,-88.199917,0.0,0.0,0.0,0.0,0.0,0.0,0.0,0.0,0.0,0.0,0.0,0,0.0,0.3703010082,0.44603994490000004,0.40796560049999997,90.0,90.0,90.0,90.5273361206,88.6174697876,91.9279022217,44.9079971313,14.3931379318,3.8400001526,0,2,25,1,177,54
34,1530571372737,387737, RC,0,39.9586186,-88.445067899,0,0.0,0.0,0.0,0.0,0.0,0.4326127172,0.0,0.0,0.0,0.0,0.0,0.0,0.0,1500,1685,0.0,0.0,40.063795,-88.199917,0.0,0.0,0.0,0.0,0.0,0.0,0.0,0.0,0.0,0.0,0.0,0,0.0,0.3703010082,0.44806319479999995,0.41716226939999995,90.0,90.0,90.0,91.2276153564,88.2991638184,92.9464874268,44.9079971313,14.3931379318,3.8400001526,0,2,25,1,177,56
35,1530571372788,387788, RC,0,39.9586186,-88.445067899,0,0.0,0.0,0.0,0.0,0.0,0.43417620659999995,0.0,0.0,0.0,0.0,0.0,0.0,0.0,1500,1685,0.0,0.0,40.063795,-88.199917,0.0,0.0,0.0,0.0,0.0,0.0,0.0,0.0,0.0,0.0,0.0,0,0.0,0.3703010082,0.4502704144,0.418081969,90.0,90.0,90.0,90.4636688232,89.82704925540001,91.800567627,44.9079971313,14.3931379318,3.8400001526,0,2,25,1,184,57
36,1530571372839,387839, RC,0,39.9586186,-88.445067899,0,0.0,0.0,0.0,0.0,0.0,0.4439246655,0.0,0.0,0.0,0.0,0.0,0.0,0.0,1500,1685,0.0,0.0,40.063795,-88.199917,0.0,0.0,0.0,0.0,0.0,0.0,0.0,0.0,0.0,0.0,0.0,0,0.0,0.3703010082,0.45799562340000005,0.42985373740000005,90.0,90.0,90.0,90.20902252200001,90.5909881592,89.25408935549999,44.9079971313,14.3931379318,3.8400001526,0,2,25,1,170,59
37,1530571372889,387889, RC,0,39.9586186,-88.445067899,0,0.0,0.0,0.0,0.0,0.0,0.4425451756,0.0,0.0,0.0,0.0,0.0,0.0,0.0,1500,1685,0.0,0.0,40.063795,-88.199917,0.0,0.0,0.0,0.0,0.0,0.0,0.0,0.0,0.0,0.0,0.0,0,0.0,0.3703010082,0.4565241635,0.4285661876,90.0,90.0,90.0,90.0816955566,90.5909881592,87.9808578491,44.9079971313,14.3931379318,3.8400001526,0,2,25,1,171,60
38,1530571372940,387940, RC,0,39.9586186,-88.445067899,0,0.0,0.0,0.0,0.0,0.0,0.4426371455,0.0,0.0,0.0,0.0,0.0,0.0,0.0,1500,1685,0.0,0.0,40.063795,-88.199917,0.0,0.0,0.0,0.0,0.0,0.0,0.0,0.0,0.0,0.0,0.0,0,0.0,0.3703010082,0.453581214,0.4316930771,90.0,90.0,90.0,89.25408935549999,90.8456420898,87.7898712158,44.9079971313,14.3931379318,3.8400001526,0,2,25,1,183,62
39,1530571372990,387990, RC,0,39.9586186,-88.445067899,0,0.0,0.0,0.0,0.0,0.0,0.4382227361,0.0,0.0,0.0,0.0,0.0,0.0,0.0,1500,1685,0.0,0.0,40.063795,-88.199917,0.0,0.0,0.0,0.0,0.0,0.0,0.0,0.0,0.0,0.0,0.0,0,0.0,0.3703010082,0.4552366138,0.4212088585,90.0,90.0,90.0,89.25408935549999,89.82704925540001,87.7898712158,44.9079971313,14.3931379318,3.8400001526,0,2,25,1,162,64
40,1530571373041,388041, RC,0,39.9586186,-88.445067899,0,0.0,0.0,0.0,0.0,0.0,0.4310492873,0.0,0.0,0.0,0.0,0.0,0.0,0.0,1500,1685,0.0,0.0,40.063795,-88.199917,0.0,0.0,0.0,0.0,0.0,0.0,0.0,0.0,0.0,0.0,0.0,0,0.0,0.3703010082,0.43978616600000003,0.4223124385,90.0,90.0,90.0,90.40000915530001,89.44507598879999,88.681137085,44.9079971313,14.3931379318,3.8400001526,0,2,25,1,133,66
41,1530571373091,388091, RC,0,39.9586186,-88.445067899,0,0.0,0.0,0.0,0.0,0.0,0.4317850471,0.0,0.0,0.0,0.0,0.0,0.0,0.0,1500,1685,0.0,0.0,40.063795,-88.199917,0.0,0.0,0.0,0.0,0.0,0.0,0.0,0.0,0.0,0.0,0.0,0,0.0,0.3703010082,0.4359235764,0.4276465178,90.0,90.0,90.0,90.5273361206,89.5724029541,89.9543762207,44.9079971313,14.3931379318,3.8400001526,0,2,25,1,136,67
42,1530571373142,388142, RC,0,39.9586186,-88.445067899,0,0.0,0.0,0.0,0.0,0.0,0.4269107878,0.0,0.0,0.0,0.0,0.0,0.0,0.0,1500,1685,0.0,0.0,40.063795,-88.199917,0.0,0.0,0.0,0.0,0.0,0.0,0.0,0.0,0.0,0.0,0.0,0,0.0,0.3703010082,0.4316930771,0.4221284986,90.0,90.0,90.0,91.48226165770001,89.3814163208,91.0366287231,44.9079971313,14.3931379318,3.8400001526,0,2,25,1,153,69
43,1530571373193,388193, RC,0,39.9586186,-88.445067899,0,0.0,0.0,0.0,0.0,0.0,0.4314171672,0.0,0.0,0.0,0.0,0.0,0.0,0.0,1500,1685,0.0,0.0,40.063797,-88.1999246667,0.0,0.0,0.0,0.0,0.0,0.0,0.0,0.0,0.0,0.0,0.0,0,0.0,0.3703010082,0.432428807,0.43040552740000004,90.0,90.0,90.0,91.29127502440001,88.74479675290002,91.800567627,44.9079971313,14.3931379318,3.8400001526,0,2,25,1,203,71
44,1530571373243,388243, RC,0,39.9586186,-88.445067899,0,0.0,0.0,0.0,0.0,0.0,0.43408423659999995,0.0,0.0,0.0,0.0,0.0,0.0,0.0,1500,1685,0.0,0.0,40.063797,-88.1999246667,0.0,0.0,0.0,0.0,0.0,0.0,0.0,0.0,0.0,0.0,0.0,0,0.0,0.3703010082,0.4419933856,0.4261750579,90.0,90.0,90.0,89.9543762207,88.681137085,91.9279022217,44.9079971313,14.3931379318,3.8400001526,0,2,25,1,198,72
45,1530571373294,388294, RC,0,39.9586186,-88.445067899,0,0.0,0.0,0.0,0.0,0.0,0.4423612356,0.0,0.0,0.0,0.0,0.0,0.0,0.0,1500,1685,0.0,0.0,40.063797,-88.1999246667,0.0,0.0,0.0,0.0,0.0,0.0,0.0,0.0,0.0,0.0,0.0,0,0.0,0.3703010082,0.44898286460000003,0.4357396364,90.0,90.0,90.0,89.5724029541,89.82704925540001,90.145362854,44.9079971313,14.3931379318,3.8400001526,0,2,25,1,181,74
46,1530571373344,388344, RC,0,39.9586186,-88.445067899,0,0.0,0.0,0.0,0.0,0.0,0.4496266246,0.0,0.0,0.0,0.0,0.0,0.0,0.0,1500,1685,0.0,0.0,40.063797,-88.1999246667,0.0,0.0,0.0,0.0,0.0,0.0,0.0,0.0,0.0,0.0,0.0,0,0.0,0.3703010082,0.4563402236,0.4429130554,90.0,90.0,90.0,88.74479675290002,90.7183227539,88.9994430542,44.9079971313,14.3931379318,3.8400001526,0,2,25,1,148,76
47,1530571373395,388395, RC,0,39.9586186,-88.445067899,0,0.0,0.0,0.0,0.0,0.0,0.4508222044,0.0,0.0,0.0,0.0,0.0,0.0,0.0,1500,1685,0.0,0.0,40.063797,-88.1999246667,0.0,0.0,0.0,0.0,0.0,0.0,0.0,0.0,0.0,0.0,0.0,0,0.0,0.3703010082,0.4585474432,0.4430969656,90.0,90.0,90.0,89.0631027222,90.7819747925,87.9808578491,44.9079971313,14.3931379318,3.8400001526,0,2,25,1,134,78
48,1530571373445,388445, RC,0,39.9586186,-88.445067899,0,0.0,0.0,0.0,0.0,0.0,0.4436487556,0.0,0.0,0.0,0.0,0.0,0.0,0.0,1500,1685,0.0,0.0,40.063797,-88.1999246667,0.0,0.0,0.0,0.0,0.0,0.0,0.0,0.0,0.0,0.0,0.0,0,0.0,0.3703010082,0.4594670832,0.42783045770000006,90.0,90.0,90.0,90.20902252200001,90.20902252200001,87.7898712158,44.9079971313,14.3931379318,3.8400001526,0,2,25,1,135,79
49,1530571373496,388496, RC,0,39.9586186,-88.445067899,0,0.0,0.0,0.0,0.0,0.0,0.4443845153,0.0,0.0,0.0,0.0,0.0,0.0,0.0,1500,1685,0.0,0.0,40.063797,-88.1999246667,0.0,0.0,0.0,0.0,0.0,0.0,0.0,0.0,0.0,0.0,0.0,0,0.0,0.3703010082,0.45983496310000005,0.4289340675,90.0,90.0,90.0,90.4636688232,89.82704925540001,87.9808578491,44.9079971313,14.3931379318,3.8400001526,0,2,25,1,137,81
50,1530571373546,388546, RC,0,39.9586186,-88.445067899,0,0.0,0.0,0.0,0.0,0.0,0.4442925453,0.0,0.0,0.0,0.0,0.0,0.0,0.0,1500,1685,0.0,0.0,40.063797,-88.1999246667,0.0,0.0,0.0,0.0,0.0,0.0,0.0,0.0,0.0,0.0,0.0,0,0.0,0.3703010082,0.4635136425,0.4250714481,90.0,90.0,90.0,89.5087432861,90.01803588870001,88.1081771851,44.9079971313,14.3844881058,16.2800006866,0,2,25,1,150,83
51,1530571373597,388597, RC,0,39.9586186,-88.445067899,0,0.0,0.0,0.0,0.0,0.0,0.44410860539999997,0.0,0.0,0.0,0.0,0.0,0.0,0.0,1500,1685,0.0,0.0,40.063797,-88.1999246667,0.0,0.0,0.0,0.0,0.0,0.0,0.0,0.0,0.0,0.0,0.0,0,0.0,0.3703010082,0.46480119229999994,0.4234160185,90.0,90.0,90.0,89.3814163208,90.40000915530001,89.44507598879999,44.9079971313,14.3844881058,16.2800006866,0,2,25,1,169,85
52,1530571373648,388648, RC,0,39.9586186,-88.445067899,0,0.0,0.0,0.0,0.0,0.0,0.4412576556,0.0,0.0,0.0,0.0,0.0,0.0,0.0,1500,1685,0.0,0.0,40.063797,-88.1999246667,0.0,0.0,0.0,0.0,0.0,0.0,0.0,0.0,0.0,0.0,0.0,0,0.0,0.3703010082,0.4603867829,0.4221284986,90.0,90.0,90.0,90.9729614258,90.7183227539,90.145362854,44.9079971313,14.3844881058,16.2800006866,0,2,25,1,158,86
53,1530571373698,388698, RC,0,39.9586186,-88.445067899,0,0.0,0.0,0.0,0.0,0.0,0.44714352490000003,0.0,0.0,0.0,0.0,0.0,0.0,0.0,1500,1685,0.0,0.0,40.063797,-88.1999246667,0.0,0.0,0.0,0.0,0.0,0.0,0.0,0.0,0.0,0.0,0.0,0,0.0,0.3703010082,0.4620421827,0.4322448671,90.0,90.0,90.0,90.9093093872,90.0816955566,90.3363494873,44.9079971313,14.3844881058,16.2800006866,0,2,25,1,202,88
54,1530571373749,388749, RC,0,39.9586186,-88.445067899,0,0.0,0.0,0.0,0.0,0.0,0.44484436509999997,0.0,0.0,0.0,0.0,0.0,0.0,0.0,1500,1691,0.0,0.0,40.063797,-88.1999246667,0.0,0.0,0.0,0.0,0.0,0.0,0.0,0.0,0.0,0.0,0.0,0,0.0,0.3826450109,0.4649851322,0.42470359799999996,90.0,90.0,90.0,90.5909881592,89.3814163208,90.9093093872,44.9079971313,14.3844881058,16.2800006866,0,2,25,1,178,90
55,1530571373799,388799, RC,0,39.9586186,-88.445067899,0,0.0,0.0,0.0,0.0,0.0,0.45413303380000003,0.0,0.0,0.0,0.0,0.0,0.0,0.0,1500,1691,0.0,0.0,40.063797,-88.1999246667,0.0,0.0,0.0,0.0,0.0,0.0,0.0,0.0,0.0,0.0,0.0,0,0.0,0.3826450109,0.4703192115,0.437946856,90.0,90.0,90.0,91.2276153564,89.44507598879999,90.9093093872,44.9079971313,14.3844881058,16.2800006866,0,2,25,1,186,91
56,1530571373850,388850, RC,0,39.9586186,-88.445067899,0,0.0,0.0,0.0,0.0,0.0,0.4701352715,0.0,0.0,0.0,0.0,0.0,0.0,0.0,1500,1691,0.0,0.0,40.063797,-88.1999246667,0.0,0.0,0.0,0.0,0.0,0.0,0.0,0.0,0.0,0.0,0.0,0,0.0,0.3826450109,0.48613753909999996,0.45413303380000003,90.0,90.0,90.0,91.10028839110001,89.63606262209998,90.7183227539,44.9079971313,14.3844881058,16.2800006866,0,2,25,1,194,93
57,1530571373900,388900, RC,0,39.9586186,-88.445067899,0,0.0,0.0,0.0,0.0,0.0,0.4766649604,0.0,0.0,0.0,0.0,0.0,0.0,0.0,1500,1691,0.0,0.0,40.063797,-88.1999246667,0.0,0.0,0.0,0.0,0.0,0.0,0.0,0.0,0.0,0.0,0.0,0,0.0,0.3826450109,0.486505419,0.46682447200000005,90.0,90.0,90.0,87.08958435059999,89.5724029541,90.20902252200001,44.9079971313,14.3844881058,16.2800006866,0,2,25,1,177,95
58,1530571373951,388951, RC,0,39.9586186,-88.445067899,0,0.0,0.0,0.0,0.0,0.0,0.47638905049999997,0.0,0.0,0.0,0.0,0.0,0.0,0.0,1494,1691,0.0,0.0,40.063797,-88.1999246667,0.0,0.0,0.0,0.0,0.0,0.0,0.0,0.0,0.0,0.0,0.0,0,-0.0114150047,0.3826450109,0.48742505909999995,0.4653530121,90.0,90.0,90.0,88.2991638184,89.6997299194,89.6997299194,44.9079971313,14.3844881058,16.2800006866,0,2,25,1,174,97
59,1530571374002,389002, RC,0,39.9586186,-88.445067899,0,0.0,0.0,0.0,0.0,0.0,0.4734460711,0.0,0.0,0.0,0.0,0.0,0.0,0.0,1494,1691,0.0,0.0,40.063797,-88.1999246667,0.0,0.0,0.0,0.0,0.0,0.0,0.0,0.0,0.0,0.0,0.0,0,-0.0114150047,0.3826450109,0.46995133159999997,0.47694084049999996,90.0,90.0,90.0,90.7819747925,90.01803588870001,89.44507598879999,44.9079971313,14.3844881058,16.2800006866,0,2,25,1,174,98
60,1530571374052,389052, RC,0,39.9586186,-88.445067899,0,0.0,0.0,0.0,0.0,0.0,0.47408986090000005,0.0,0.0,0.0,0.0,0.0,0.0,0.0,1464,1691,0.0,0.0,40.063797,-88.1999246667,0.0,0.0,0.0,0.0,0.0,0.0,0.0,0.0,0.0,0.0,0.0,0,-0.0703920126,0.3826450109,0.45725989340000006,0.4909197986,90.0,90.0,90.0,90.145362854,90.01803588870001,89.12677001950001,44.9079971313,14.3844881058,16.2800006866,0,2,25,1,180,100
61,1530571374103,389103, RC,0,39.9586186,-88.445067899,0,0.0,0.0,0.0,0.0,0.0,0.4664565921,0.0,0.0,0.0,0.0,0.0,0.0,0.0,1464,1691,0.0,0.0,40.063797,-88.1999246667,0.0,0.0,0.0,0.0,0.0,0.0,0.0,0.0,0.0,0.0,0.0,0,-0.0703920126,0.3826450109,0.4537651539,0.4791480303,90.0,90.0,90.0,90.8456420898,89.3814163208,89.6997299194,44.9079971313,14.3844881058,16.2800006866,0,2,25,1,190,102
62,1530571374153,389153, RC,0,39.9586186,-88.445067899,0,0.0,0.0,0.0,0.0,0.0,0.4621341527,0.0,0.0,0.0,0.0,0.0,0.0,0.0,1441,1691,0.0,0.0,40.063797,-88.1999246667,0.0,0.0,0.0,0.0,0.0,0.0,0.0,0.0,0.0,0.0,0.0,0,-0.1179549694,0.3826450109,0.4335324168,0.4907358885,90.0,90.0,90.0,91.2276153564,89.1904296875,90.145362854,44.9079971313,14.3844881058,16.2800006866,0,2,25,1,195,103
63,1530571374204,389204, RC,0,39.9586186,-88.445067899,0,0.0,0.0,0.0,0.0,0.0,0.4685718417,0.0,0.0,0.0,0.0,0.0,0.0,0.0,1441,1691,0.0,0.0,40.0637985,-88.19992883329999,0.0,0.0,0.0,0.0,0.0,0.0,0.0,0.0,0.0,0.0,0.0,0,-0.1179549694,0.3826450109,0.42783045770000006,0.5093132257,90.0,90.0,90.0,91.29127502440001,89.6997299194,90.01803588870001,44.9079971313,14.3844881058,16.2800006866,0,2,25,1,226,105
64,1530571374254,389254, RC,0,39.9586186,-88.445067899,0,0.0,0.0,0.0,0.0,0.0,0.47510153060000004,0.0,0.0,0.0,0.0,0.0,0.0,0.0,1435,1691,0.0,0.0,40.0637985,-88.19992883329999,0.0,0.0,0.0,0.0,0.0,0.0,0.0,0.0,0.0,0.0,0.0,0,-0.1293699741,0.3826450109,0.4083334804,0.5418695807,90.0,90.0,90.0,87.7898712158,89.9543762207,89.44507598879999,44.9079971313,14.3844881058,16.2800006866,0,2,25,1,187,107
65,1530571374305,389305, RC,0,39.9586186,-88.445067899,0,0.0,0.0,0.0,0.0,0.0,0.4592831731,0.0,0.0,0.0,0.0,0.0,0.0,0.0,1435,1691,0.0,0.0,40.0637985,-88.19992883329999,0.0,0.0,0.0,0.0,0.0,0.0,0.0,0.0,0.0,0.0,0.0,0,-0.1293699741,0.3826450109,0.3969295621,0.5216367840999999,90.0,90.0,90.0,87.9808578491,90.7183227539,88.8721160889,44.9079971313,14.3844881058,16.2800006866,0,2,25,1,149,109
66,1530571374356,389356, RC,0,39.9586186,-88.445067899,0,0.0,0.0,0.0,0.0,0.0,0.44401666520000005,0.0,0.0,0.0,0.0,0.0,0.0,0.0,1500,1691,0.0,0.0,40.0637985,-88.19992883329999,0.0,0.0,0.0,0.0,0.0,0.0,0.0,0.0,0.0,0.0,0.0,0,0.0,0.3826450109,0.3807433844,0.5072899461,90.0,90.0,90.0,90.6546554565,89.5724029541,89.3814163208,44.9079971313,14.3844881058,16.2800006866,0,2,25,1,132,111
67,1530571374406,389406, RC,0,39.9586186,-88.445067899,0,0.0,0.0,0.0,0.0,0.0,0.4379468262,0.0,0.0,0.0,0.0,0.0,0.0,0.0,1500,1691,0.0,0.0,40.0637985,-88.19992883329999,0.0,0.0,0.0,0.0,0.0,0.0,0.0,0.0,0.0,0.0,0.0,0,0.0,0.3826450109,0.36566078659999995,0.5102328657999999,90.0,90.0,90.0,91.2276153564,89.1904296875,89.6997299194,44.9079971313,14.3844881058,16.2800006866,0,2,25,1,131,112
68,1530571374457,389457, RC,0,39.9586186,-88.445067899,0,0.0,0.0,0.0,0.0,0.0,0.4496266246,0.0,0.0,0.0,0.0,0.0,0.0,0.0,1500,1691,0.0,0.0,40.0637985,-88.19992883329999,0.0,0.0,0.0,0.0,0.0,0.0,0.0,0.0,0.0,0.0,0.0,0,0.0,0.3826450109,0.3833184242,0.5159348249,90.0,90.0,90.0,90.7819747925,89.63606262209998,89.44507598879999,44.9079971313,14.3844881058,16.2800006866,0,2,25,1,137,114
69,1530571374507,389507, RC,0,39.9586186,-88.445067899,0,0.0,0.0,0.0,0.0,0.0,0.44420057539999996,0.0,0.0,0.0,0.0,0.0,0.0,0.0,1500,1691,0.0,0.0,40.0637985,-88.19992883329999,0.0,0.0,0.0,0.0,0.0,0.0,0.0,0.0,0.0,0.0,0.0,0,0.0,0.3826450109,0.41900163890000003,0.46939954159999997,90.0,90.0,90.0,90.145362854,89.5724029541,89.5724029541,44.9079971313,14.3844881058,16.2800006866,0,2,25,1,138,116
70,1530571374558,389558, RC,0,39.9586186,-88.445067899,0,0.0,0.0,0.0,0.0,0.0,0.438038826,0.0,0.0,0.0,0.0,0.0,0.0,0.0,1500,1691,0.0,0.0,40.0637985,-88.19992883329999,0.0,0.0,0.0,0.0,0.0,0.0,0.0,0.0,0.0,0.0,0.0,0,0.0,0.3826450109,0.41900163890000003,0.4570759833,90.0,90.0,90.0,89.9543762207,89.1904296875,89.8907089233,44.9079971313,14.3949985504,9.9000005722,0,2,25,1,162,117
71,1530571374609,389609, RC,0,39.9586186,-88.445067899,0,0.0,0.0,0.0,0.0,0.0,0.4548687339,0.0,0.0,0.0,0.0,0.0,0.0,0.0,1500,1691,0.0,0.0,40.0637985,-88.19992883329999,0.0,0.0,0.0,0.0,0.0,0.0,0.0,0.0,0.0,0.0,0.0,0,0.0,0.3826450109,0.4430969656,0.46664053200000005,90.0,90.0,90.0,90.2726821899,89.12677001950001,90.20902252200001,44.9079971313,14.3949985504,9.9000005722,0,2,25,1,150,119
72,1530571374659,389659, RC,0,39.9586186,-88.445067899,0,0.0,0.0,0.0,0.0,0.0,0.4628698826,0.0,0.0,0.0,0.0,0.0,0.0,0.0,1500,1691,0.0,0.0,40.0637985,-88.19992883329999,0.0,0.0,0.0,0.0,0.0,0.0,0.0,0.0,0.0,0.0,0.0,0,0.0,0.3826450109,0.4530293941,0.4727103412,90.0,90.0,90.0,90.9093093872,89.6997299194,90.0816955566,44.9079971313,14.3949985504,9.9000005722,0,2,25,1,139,121
73,1530571374710,389710, RC,0,39.9586186,-88.445067899,0,0.0,0.0,0.0,0.0,0.0,0.46664053200000005,0.0,0.0,0.0,0.0,0.0,0.0,0.0,1500,1691,0.0,0.0,40.0637985,-88.19992883329999,0.0,0.0,0.0,0.0,0.0,0.0,0.0,0.0,0.0,0.0,0.0,0,0.0,0.3826450109,0.4552366138,0.47804445030000003,90.0,90.0,90.0,90.20902252200001,90.0816955566,89.7633895874,44.9079971313,14.3949985504,9.9000005722,0,2,25,1,104,123
74,1530571374760,389760, RC,0,39.9586186,-88.445067899,0,0.0,0.0,0.0,0.0,0.0,0.4714228213,0.0,0.0,0.0,0.0,0.0,0.0,0.0,1477,1691,0.0,0.0,40.0637985,-88.19992883329999,0.0,0.0,0.0,0.0,0.0,0.0,0.0,0.0,0.0,0.0,0.0,0,-0.0456590056,0.3826450109,0.4657208622,0.4771247804,90.0,90.0,90.0,89.3814163208,90.145362854,89.63606262209998,44.9079971313,14.3949985504,9.9000005722,0,2,25,1,96,124
75,1530571374811,389811, RC,0,39.9586186,-88.445067899,0,0.0,0.0,0.0,0.0,0.0,0.4682959318,0.0,0.0,0.0,0.0,0.0,0.0,0.0,1477,1691,0.0,0.0,40.0637985,-88.19992883329999,0.0,0.0,0.0,0.0,0.0,0.0,0.0,0.0,0.0,0.0,0.0,0,-0.0456590056,0.3826450109,0.4521097541,0.4844821393,90.0,90.0,90.0,90.01803588870001,90.2726821899,89.5087432861,44.9079971313,14.3949985504,9.9000005722,0,2,25,1,120,126
76,1530571374861,389861, RC,0,39.9586186,-88.445067899,0,0.0,0.0,0.0,0.0,0.0,0.4638815522,0.0,0.0,0.0,0.0,0.0,0.0,0.0,1477,1691,0.0,0.0,40.0637985,-88.19992883329999,0.0,0.0,0.0,0.0,0.0,0.0,0.0,0.0,0.0,0.0,0.0,0,-0.0456590056,0.3826450109,0.4331645668,0.4945985079,90.0,90.0,90.0,91.0366287231,90.40000915530001,89.3177566528,44.9079971313,14.3949985504,9.9000005722,0,2,25,1,133,128
77,1530571374918,389918, RC,0,39.9586186,-88.445067899,0,0.0,0.0,0.0,0.0,0.0,0.4705951214,0.0,0.0,0.0,0.0,0.0,0.0,0.0,1477,1691,0.0,0.0,40.0637985,-88.19992883329999,0.0,0.0,0.0,0.0,0.0,0.0,0.0,0.0,0.0,0.0,0.0,0,-0.0456590056,0.3826450109,0.4394183159,0.5017719268999999,90.0,90.0,90.0,89.3814163208,90.01803588870001,89.6997299194,44.9079971313,14.3949985504,9.9000005722,0,2,25,1,142,130
78,1530571374969,389969, RC,0,39.9586186,-88.445067899,0,0.0,0.0,0.0,0.0,0.0,0.47611314060000004,0.0,0.0,0.0,0.0,0.0,0.0,0.0,1477,1691,0.0,0.0,40.0637985,-88.19992883329999,0.0,0.0,0.0,0.0,0.0,0.0,0.0,0.0,0.0,0.0,0.0,0,-0.0456590056,0.3826450109,0.439050436,0.5131758451,90.0,90.0,90.0,89.7633895874,90.40000915530001,89.25408935549999,44.9079971313,14.3949985504,9.9000005722,0,2,25,1,141,131
79,1530571375020,390020, RC,0,39.9586186,-88.445067899,0,0.0,0.0,0.0,0.0,0.0,0.4762051105,0.0,0.0,0.0,0.0,0.0,0.0,0.0,1477,1691,0.0,0.0,40.0637985,-88.19992883329999,0.0,0.0,0.0,0.0,0.0,0.0,0.0,0.0,0.0,0.0,0.0,0,-0.0456590056,0.3826450109,0.432428807,0.5199813843,90.0,90.0,90.0,90.7819747925,90.40000915530001,89.3177566528,44.9079971313,14.3949985504,9.9000005722,0,2,25,1,127,133
80,1530571375071,390071, RC,0,39.9586186,-88.445067899,0,0.0,0.0,0.0,0.0,0.0,0.47740066049999996,0.0,0.0,0.0,0.0,0.0,0.0,0.0,1430,1691,0.0,0.0,40.0637985,-88.19992883329999,0.0,0.0,0.0,0.0,0.0,0.0,0.0,0.0,0.0,0.0,0.0,0,-0.1388819814,0.3826450109,0.4368432164,0.5179581046,90.0,90.0,90.0,90.145362854,89.5087432861,89.5724029541,44.9079971313,14.3949985504,9.9000005722,0,2,25,1,125,135
81,1530571375121,390121, RC,0,39.9586186,-88.445067899,0,0.0,0.0,0.0,0.0,0.0,0.4814472198,0.0,0.0,0.0,0.0,0.0,0.0,0.0,1430,1691,0.0,0.0,40.0637985,-88.19992883329999,0.0,0.0,0.0,0.0,0.0,0.0,0.0,0.0,0.0,0.0,0.0,0,-0.1388819814,0.3826450109,0.4221284986,0.5407659411,90.0,90.0,90.0,89.63606262209998,89.6997299194,89.5087432861,44.9079971313,14.3949985504,9.9000005722,0,2,25,1,152,137
82,1530571375172,390172, RC,0,39.9586186,-88.445067899,0,0.0,0.0,0.0,0.0,0.0,0.48181509969999997,0.0,0.0,0.0,0.0,0.0,0.0,0.0,1500,1691,0.0,0.0,40.0638001667,-88.199933,0.0,0.0,0.0,0.0,0.0,0.0,0.0,0.0,0.0,0.0,0.0,0,0.0,0.3826450109,0.4098049402,0.5538252592,90.0,90.0,90.0,89.5724029541,89.6997299194,89.3814163208,44.9079971313,14.3949985504,9.9000005722,0,2,25,1,136,138
83,1530571375223,390223, RC,0,39.9586186,-88.445067899,0,0.0,0.0,0.0,0.0,0.0,0.473170191,0.0,0.0,0.0,0.0,0.0,0.0,0.0,1500,1691,0.0,0.0,40.0638001667,-88.199933,0.0,0.0,0.0,0.0,0.0,0.0,0.0,0.0,0.0,0.0,0.0,0,0.0,0.3826450109,0.40888524060000003,0.5374551415,90.0,90.0,90.0,87.4078979492,90.2726821899,88.8721160889,44.9079971313,14.3949985504,9.9000005722,0,2,25,1,138,140
84,1530571375273,390273, RC,0,39.9586186,-88.445067899,0,0.0,0.0,0.0,0.0,0.0,0.47169870140000003,0.0,0.0,0.0,0.0,0.0,0.0,0.0,1500,1691,0.0,0.0,40.0638001667,-88.199933,0.0,0.0,0.0,0.0,0.0,0.0,0.0,0.0,0.0,0.0,0.0,0,0.0,0.3826450109,0.4215767086,0.521820724,90.0,90.0,90.0,89.3814163208,90.5909881592,88.6174697876,44.9079971313,14.3949985504,9.9000005722,0,2,25,1,148,142
85,1530571375324,390324, RC,0,39.9586186,-88.445067899,0,0.0,0.0,0.0,0.0,0.0,0.46912363170000004,0.0,0.0,0.0,0.0,0.0,0.0,0.0,1500,1691,0.0,0.0,40.0638001667,-88.199933,0.0,0.0,0.0,0.0,0.0,0.0,0.0,0.0,0.0,0.0,0.0,0,0.0,0.3826450109,0.42783045770000006,0.5104168057,90.0,90.0,90.0,90.0816955566,90.2726821899,88.2991638184,44.9079971313,14.3949985504,9.9000005722,0,2,25,1,120,144
86,1530571375375,390375, RC,0,39.9586186,-88.445067899,0,0.0,0.0,0.0,0.0,0.0,0.4725264311,0.0,0.0,0.0,0.0,0.0,0.0,0.0,1500,1691,0.0,0.0,40.0638001667,-88.199933,0.0,0.0,0.0,0.0,0.0,0.0,0.0,0.0,0.0,0.0,0.0,0,0.0,0.3826450109,0.4449363053,0.5001165271,90.0,90.0,90.0,89.5724029541,89.5087432861,89.44507598879999,44.9079971313,14.3949985504,9.9000005722,0,2,25,1,119,146
87,1530571375425,390425, RC,0,39.9586186,-88.445067899,0,0.0,0.0,0.0,0.0,0.0,0.4651690722,0.0,0.0,0.0,0.0,0.0,0.0,0.0,1500,1691,0.0,0.0,40.0638001667,-88.199933,0.0,0.0,0.0,0.0,0.0,0.0,0.0,0.0,0.0,0.0,0.0,0,0.0,0.3826450109,0.446407795,0.4839303493,90.0,90.0,90.0,90.40000915530001,89.0631027222,90.145362854,44.9079971313,14.3949985504,9.9000005722,0,2,25,1,107,147
88,1530571375476,390476, RC,0,39.9586186,-88.445067899,0,0.0,0.0,0.0,0.0,0.0,0.47399789090000005,0.0,0.0,0.0,0.0,0.0,0.0,0.0,1500,1691,0.0,0.0,40.0638001667,-88.199933,0.0,0.0,0.0,0.0,0.0,0.0,0.0,0.0,0.0,0.0,0.0,0,0.0,0.3826450109,0.45394909380000004,0.4940466881,90.0,90.0,90.0,91.0366287231,89.5087432861,90.0816955566,44.9079971313,14.3949985504,9.9000005722,0,2,25,1,141,149
89,1530571375527,390527, RC,0,39.9586186,-88.445067899,0,0.0,0.0,0.0,0.0,0.0,0.4718826413,0.0,0.0,0.0,0.0,0.0,0.0,0.0,1500,1691,0.0,0.0,40.0638001667,-88.199933,0.0,0.0,0.0,0.0,0.0,0.0,0.0,0.0,0.0,0.0,0.0,0,0.0,0.3826450109,0.4657208622,0.47804445030000003,90.0,90.0,90.0,89.9543762207,90.145362854,89.44507598879999,44.9079971313,14.3949985504,9.9000005722,0,2,25,1,139,151
90,1530571375577,390577, RC,0,39.9586186,-88.445067899,0,0.0,0.0,0.0,0.0,0.0,0.4683879018,0.0,0.0,0.0,0.0,0.0,0.0,0.0,1500,1691,0.0,0.0,40.0638001667,-88.199933,0.0,0.0,0.0,0.0,0.0,0.0,0.0,0.0,0.0,0.0,0.0,0,0.0,0.3826450109,0.4611225128,0.47565332060000004,90.0,90.0,90.0,89.6997299194,90.01803588870001,89.8907089233,44.9079971313,14.4044599533,12.039999961900001,0,2,25,1,64,153
91,1530571375628,390628, RC,0,39.9586186,-88.445067899,0,0.0,0.0,0.0,0.0,0.0,0.473262161,0.0,0.0,0.0,0.0,0.0,0.0,0.0,1500,1691,0.0,0.0,40.0638001667,-88.199933,0.0,0.0,0.0,0.0,0.0,0.0,0.0,0.0,0.0,0.0,0.0,0,0.0,0.3826450109,0.4670084119,0.4795159101,90.0,90.0,90.0,90.7819747925,90.20902252200001,89.6997299194,44.9079971313,14.4044599533,12.039999961900001,0,2,25,1,94,155
92,1530571375679,390679, RC,0,39.9586186,-88.445067899,0,0.0,0.0,0.0,0.0,0.0,0.47905606030000003,0.0,0.0,0.0,0.0,0.0,0.0,0.0,1500,1690,0.0,0.0,40.0638001667,-88.199933,0.0,0.0,0.0,0.0,0.0,0.0,0.0,0.0,0.0,0.0,0.0,0,0.0,0.3805869818,0.4705031514,0.487608999,90.0,90.0,90.0,89.63606262209998,91.1639480591,88.681137085,44.9079971313,14.4044599533,12.039999961900001,0,2,25,1,82,156
93,1530571375729,390729, RC,0,39.9586186,-88.445067899,0,0.0,0.0,0.0,0.0,0.0,0.4800677299,0.0,0.0,0.0,0.0,0.0,0.0,0.0,1500,1690,0.0,0.0,40.0638001667,-88.199933,0.0,0.0,0.0,0.0,0.0,0.0,0.0,0.0,0.0,0.0,0.0,0,0.0,0.3805869818,0.47491756079999997,0.4852178693,90.0,90.0,90.0,88.4264831543,91.6095809937,87.7898712158,44.9079971313,14.4044599533,12.039999961900001,0,2,25,1,87,158
94,1530571375780,390780, RC,0,39.9586186,-88.445067899,0,0.0,0.0,0.0,0.0,0.0,0.48107934,0.0,0.0,0.0,0.0,0.0,0.0,0.0,1500,1690,0.0,0.0,40.0638001667,-88.199933,0.0,0.0,0.0,0.0,0.0,0.0,0.0,0.0,0.0,0.0,0.0,0,0.0,0.3805869818,0.4793319702,0.48282670969999997,90.0,90.0,90.0,88.6174697876,90.6546554565,87.7262039185,44.9079971313,14.4044599533,12.039999961900001,0,2,25,1,57,160
95,1530571375831,390831, RC,0,39.9586186,-88.445067899,0,0.0,0.0,0.0,0.0,0.0,0.4711469114,0.0,0.0,0.0,0.0,0.0,0.0,0.0,1500,1690,0.0,0.0,40.0638001667,-88.199933,0.0,0.0,0.0,0.0,0.0,0.0,0.0,0.0,0.0,0.0,0.0,0,0.0,0.3805869818,0.4787801802,0.4635136425,90.0,90.0,90.0,90.2726821899,88.36282348629999,92.3735275269,44.9079971313,14.4044599533,12.039999961900001,0,2,25,1,102,162
96,1530571375881,390881, RC,0,39.9586186,-88.445067899,0,0.0,0.0,0.0,0.0,0.0,0.46903169159999997,0.0,0.0,0.0,0.0,0.0,0.0,0.0,1500,1690,0.0,0.0,40.0638001667,-88.199933,0.0,0.0,0.0,0.0,0.0,0.0,0.0,0.0,0.0,0.0,0.0,0,0.0,0.3805869818,0.4728942811,0.4651690722,90.0,90.0,90.0,91.73690795899999,88.8084564209,93.77409362790002,44.9079971313,14.4044599533,12.039999961900001,0,2,25,1,105,164
97,1530571375932,390932, RC,0,39.9586186,-88.445067899,0,0.0,0.0,0.0,0.0,0.0,0.4664565921,0.0,0.0,0.0,0.0,0.0,0.0,0.0,1500,1690,0.0,0.0,40.0638001667,-88.199933,0.0,0.0,0.0,0.0,0.0,0.0,0.0,0.0,0.0,0.0,0.0,0,0.0,0.3805869818,0.47491756079999997,0.45799562340000005,90.0,90.0,90.0,90.01803588870001,88.9994430542,93.96508026120001,44.9079971313,14.4044599533,12.039999961900001,0,2,25,1,128,166
98,1530571375983,390983, RC,0,39.9586186,-88.445067899,0,0.0,0.0,0.0,0.0,0.0,0.4631457925,0.0,0.0,0.0,0.0,0.0,0.0,0.0,1500,1690,0.0,0.0,40.0638001667,-88.199933,0.0,0.0,0.0,0.0,0.0,0.0,0.0,0.0,0.0,0.0,0.0,0,0.0,0.3805869818,0.47418180109999997,0.4521097541,90.0,90.0,90.0,90.4636688232,88.4264831543,91.4186019897,44.9079971313,14.4044599533,12.039999961900001,0,2,25,1,159,167
99,1530571376033,391033, RC,0,39.9586186,-88.445067899,0,0.0,0.0,0.0,0.0,0.0,0.4688477516,0.0,0.0,0.0,0.0,0.0,0.0,0.0,1500,1690,0.0,0.0,40.0638001667,-88.199933,0.0,0.0,0.0,0.0,0.0,0.0,0.0,0.0,0.0,0.0,0.0,0,0.0,0.3805869818,0.48411425950000003,0.453581214,90.0,90.0,90.0,91.8642349243,89.63606262209998,87.47155761719999,44.9079971313,14.4044599533,12.039999961900001,0,2,25,1,191,169
100,1530571376084,391084, RC,0,39.9586186,-88.445067899,0,0.0,0.0,0.0,0.0,0.0,0.4769408703,0.0,0.0,0.0,0.0,0.0,0.0,0.0,1500,1690,0.0,0.0,40.0638001667,-88.199933,0.0,0.0,0.0,0.0,0.0,0.0,0.0,0.0,0.0,0.0,0.0,0,0.0,0.3805869818,0.4885286987,0.4653530121,90.0,90.0,90.0,92.5645141602,89.9543762207,86.89859771729999,44.9079971313,14.4044599533,12.039999961900001,0,2,25,1,157,171
101,1530571376135,391135, RC,0,39.9586186,-88.445067899,0,0.0,0.0,0.0,0.0,0.0,0.4773087204,0.0,0.0,0.0,0.0,0.0,0.0,0.0,1500,1690,0.0,0.0,40.0637993333,-88.1999393333,0.0,0.0,0.0,0.0,0.0,0.0,0.0,0.0,0.0,0.0,0.0,0,0.0,0.3805869818,0.49036803840000004,0.46424940229999995,90.0,90.0,90.0,91.6095809937,90.20902252200001,87.9171905518,44.9079971313,14.4044599533,12.039999961900001,0,2,25,1,159,173
102,1530571376185,391185, RC,0,39.9586186,-88.445067899,0,0.0,0.0,0.0,0.0,0.0,0.473354131,0.0,0.0,0.0,0.0,0.0,0.0,0.0,1500,1690,0.0,0.0,40.0637993333,-88.1999393333,0.0,0.0,0.0,0.0,0.0,0.0,0.0,0.0,0.0,0.0,0.0,0,0.0,0.3805869818,0.4900001585,0.4567081034,90.0,90.0,90.0,89.82704925540001,89.7633895874,90.5909881592,44.9079971313,14.4044599533,12.039999961900001,0,2,25,1,129,174
103,1530571376236,391236, RC,0,39.9586186,-88.445067899,0,0.0,0.0,0.0,0.0,0.0,0.47988379,0.0,0.0,0.0,0.0,0.0,0.0,0.0,1500,1690,0.0,0.0,40.0637993333,-88.1999393333,0.0,0.0,0.0,0.0,0.0,0.0,0.0,0.0,0.0,0.0,0.0,0,0.0,0.3805869818,0.4883447587,0.4714228213,90.0,90.0,90.0,89.3177566528,89.44507598879999,91.0366287231,44.9079971313,14.4044599533,12.039999961900001,0,2,25,1,148,176
104,1530571376287,391287, RC,0,39.9586186,-88.445067899,0,0.0,0.0,0.0,0.0,0.0,0.46939954159999997,0.0,0.0,0.0,0.0,0.0,0.0,0.0,1500,1690,0.0,0.0,40.0637993333,-88.1999393333,0.0,0.0,0.0,0.0,0.0,0.0,0.0,0.0,0.0,0.0,0.0,0,0.0,0.3805869818,0.48411425950000003,0.4546848238,90.0,90.0,90.0,90.2726821899,89.82704925540001,91.0366287231,44.9079971313,14.4044599533,12.039999961900001,0,2,25,1,126,178
105,1530571376337,391337, RC,0,39.9586186,-88.445067899,0,0.0,0.0,0.0,0.0,0.0,0.4796998501,0.0,0.0,0.0,0.0,0.0,0.0,0.0,1500,1690,0.0,0.0,40.0637993333,-88.1999393333,0.0,0.0,0.0,0.0,0.0,0.0,0.0,0.0,0.0,0.0,0.0,0,0.0,0.3805869818,0.48779293890000003,0.47160676119999995,90.0,90.0,90.0,90.20902252200001,89.7633895874,90.9093093872,44.9079971313,14.4044599533,12.039999961900001,0,2,25,1,95,180
106,1530571376388,391388, RC,0,39.9586186,-88.445067899,0,0.0,0.0,0.0,0.0,0.0,0.47694084049999996,0.0,0.0,0.0,0.0,0.0,0.0,0.0,1500,1690,0.0,0.0,40.0637993333,-88.1999393333,0.0,0.0,0.0,0.0,0.0,0.0,0.0,0.0,0.0,0.0,0.0,0,0.0,0.3805869818,0.49147161840000003,0.4624100626,90.0,90.0,90.0,89.7633895874,89.3177566528,90.8456420898,44.9079971313,14.4044599533,12.039999961900001,0,2,25,1,104,182
107,1530571376439,391439, RC,0,39.9586186,-88.445067899,0,0.0,0.0,0.0,0.0,0.0,0.47363004090000005,0.0,0.0,0.0,0.0,0.0,0.0,0.0,1500,1690,0.0,0.0,40.0637993333,-88.1999393333,0.0,0.0,0.0,0.0,0.0,0.0,0.0,0.0,0.0,0.0,0.0,0,0.0,0.3805869818,0.4929431081,0.45431697369999996,90.0,90.0,90.0,89.25408935549999,89.3177566528,90.7819747925,44.9079971313,14.4044599533,12.039999961900001,0,2,25,1,92,184
108,1530571376489,391489, RC,0,39.9586186,-88.445067899,0,0.0,0.0,0.0,0.0,0.0,0.4727103412,0.0,0.0,0.0,0.0,0.0,0.0,0.0,1500,1690,0.0,0.0,40.0637993333,-88.1999393333,0.0,0.0,0.0,0.0,0.0,0.0,0.0,0.0,0.0,0.0,0.0,0,0.0,0.3805869818,0.48411425950000003,0.4613064229,90.0,90.0,90.0,90.5273361206,90.7819747925,89.0631027222,44.9079971313,14.4044599533,12.039999961900001,0,2,25,1,76,186
109,1530571376540,391540, RC,0,39.9586186,-88.445067899,0,0.0,0.0,0.0,0.0,0.0,0.4704111814,0.0,0.0,0.0,0.0,0.0,0.0,0.0,1500,1690,0.0,0.0,40.0637993333,-88.1999393333,0.0,0.0,0.0,0.0,0.0,0.0,0.0,0.0,0.0,0.0,0.0,0,0.0,0.3805869818,0.47859624030000003,0.46222612259999996,90.0,90.0,90.0,91.9915542603,91.1639480591,88.1081771851,44.9079971313,14.3946380615,16.4899997711,0,2,25,1,36,188
110,1530571376591,391591, RC,0,39.9586186,-88.445067899,0,0.0,0.0,0.0,0.0,0.0,0.47399789090000005,0.0,0.0,0.0,0.0,0.0,0.0,0.0,1500,1690,0.0,0.0,40.0637993333,-88.1999393333,0.0,0.0,0.0,0.0,0.0,0.0,0.0,0.0,0.0,0.0,0.0,0,0.0,0.3805869818,0.48411425950000003,0.4638815224,90.0,90.0,90.0,90.145362854,91.0366287231,87.5352172852,44.9079971313,14.3946380615,16.4899997711,0,2,25,1,75,190
111,1530571376641,391641, RC,0,39.9586186,-88.445067899,0,0.0,0.0,0.0,0.0,0.0,0.4860455692,0.0,0.0,0.0,0.0,0.0,0.0,0.0,1500,1690,0.0,0.0,40.0637993333,-88.1999393333,0.0,0.0,0.0,0.0,0.0,0.0,0.0,0.0,0.0,0.0,0.0,0,0.0,0.3805869818,0.48632147909999995,0.4857696593,90.0,90.0,90.0,89.0631027222,89.8907089233,88.1718444824,44.9079971313,14.3946380615,16.4899997711,0,2,25,1,77,191
112,1530571376692,391692, RC,0,39.9586186,-88.445067899,0,0.0,0.0,0.0,0.0,0.0,0.4776765704,0.0,0.0,0.0,0.0,0.0,0.0,0.0,1500,1690,0.0,0.0,40.0637993333,-88.1999393333,0.0,0.0,0.0,0.0,0.0,0.0,0.0,0.0,0.0,0.0,0.0,0,0.0,0.3805869818,0.473262161,0.4820910096,90.0,90.0,90.0,89.44507598879999,89.44507598879999,89.1904296875,44.9079971313,14.3946380615,16.4899997711,0,2,25,1,85,193
113,1530571376742,391742, RC,0,39.9586186,-88.445067899,0,0.0,0.0,0.0,0.0,0.0,0.48429819939999996,0.0,0.0,0.0,0.0,0.0,0.0,0.0,1500,1690,0.0,0.0,40.0637993333,-88.1999393333,0.0,0.0,0.0,0.0,0.0,0.0,0.0,0.0,0.0,0.0,0.0,0,0.0,0.3805869818,0.48337852950000004,0.4852178693,90.0,90.0,90.0,89.12677001950001,88.93578338620001,90.7183227539,44.9079971313,14.3946380615,16.4899997711,0,2,25,1,151,195
114,1530571376793,391793, RC,0,39.9586186,-88.445067899,0,0.0,0.0,0.0,0.0,0.0,0.4863214493,0.0,0.0,0.0,0.0,0.0,0.0,0.0,1500,1690,0.0,0.0,40.0637993333,-88.1999393333,0.0,0.0,0.0,0.0,0.0,0.0,0.0,0.0,0.0,0.0,0.0,0,0.0,0.3805869818,0.4857696593,0.48687326909999995,90.0,90.0,90.0,88.0445098877,88.681137085,91.1639480591,44.9079971313,14.3946380615,16.4899997711,0,2,25,1,140,197
115,1530571376844,391844, RC,0,39.9586186,-88.445067899,0,0.0,0.0,0.0,0.0,0.0,0.48733311890000003,0.0,0.0,0.0,0.0,0.0,0.0,0.0,1500,1690,0.0,0.0,40.0637993333,-88.1999393333,0.0,0.0,0.0,0.0,0.0,0.0,0.0,0.0,0.0,0.0,0.0,0,0.0,0.3805869818,0.4879768789,0.48668932909999996,90.0,90.0,90.0,87.66254425049999,88.1081771851,92.11888122559999,44.9079971313,14.3946380615,16.4899997711,0,2,25,1,101,199
116,1530571376894,391894, RC,0,39.9586186,-88.445067899,0,0.0,0.0,0.0,0.0,0.0,0.48457407950000003,0.0,0.0,0.0,0.0,0.0,0.0,0.0,1500,1690,0.0,0.0,40.0637993333,-88.1999393333,0.0,0.0,0.0,0.0,0.0,0.0,0.0,0.0,0.0,0.0,0.0,0,0.0,0.3805869818,0.4815391898,0.487608999,90.0,90.0,90.0,90.20902252200001,89.7633895874,91.67324829100001,44.9079971313,14.3946380615,16.4899997711,0,2,25,1,57,201
117,1530571376945,391945, RC,0,39.9586186,-88.445067899,0,0.0,0.0,0.0,0.0,0.0,0.4808954,0.0,0.0,0.0,0.0,0.0,0.0,0.0,1500,1690,0.0,0.0,40.0637993333,-88.1999393333,0.0,0.0,0.0,0.0,0.0,0.0,0.0,0.0,0.0,0.0,0.0,0,0.0,0.3805869818,0.4776765704,0.48411425950000003,90.0,90.0,90.0,92.4371948242,90.4636688232,88.9994430542,44.9079971313,14.3946380615,16.4899997711,0,2,25,1,53,202
118,1530571376996,391996, RC,0,39.9586186,-88.445067899,0,0.0,0.0,0.0,0.0,0.0,0.48052755,0.0,0.0,0.0,0.0,0.0,0.0,0.0,1500,1690,0.0,0.0,40.0637993333,-88.1999393333,0.0,0.0,0.0,0.0,0.0,0.0,0.0,0.0,0.0,0.0,0.0,0,0.0,0.3805869818,0.4813552499,0.4796998501,90.0,90.0,90.0,92.1825408936,90.0816955566,88.1081771851,44.9079971313,14.3946380615,16.4899997711,0,2,25,1,61,204
119,1530571377047,392047, RC,0,39.9586186,-88.445067899,0,0.0,0.0,0.0,0.0,0.0,0.4721585512,0.0,0.0,0.0,0.0,0.0,0.0,0.0,1500,1690,0.0,0.0,40.0637993333,-88.1999393333,0.0,0.0,0.0,0.0,0.0,0.0,0.0,0.0,0.0,0.0,0.0,0,0.0,0.3805869818,0.4614903629,0.48282670969999997,90.0,90.0,90.0,90.3363494873,90.3363494873,87.5352172852,44.9079971313,14.3946380615,16.4899997711,0,2,25,1,49,206
120,1530571377097,392097, RC,0,39.9586186,-88.445067899,0,0.0,0.0,0.0,0.0,0.0,0.4781364202,0.0,0.0,0.0,0.0,0.0,0.0,0.0,1500,1690,0.0,0.0,40.0637993333,-88.1999393333,0.0,0.0,0.0,0.0,0.0,0.0,0.0,0.0,0.0,0.0,0.0,0,0.0,0.3805869818,0.4705031514,0.4857696593,90.0,90.0,90.0,89.6997299194,90.40000915530001,87.66254425049999,44.9079971313,14.3946380615,16.4899997711,0,2,25,1,72,208
121,1530571377148,392148, RC,0,39.9586186,-88.445067899,0,0.0,0.0,0.0,0.0,0.0,0.4811713099,0.0,0.0,0.0,0.0,0.0,0.0,0.0,1500,1690,0.0,0.0,40.0637993333,-88.1999393333,0.0,0.0,0.0,0.0,0.0,0.0,0.0,0.0,0.0,0.0,0.0,0,0.0,0.3805869818,0.4776765704,0.48466604950000003,90.0,90.0,90.0,89.9543762207,90.0816955566,88.4264831543,44.9079971313,14.3946380615,16.4899997711,0,2,25,1,94,209
122,1530571377199,392199, RC,0,39.9586186,-88.445067899,0,0.0,0.0,0.0,0.0,0.0,0.473813951,0.0,0.0,0.0,0.0,0.0,0.0,0.0,1500,1690,0.0,0.0,40.0637975,-88.1999453333,0.0,0.0,0.0,0.0,0.0,0.0,0.0,0.0,0.0,0.0,0.0,0,0.0,0.3805869818,0.4583635032,0.4892643988,90.0,90.0,90.0,89.63606262209998,89.82704925540001,88.8721160889,44.9079971313,14.3946380615,16.4899997711,0,2,25,1,145,211
123,1530571377249,392249, RC,0,39.9586186,-88.445067899,0,0.0,0.0,0.0,0.0,0.0,0.4783203602,0.0,0.0,0.0,0.0,0.0,0.0,0.0,1500,1690,0.0,0.0,40.0637975,-88.1999453333,0.0,0.0,0.0,0.0,0.0,0.0,0.0,0.0,0.0,0.0,0.0,0,0.0,0.3805869818,0.4684798717,0.4881608188,90.0,90.0,90.0,89.1904296875,89.82704925540001,89.63606262209998,44.9079971313,14.3946380615,16.4899997711,0,2,25,1,138,213
124,1530571377300,392300, RC,0,39.9586186,-88.445067899,0,0.0,0.0,0.0,0.0,0.0,0.47979182,0.0,0.0,0.0,0.0,0.0,0.0,0.0,1500,1690,0.0,0.0,40.0637975,-88.1999453333,0.0,0.0,0.0,0.0,0.0,0.0,0.0,0.0,0.0,0.0,0.0,0,0.0,0.3805869818,0.4710549414,0.4885286987,90.0,90.0,90.0,90.20902252200001,90.20902252200001,89.3814163208,44.9079971313,14.3946380615,16.4899997711,0,2,25,1,149,214
125,1530571377351,392351, RC,0,39.9586186,-88.445067899,0,0.0,0.0,0.0,0.0,0.0,0.4811713099,0.0,0.0,0.0,0.0,0.0,0.0,0.0,1500,1690,0.0,0.0,40.0637975,-88.1999453333,0.0,0.0,0.0,0.0,0.0,0.0,0.0,0.0,0.0,0.0,0.0,0,0.0,0.3805869818,0.4752854407,0.487057209,90.0,90.0,90.0,90.6546554565,90.6546554565,88.9994430542,44.9079971313,14.3946380615,16.4899997711,0,2,25,1,171,216
126,1530571377401,392401, RC,0,39.9586186,-88.445067899,0,0.0,0.0,0.0,0.0,0.0,0.4814472198,0.0,0.0,0.0,0.0,0.0,0.0,0.0,1500,1690,0.0,0.0,40.0637975,-88.1999453333,0.0,0.0,0.0,0.0,0.0,0.0,0.0,0.0,0.0,0.0,0.0,0,0.0,0.3805869818,0.47749263049999996,0.48540180920000003,90.0,90.0,90.0,90.01803588870001,90.9729614258,89.25408935549999,44.9079971313,14.3946380615,16.4899997711,0,2,25,1,142,218
127,1530571377452,392452, RC,0,39.9586186,-88.445067899,0,0.0,0.0,0.0,0.0,0.0,0.48356246950000004,0.0,0.0,0.0,0.0,0.0,0.0,0.0,1500,1690,0.0,0.0,40.0637975,-88.1999453333,0.0,0.0,0.0,0.0,0.0,0.0,0.0,0.0,0.0,0.0,0.0,0,0.0,0.3805869818,0.4793319702,0.48779293890000003,90.0,90.0,90.0,89.82704925540001,90.3363494873,89.1904296875,44.9079971313,14.3946380615,16.4899997711,0,2,25,1,99,220
128,1530571377503,392503, RC,0,39.9586186,-88.445067899,0,0.0,0.0,0.0,0.0,0.0,0.487700969,0.0,0.0,0.0,0.0,0.0,0.0,0.0,1500,1690,0.0,0.0,40.0637975,-88.1999453333,0.0,0.0,0.0,0.0,0.0,0.0,0.0,0.0,0.0,0.0,0.0,0,0.0,0.3805869818,0.48282670969999997,0.4925752282,90.0,90.0,90.0,89.9543762207,89.7633895874,89.3177566528,44.9079971313,14.3946380615,16.4899997711,0,2,25,1,74,221
129,1530571377553,392553, RC,0,39.9586186,-88.445067899,0,0.0,0.0,0.0,0.0,0.0,0.4881608188,0.0,0.0,0.0,0.0,0.0,0.0,0.0,1500,1690,0.0,0.0,40.0637975,-88.1999453333,0.0,0.0,0.0,0.0,0.0,0.0,0.0,0.0,0.0,0.0,0.0,0,0.0,0.3805869818,0.4839303493,0.4923912883,90.0,90.0,90.0,89.44507598879999,89.3177566528,89.8907089233,44.9079971313,14.403468132,7.6400003433000006,0,2,25,1,111,223
130,1530571377604,392604, RC,0,39.9586186,-88.445067899,0,0.0,0.0,0.0,0.0,0.0,0.4900001585,0.0,0.0,0.0,0.0,0.0,0.0,0.0,1500,1690,0.0,0.0,40.0637975,-88.1999453333,0.0,0.0,0.0,0.0,0.0,0.0,0.0,0.0,0.0,0.0,0.0,0,0.0,0.3805869818,0.48724114890000003,0.49275916810000003,90.0,90.0,90.0,90.145362854,88.6174697876,90.3363494873,44.9079971313,14.403468132,7.6400003433000006,0,2,25,1,166,225
131,1530571377654,392654, RC,0,39.9586186,-88.445067899,0,0.0,0.0,0.0,0.0,0.0,0.48374640939999997,0.0,0.0,0.0,0.0,0.0,0.0,0.0,1500,1690,0.0,0.0,40.0637975,-88.1999453333,0.0,0.0,0.0,0.0,0.0,0.0,0.0,0.0,0.0,0.0,0.0,0,0.0,0.3805869818,0.4883447587,0.4791480303,90.0,90.0,90.0,91.1639480591,88.681137085,90.7183227539,44.9079971313,14.403468132,7.6400003433000006,0,2,25,1,137,227
132,1530571377705,392705, RC,0,39.9586186,-88.445067899,0,0.0,0.0,0.0,0.0,0.0,0.4884366989,0.0,0.0,0.0,0.0,0.0,0.0,0.0,1500,1690,0.0,0.0,40.0637975,-88.1999453333,0.0,0.0,0.0,0.0,0.0,0.0,0.0,0.0,0.0,0.0,0.0,0,0.0,0.3805869818,0.4898162186,0.487057209,90.0,90.0,90.0,90.3363494873,90.0816955566,89.7633895874,44.9079971313,14.403468132,7.6400003433000006,0,2,25,1,119,228
133,1530571377756,392756, RC,0,39.9586186,-88.445067899,0,0.0,0.0,0.0,0.0,0.0,0.48475801939999996,0.0,0.0,0.0,0.0,0.0,0.0,0.0,1500,1690,0.0,0.0,40.0637975,-88.1999453333,0.0,0.0,0.0,0.0,0.0,0.0,0.0,0.0,0.0,0.0,0.0,0,0.0,0.3805869818,0.4883447587,0.4811713099,90.0,90.0,90.0,89.6997299194,91.29127502440001,88.1718444824,44.9079971313,14.403468132,7.6400003433000006,0,2,25,1,101,230
134,1530571377806,392806, RC,0,39.9586186,-88.445067899,0,0.0,0.0,0.0,0.0,0.0,0.48107934,0.0,0.0,0.0,0.0,0.0,0.0,0.0,1500,1690,0.0,0.0,40.0637975,-88.1999453333,0.0,0.0,0.0,0.0,0.0,0.0,0.0,0.0,0.0,0.0,0.0,0,0.0,0.3805869818,0.4817231297,0.48043558,90.0,90.0,90.0,88.8084564209,91.1639480591,87.66254425049999,44.9079971313,14.403468132,7.6400003433000006,0,2,25,1,109,232
135,1530571377857,392857, RC,0,39.9586186,-88.445067899,0,0.0,0.0,0.0,0.0,0.0,0.47454971079999997,0.0,0.0,0.0,0.0,0.0,0.0,0.0,1500,1690,0.0,0.0,40.0637975,-88.1999453333,0.0,0.0,0.0,0.0,0.0,0.0,0.0,0.0,0.0,0.0,0.0,0,0.0,0.3805869818,0.46958348159999996,0.4795159101,90.0,90.0,90.0,88.36282348629999,90.0816955566,90.2726821899,44.9079971313,14.403468132,7.6400003433000006,0,2,25,1,113,233
136,1530571377908,392908, RC,0,39.9586186,-88.445067899,0,0.0,0.0,0.0,0.0,0.0,0.46875578170000004,0.0,0.0,0.0,0.0,0.0,0.0,0.0,1500,1690,0.0,0.0,40.0637975,-88.1999453333,0.0,0.0,0.0,0.0,0.0,0.0,0.0,0.0,0.0,0.0,0.0,0,0.0,0.3805869818,0.46866381170000004,0.4688477516,90.0,90.0,90.0,89.9543762207,89.3177566528,91.1639480591,44.9079971313,14.403468132,7.6400003433000006,0,2,25,1,117,235
137,1530571377958,392958, RC,0,39.9586186,-88.445067899,0,0.0,0.0,0.0,0.0,0.0,0.47611314060000004,0.0,0.0,0.0,0.0,0.0,0.0,0.0,1500,1690,0.0,0.0,40.0637975,-88.1999453333,0.0,0.0,0.0,0.0,0.0,0.0,0.0,0.0,0.0,0.0,0.0,0,0.0,0.3805869818,0.47841230030000004,0.4738139808,90.0,90.0,90.0,90.6546554565,88.0445098877,92.2462081909,44.9079971313,14.403468132,7.6400003433000006,0,2,25,1,102,237
138,1530571378009,393009, RC,0,39.9586186,-88.445067899,0,0.0,0.0,0.0,0.0,0.0,0.4814472198,0.0,0.0,0.0,0.0,0.0,0.0,0.0,1521,1690,0.0,0.0,40.0637975,-88.1999453333,0.0,0.0,0.0,0.0,0.0,0.0,0.0,0.0,0.0,0.0,0.0,0,0.0422749519,0.3805869818,0.48466604950000003,0.4782283604,90.0,90.0,90.0,91.2276153564,87.5352172852,92.50085449219999,44.9079971313,14.403468132,7.6400003433000006,0,2,25,1,111,238
139,1530571378060,393060, RC,0,39.9586186,-88.445067899,0,0.0,0.0,0.0,0.0,0.0,0.48236688969999997,0.0,0.0,0.0,0.0,0.0,0.0,0.0,1521,1690,0.0,0.0,40.0637975,-88.1999453333,0.0,0.0,0.0,0.0,0.0,0.0,0.0,0.0,0.0,0.0,0.0,0,0.0422749519,0.3805869818,0.49331095810000003,0.4714228213,90.0,90.0,90.0,91.5459213257,88.4264831543,90.7819747925,44.9079971313,14.403468132,7.6400003433000006,0,2,25,1,142,240
140,1530571378110,393110, RC,0,39.9586186,-88.445067899,0,0.0,0.0,0.0,0.0,0.0,0.4788721502,0.0,0.0,0.0,0.0,0.0,0.0,0.0,1567,1690,0.0,0.0,40.0637975,-88.1999453333,0.0,0.0,0.0,0.0,0.0,0.0,0.0,0.0,0.0,0.0,0.0,0,0.1351150274,0.3805869818,0.4907358885,0.4670084119,90.0,90.0,90.0,91.10028839110001,89.82704925540001,89.5087432861,44.9079971313,14.403468132,7.6400003433000006,0,2,25,1,93,242
141,1530571378161,393161, RC,0,39.9586186,-88.445067899,0,0.0,0.0,0.0,0.0,0.0,0.48484998939999996,0.0,0.0,0.0,0.0,0.0,0.0,0.0,1567,1690,0.0,0.0,40.0637983333,-88.1999515,0.0,0.0,0.0,0.0,0.0,0.0,0.0,0.0,0.0,0.0,0.0,0,0.1351150274,0.3805869818,0.5186938643,0.4510061443,90.0,90.0,90.0,90.5273361206,90.145362854,87.5352172852,44.9079971313,14.403468132,7.6400003433000006,0,2,25,1,98,243
142,1530571378211,393211, RC,0,39.9586186,-88.445067899,0,0.0,0.0,0.0,0.0,0.0,0.4978173375,0.0,0.0,0.0,0.0,0.0,0.0,0.0,1591,1690,0.0,0.0,40.0637983333,-88.1999515,0.0,0.0,0.0,0.0,0.0,0.0,0.0,0.0,0.0,0.0,0.0,0,0.18263995649999998,0.3805869818,0.5648612976,0.4307734072,90.0,90.0,90.0,89.44507598879999,91.10028839110001,86.70761108399999,44.9079971313,14.403468132,7.6400003433000006,0,2,25,1,104,245
143,1530571378262,393262, RC,0,39.9586186,-88.445067899,0,0.0,0.0,0.0,0.0,0.0,0.4957020879,0.0,0.0,0.0,0.0,0.0,0.0,0.0,1591,1690,0.0,0.0,40.0637983333,-88.1999515,0.0,0.0,0.0,0.0,0.0,0.0,0.0,0.0,0.0,0.0,0.0,0,0.18263995649999998,0.3805869818,0.5849100351,0.4064941108,90.0,90.0,90.0,88.6174697876,91.2276153564,87.47155761719999,44.9079971313,14.403468132,7.6400003433000006,0,2,25,1,102,247
144,1530571378313,393313, RC,0,39.9586186,-88.445067899,0,0.0,0.0,0.0,0.0,0.0,0.4939547479,0.0,0.0,0.0,0.0,0.0,0.0,0.0,1603,1690,0.0,0.0,40.0637983333,-88.1999515,0.0,0.0,0.0,0.0,0.0,0.0,0.0,0.0,0.0,0.0,0.0,0,0.20737302300000002,0.3805869818,0.6172825098,0.370626986,90.0,90.0,90.0,88.8084564209,89.82704925540001,90.5909881592,44.9079971313,14.403468132,7.6400003433000006,0,2,25,1,123,249
145,1530571378363,393363, RC,0,39.9586186,-88.445067899,0,0.0,0.0,0.0,0.0,0.0,0.4929431081,0.0,0.0,0.0,0.0,0.0,0.0,0.0,1603,1690,0.0,0.0,40.0637983333,-88.1999515,0.0,0.0,0.0,0.0,0.0,0.0,0.0,0.0,0.0,0.0,0.0,0,0.20737302300000002,0.3805869818,0.6272149086,0.3586712778,90.0,90.0,90.0,89.6997299194,88.8084564209,91.3549346924,44.9079971313,14.403468132,7.6400003433000006,0,2,25,1,138,250
146,1530571378414,393414, RC,0,39.9586186,-88.445067899,0,0.0,0.0,0.0,0.0,0.0,0.4790560901,0.0,0.0,0.0,0.0,0.0,0.0,0.0,1500,1690,0.0,0.0,40.0637983333,-88.1999515,0.0,0.0,0.0,0.0,0.0,0.0,0.0,0.0,0.0,0.0,0.0,0,0.0,0.3805869818,0.6235362291,0.3345759511,90.0,90.0,90.0,90.6546554565,89.0631027222,91.29127502440001,44.9079971313,14.403468132,7.6400003433000006,0,2,25,1,106,252
147,1530571378465,393465, RC,0,39.9586186,-88.445067899,0,0.0,0.0,0.0,0.0,0.0,0.47749266030000004,0.0,0.0,0.0,0.0,0.0,0.0,0.0,1500,1690,0.0,0.0,40.0637983333,-88.1999515,0.0,0.0,0.0,0.0,0.0,0.0,0.0,0.0,0.0,0.0,0.0,0,0.0,0.3805869818,0.6434011459000001,0.3115841746,90.0,90.0,90.0,90.5909881592,90.01803588870001,89.5087432861,44.9079971313,14.403468132,7.6400003433000006,0,2,25,1,136,254
148,1530571378515,393515, RC,0,39.9586186,-88.445067899,0,0.0,0.0,0.0,0.0,0.0,0.474825561,0.0,0.0,0.0,0.0,0.0,0.0,0.0,1500,1690,0.0,0.0,40.0637983333,-88.1999515,0.0,0.0,0.0,0.0,0.0,0.0,0.0,0.0,0.0,0.0,0.0,0,0.0,0.3805869818,0.6148912907,0.3347598612,90.0,90.0,90.0,92.4371948242,90.145362854,89.3177566528,44.9079971313,14.403468132,7.6400003433000006,0,2,25,1,133,255
149,1530571378566,393566, RC,0,39.9586186,-88.445067899,0,0.0,0.0,0.0,0.0,0.0,0.465536952,0.0,0.0,0.0,0.0,0.0,0.0,0.0,1500,1690,0.0,0.0,40.0637983333,-88.1999515,0.0,0.0,0.0,0.0,0.0,0.0,0.0,0.0,0.0,0.0,0.0,0,0.0,0.3805869818,0.5628380179,0.36823585630000005,90.0,90.0,90.0,92.5645141602,90.5273361206,89.1904296875,44.9079971313,14.39909935,5.7600002289,0,2,25,1,155,257
150,1530571378617,393617, RC,0,39.9586186,-88.445067899,0,0.0,0.0,0.0,0.0,0.0,0.4571679831,0.0,0.0,0.0,0.0,0.0,0.0,0.0,1500,1690,0.0,0.0,40.0637983333,-88.1999515,0.0,0.0,0.0,0.0,0.0,0.0,0.0,0.0,0.0,0.0,0.0,0,0.0,0.3805869818,0.5254994631000001,0.3888364732,90.0,90.0,90.0,90.20902252200001,90.5909881592,88.8084564209,44.9079971313,14.39909935,5.7600002289,0,2,25,1,167,259
151,1530571378667,393667, RC,0,39.9586186,-88.445067899,0,0.0,0.0,0.0,0.0,0.0,0.4582715333,0.0,0.0,0.0,0.0,0.0,0.0,0.0,1500,1690,0.0,0.0,40.0637983333,-88.1999515,0.0,0.0,0.0,0.0,0.0,0.0,0.0,0.0,0.0,0.0,0.0,0,0.0,0.3805869818,0.5102328657999999,0.4063102007,90.0,90.0,90.0,88.36282348629999,90.9729614258,88.8721160889,44.9079971313,14.39909935,5.7600002289,0,2,25,1,156,260
152,1530571378718,393718, RC,0,39.9586186,-88.445067899,0,0.0,0.0,0.0,0.0,0.0,0.4567081034,0.0,0.0,0.0,0.0,0.0,0.0,0.0,1500,1690,0.0,0.0,40.0637983333,-88.1999515,0.0,0.0,0.0,0.0,0.0,0.0,0.0,0.0,0.0,0.0,0.0,0,0.0,0.3805869818,0.5052666664,0.4081495404,90.0,90.0,90.0,88.681137085,90.0816955566,88.8084564209,44.9079971313,14.39909935,5.7600002289,0,2,25,1,130,262
153,1530571378769,393769, RC,0,39.9586186,-88.445067899,0,0.0,0.0,0.0,0.0,0.0,0.4703192115,0.0,0.0,0.0,0.0,0.0,0.0,0.0,1500,1690,0.0,0.0,40.0637983333,-88.1999515,0.0,0.0,0.0,0.0,0.0,0.0,0.0,0.0,0.0,0.0,0.0,0,0.0,0.3805869818,0.5008522272,0.43978616600000003,90.0,90.0,90.0,91.0366287231,89.82704925540001,89.3814163208,44.9079971313,14.39909935,5.7600002289,0,2,25,1,162,264
