,(0)linux time (ms),    (1)uptime  (ms),      (2)drive mode,(3)mpc step counter,(4)mpc origin latitude  (deg),(5)mpc origin longitude  (deg),(6)closest trajectory point index to robot,(7)mpc error x (W;E)  (m),(8)mpc error y (W;E)  (m),(9)abs mpc error (m),(10)input [x] for mhe (m),(11)input [y] for mhe (m),(12)input [speed] for mhe (m/s),(13)input [vyaw] for mhe (rad/s),(14)mhe output x  (m),(15)mhe output y  (m),(16)mhe output speed  (m/s),(17)mhe output yaw  (rad),(18)mpc reference heading (rad),(19)mpc turn rate command (rad/s),(20)turn rate command as PWM,(21)throttle command as PWM,(22)primary gps latitude (deg),(23)primary gps longitude (deg),(24)secondary gps latitude  (deg),(25)secondary gps longitude (deg),(26)accelerometer x (m/s^2),(27)accelerometer y (m/s^2),(28)accelerometer z (m/s^2),(29)gyro yaw rate (rad/s),(30)gyro pitch rate   (rad/s),(31)gyro roll rate (rad/s),      (32)yaw (rad),  (33)pitch   (rad),     (34)roll (rad),(35)sonar1 measurement (m),(36)ultrasonic sensor measurement (m),(37)primary gps time (s),(38)normalized turn rate command,(39)normalized throttle command,(40)speed calculation from encoder left (m/s),(41)speed calculation from encoder right (m/s),(42)front gimbal target angle (degrees from straight down),(43)left gimbal target angle  (degrees from straight down),(44)right gimbal target angle  (degrees from straight down),(45)front gimbal measured angle  (degrees from straight down),(46)left gimbal measured angle    (degrees from straight down),(47)right gimbal measured angle  (degrees from straight down),(48)internal temperature (C),(49)battery voltage (V),(50)primary gps type,(51)secondary gps type,    (52)MPC R value, (53)MPC Q[0] value,Unnamed: 54,weed_num,start
0,1530214735911,1536911, RC,0,39.9586422891,-88.4448908703,0,0.0,0.0,0.0,0.0,0.0,0.0,0.0,0.0,0.0,0.0,0.0,0.0,0.0,1500,1500,0.0,0.0,40.0466716667,-88.230654,0.0,0.0,0.0,0.0,0.0,0.0,0.0,0.0,0.0,0.0,0.0,0,0.0,0.0,0.0,0.0,90.0,90.0,90.0,90.0816955566,89.7633895874,89.9543762207,44.9079971313,7.411597251900001,521.4199829102,0,2,25,1,110,0
1,1530214735961,1536961, RC,0,39.9586422891,-88.4448908703,0,0.0,0.0,0.0,0.0,0.0,0.0,0.0,0.0,0.0,0.0,0.0,0.0,0.0,1500,1500,0.0,0.0,40.0466716667,-88.230654,0.0,0.0,0.0,0.0,0.0,0.0,0.0,0.0,0.0,0.0,0.0,0,0.0,0.0,0.0,0.0,90.0,90.0,90.0,90.0816955566,89.7633895874,89.9543762207,44.9079971313,7.411597251900001,521.4199829102,0,2,25,1,110,0
2,1530214736012,1537012, RC,0,39.9586422891,-88.4448908703,0,0.0,0.0,0.0,0.0,0.0,0.0,0.0,0.0,0.0,0.0,0.0,0.0,0.0,1500,1500,0.0,0.0,40.0466716667,-88.230654,0.0,0.0,0.0,0.0,0.0,0.0,0.0,0.0,0.0,0.0,0.0,0,0.0,0.0,0.0,0.0,90.0,90.0,90.0,90.0816955566,89.7633895874,89.9543762207,44.9079971313,7.411597251900001,521.4199829102,0,2,25,1,110,0
3,1530214736062,1537062, RC,0,39.9586422891,-88.4448908703,0,0.0,0.0,0.0,0.0,0.0,0.0,0.0,0.0,0.0,0.0,0.0,0.0,0.0,1500,1500,0.0,0.0,40.0466716667,-88.230654,0.0,0.0,0.0,0.0,0.0,0.0,0.0,0.0,0.0,0.0,0.0,0,0.0,0.0,0.0,0.0,90.0,90.0,90.0,90.0816955566,89.8907089233,89.9543762207,44.9079971313,7.411597251900001,521.4199829102,0,2,25,1,110,0
4,1530214736112,1537112, RC,0,39.9586422891,-88.4448908703,0,0.0,0.0,0.0,0.0,0.0,0.0,0.0,0.0,0.0,0.0,0.0,0.0,0.0,1500,1500,0.0,0.0,40.0466716667,-88.230654,0.0,0.0,0.0,0.0,0.0,0.0,0.0,0.0,0.0,0.0,0.0,0,0.0,0.0,0.0,0.0,90.0,90.0,90.0,90.0816955566,89.8907089233,89.9543762207,44.9079971313,7.411597251900001,521.4199829102,0,2,25,1,110,0
5,1530214736163,1537163, RC,0,39.9586422891,-88.4448908703,0,0.0,0.0,0.0,0.0,0.0,0.0,0.0,0.0,0.0,0.0,0.0,0.0,0.0,1500,1500,0.0,0.0,40.0466715,-88.2306573333,0.0,0.0,0.0,0.0,0.0,0.0,0.0,0.0,0.0,0.0,0.0,0,0.0,0.0,0.0,0.0,90.0,90.0,90.0,90.0816955566,89.8907089233,89.9543762207,44.9079971313,7.411597251900001,521.4199829102,0,2,25,1,110,0
6,1530214736213,1537213, RC,0,39.9586422891,-88.4448908703,0,0.0,0.0,0.0,0.0,0.0,0.0,0.0,0.0,0.0,0.0,0.0,0.0,0.0,1500,1500,0.0,0.0,40.0466715,-88.2306573333,0.0,0.0,0.0,0.0,0.0,0.0,0.0,0.0,0.0,0.0,0.0,0,0.0,0.0,0.0,0.0,90.0,90.0,90.0,90.0816955566,89.8907089233,89.9543762207,44.9079971313,7.411597251900001,521.4199829102,0,2,25,1,110,1
7,1530214736263,1537263, RC,0,39.9586422891,-88.4448908703,0,0.0,0.0,0.0,0.0,0.0,0.0,0.0,0.0,0.0,0.0,0.0,0.0,0.0,1500,1500,0.0,0.0,40.0466715,-88.2306573333,0.0,0.0,0.0,0.0,0.0,0.0,0.0,0.0,0.0,0.0,0.0,0,0.0,0.0,0.0,0.0,90.0,90.0,90.0,90.0816955566,89.8907089233,89.9543762207,44.9079971313,7.411597251900001,521.4199829102,0,2,25,1,102,3
8,1530214736314,1537314, RC,0,39.9586422891,-88.4448908703,0,0.0,0.0,0.0,0.0,0.0,0.0,0.0,0.0,0.0,0.0,0.0,0.0,0.0,1500,1500,0.0,0.0,40.0466715,-88.2306573333,0.0,0.0,0.0,0.0,0.0,0.0,0.0,0.0,0.0,0.0,0.0,0,0.0,0.0,0.0,0.0,90.0,90.0,90.0,90.0816955566,89.8907089233,89.9543762207,44.9079971313,7.411597251900001,521.4199829102,0,2,25,1,154,5
9,1530214736364,1537364, RC,0,39.9586422891,-88.4448908703,0,0.0,0.0,0.0,0.0,0.0,0.0,0.0,0.0,0.0,0.0,0.0,0.0,0.0,1500,1500,0.0,0.0,40.0466715,-88.2306573333,0.0,0.0,0.0,0.0,0.0,0.0,0.0,0.0,0.0,0.0,0.0,0,0.0,0.0,0.0,0.0,90.0,90.0,90.0,90.0816955566,89.8907089233,89.9543762207,44.9079971313,7.411597251900001,521.4199829102,0,2,25,1,161,7
10,1530214736414,1537414, RC,0,39.9586422891,-88.4448908703,0,0.0,0.0,0.0,0.0,0.0,0.0,0.0,0.0,0.0,0.0,0.0,0.0,0.0,1500,1500,0.0,0.0,40.0466715,-88.2306573333,0.0,0.0,0.0,0.0,0.0,0.0,0.0,0.0,0.0,0.0,0.0,0,0.0,0.0,0.0,0.0,90.0,90.0,90.0,90.0816955566,89.8907089233,89.9543762207,44.9079971313,7.411597251900001,521.4199829102,0,2,25,1,142,9
11,1530214736465,1537465, RC,0,39.9586422891,-88.4448908703,0,0.0,0.0,0.0,0.0,0.0,0.0,0.0,0.0,0.0,0.0,0.0,0.0,0.0,1500,1500,0.0,0.0,40.0466715,-88.2306573333,0.0,0.0,0.0,0.0,0.0,0.0,0.0,0.0,0.0,0.0,0.0,0,0.0,0.0,0.0,0.0,90.0,90.0,90.0,90.0816955566,89.8907089233,89.9543762207,44.9079971313,7.411597251900001,521.4199829102,0,2,25,1,138,11
12,1530214736515,1537515, RC,0,39.9586422891,-88.4448908703,0,0.0,0.0,0.0,0.0,0.0,0.0,0.0,0.0,0.0,0.0,0.0,0.0,0.0,1500,1500,0.0,0.0,40.0466715,-88.2306573333,0.0,0.0,0.0,0.0,0.0,0.0,0.0,0.0,0.0,0.0,0.0,0,0.0,0.0,0.0,0.0,90.0,90.0,90.0,90.0816955566,89.8907089233,89.9543762207,44.9079971313,7.411597251900001,521.4199829102,0,2,25,1,152,13
13,1530214736566,1537566, RC,0,39.9586422891,-88.4448908703,0,0.0,0.0,0.0,0.0,0.0,0.0,0.0,0.0,0.0,0.0,0.0,0.0,0.0,1500,1500,0.0,0.0,40.0466715,-88.2306573333,0.0,0.0,0.0,0.0,0.0,0.0,0.0,0.0,0.0,0.0,0.0,0,0.0,0.0,0.0,0.0,90.0,90.0,90.0,90.0816955566,89.8907089233,89.9543762207,44.9079971313,7.411597251900001,521.4199829102,0,2,25,1,173,15
14,1530214736616,1537616, RC,0,39.9586422891,-88.4448908703,0,0.0,0.0,0.0,0.0,0.0,0.0,0.0,0.0,0.0,0.0,0.0,0.0,0.0,1500,1500,0.0,0.0,40.0466715,-88.2306573333,0.0,0.0,0.0,0.0,0.0,0.0,0.0,0.0,0.0,0.0,0.0,0,0.0,0.0,0.0,0.0,90.0,90.0,90.0,90.0816955566,89.8907089233,89.9543762207,44.9079971313,7.411597251900001,521.4199829102,0,2,25,1,158,17
15,1530214736667,1537667, RC,0,39.9586422891,-88.4448908703,0,0.0,0.0,0.0,0.0,0.0,0.0,0.0,0.0,0.0,0.0,0.0,0.0,0.0,1500,1500,0.0,0.0,40.0466715,-88.2306573333,0.0,0.0,0.0,0.0,0.0,0.0,0.0,0.0,0.0,0.0,0.0,0,0.0,0.0,0.0,0.0,90.0,90.0,90.0,90.0816955566,89.8907089233,89.9543762207,44.9079971313,7.411597251900001,521.4199829102,0,2,25,1,136,19
16,1530214736717,1537717, RC,0,39.9586422891,-88.4448908703,0,0.0,0.0,0.0,0.0,0.0,0.0,0.0,0.0,0.0,0.0,0.0,0.0,0.0,1500,1500,0.0,0.0,40.0466715,-88.2306573333,0.0,0.0,0.0,0.0,0.0,0.0,0.0,0.0,0.0,0.0,0.0,0,0.0,0.0,0.0,0.0,90.0,90.0,90.0,90.0816955566,89.8907089233,89.9543762207,44.9079971313,7.4118871689,521.2600097656,0,2,25,1,138,21
17,1530214736768,1537768, RC,0,39.9586422891,-88.4448908703,0,0.0,0.0,0.0,0.0,0.0,0.0,0.0,0.0,0.0,0.0,0.0,0.0,0.0,1500,1500,0.0,0.0,40.0466715,-88.2306573333,0.0,0.0,0.0,0.0,0.0,0.0,0.0,0.0,0.0,0.0,0.0,0,0.0,0.0,0.0,0.0,90.0,90.0,90.0,90.0816955566,89.8907089233,89.9543762207,44.9079971313,7.4118871689,521.2600097656,0,2,25,1,95,23
18,1530214736819,1537819, RC,0,39.9586422891,-88.4448908703,0,0.0,0.0,0.0,0.0,0.0,0.0,0.0,0.0,0.0,0.0,0.0,0.0,0.0,1500,1500,0.0,0.0,40.0466715,-88.2306573333,0.0,0.0,0.0,0.0,0.0,0.0,0.0,0.0,0.0,0.0,0.0,0,0.0,0.0,0.0,0.0,90.0,90.0,90.0,90.0816955566,89.8907089233,89.9543762207,44.9079971313,7.4118871689,521.2600097656,0,2,25,1,113,24
19,1530214736869,1537869, RC,0,39.9586422891,-88.4448908703,0,0.0,0.0,0.0,0.0,0.0,0.0,0.0,0.0,0.0,0.0,0.0,0.0,0.0,1500,1500,0.0,0.0,40.0466715,-88.2306573333,0.0,0.0,0.0,0.0,0.0,0.0,0.0,0.0,0.0,0.0,0.0,0,0.0,0.0,0.0,0.0,90.0,90.0,90.0,90.0816955566,89.8907089233,89.9543762207,44.9079971313,7.4118871689,521.2600097656,0,2,25,1,135,27
20,1530214736920,1537920, RC,0,39.9586422891,-88.4448908703,0,0.0,0.0,0.0,0.0,0.0,0.0,0.0,0.0,0.0,0.0,0.0,0.0,0.0,1500,1500,0.0,0.0,40.0466715,-88.2306573333,0.0,0.0,0.0,0.0,0.0,0.0,0.0,0.0,0.0,0.0,0.0,0,0.0,0.0,0.0,0.0,90.0,90.0,90.0,90.0816955566,89.8907089233,89.9543762207,44.9079971313,7.4118871689,521.2600097656,0,2,25,1,137,30
21,1530214736970,1537970, RC,0,39.9586422891,-88.4448908703,0,0.0,0.0,0.0,0.0,0.0,0.0,0.0,0.0,0.0,0.0,0.0,0.0,0.0,1500,1500,0.0,0.0,40.0466715,-88.2306573333,0.0,0.0,0.0,0.0,0.0,0.0,0.0,0.0,0.0,0.0,0.0,0,0.0,0.0,0.0,0.0,90.0,90.0,90.0,90.0816955566,89.8907089233,89.9543762207,44.9079971313,7.4118871689,521.2600097656,0,2,25,1,138,34
22,1530214737021,1538021, RC,0,39.9586422891,-88.4448908703,0,0.0,0.0,0.0,0.0,0.0,0.0008277028999999999,0.0,0.0,0.0,0.0,0.0,0.0,0.0,1500,1574,0.0,0.0,40.0466715,-88.2306573333,0.0,0.0,0.0,0.0,0.0,0.0,0.0,0.0,0.0,0.0,0.0,0,0.0,0.1499320269,0.0016554058999999999,0.0,90.0,90.0,90.0,90.0816955566,89.8907089233,89.9543762207,44.9079971313,7.4118871689,521.2600097656,0,2,25,1,125,36
23,1530214737071,1538071, RC,0,39.9586422891,-88.4448908703,0,0.0,0.0,0.0,0.0,0.0,0.010760138700000001,0.0,0.0,0.0,0.0,0.0,0.0,0.0,1500,1574,0.0,0.0,40.0466715,-88.2306573333,0.0,0.0,0.0,0.0,0.0,0.0,0.0,0.0,0.0,0.0,0.0,0,0.0,0.1499320269,0.0215202775,0.0,90.0,90.0,90.0,90.0816955566,89.8907089233,89.9543762207,44.9079971313,7.4118871689,521.2600097656,0,2,25,1,157,39
24,1530214737122,1538122, RC,0,39.9586422891,-88.4448908703,0,0.0,0.0,0.0,0.0,0.0,0.0298892725,0.0,0.0,0.0,0.0,0.0,0.0,0.0,1500,1648,0.0,0.0,40.0466715,-88.2306573333,0.0,0.0,0.0,0.0,0.0,0.0,0.0,0.0,0.0,0.0,0.0,0,0.0,0.29671907420000004,0.0597785451,0.0,90.0,90.0,90.0,90.145362854,89.7633895874,90.0816955566,44.9079971313,7.4118871689,521.2600097656,0,2,25,1,109,41
25,1530214737172,1538172, RC,0,39.9586422891,-88.4448908703,0,0.0,0.0,0.0,0.0,0.0,0.0557320006,0.0,0.0,0.0,0.0,0.0,0.0,0.0,1500,1648,0.0,0.0,40.0466691667,-88.2306678333,0.0,0.0,0.0,0.0,0.0,0.0,0.0,0.0,0.0,0.0,0.0,0,0.0,0.29671907420000004,0.1114640012,0.0,90.0,90.0,90.0,90.01803588870001,89.3177566528,90.4636688232,44.9079971313,7.4118871689,521.2600097656,0,2,25,1,145,44
26,1530214737223,1538223, RC,0,39.9586422891,-88.4448908703,0,0.0,0.0,0.0,0.0,0.0,0.0866329074,0.0,0.0,0.0,0.0,0.0,0.0,0.0,1500,1681,0.0,0.0,40.0466691667,-88.2306678333,0.0,0.0,0.0,0.0,0.0,0.0,0.0,0.0,0.0,0.0,0.0,0,0.0,0.36355400090000006,0.1732658148,0.0,90.0,90.0,90.0,89.8907089233,88.4901504517,91.48226165770001,44.9079971313,7.4118871689,521.2600097656,0,2,25,1,117,47
27,1530214737273,1538273, RC,0,39.9586422891,-88.4448908703,0,0.0,0.0,0.0,0.0,0.0,0.1030030325,0.0,0.0,0.0,0.0,0.0,0.0,0.0,1500,1681,0.0,0.0,40.0466691667,-88.2306678333,0.0,0.0,0.0,0.0,0.0,0.0,0.0,0.0,0.0,0.0,0.0,0,0.0,0.36355400090000006,0.206006065,0.0,90.0,90.0,90.0,88.9994430542,89.3177566528,89.9543762207,44.9079971313,7.4118871689,521.2600097656,0,2,25,1,131,49
28,1530214737324,1538324, RC,0,39.9586422891,-88.4448908703,0,0.0,0.0,0.0,0.0,0.0,0.1091648191,0.0,0.0,0.0,0.0,0.0,0.0,0.0,1500,1680,0.0,0.0,40.0466691667,-88.2306678333,0.0,0.0,0.0,0.0,0.0,0.0,0.0,0.0,0.0,0.0,0.0,0,0.0,0.3600150347,0.2183296382,0.0,90.0,90.0,90.0,90.01803588870001,90.5909881592,88.74479675290002,44.9079971313,7.4118871689,521.2600097656,0,2,25,1,162,52
29,1530214737375,1538375, RC,0,39.9586422891,-88.4448908703,0,0.0,0.0,0.0,0.0,0.0,0.11219973119999999,0.0,0.0,0.0,0.0,0.0,0.0,0.0,1500,1680,0.0,0.0,40.0466691667,-88.2306678333,0.0,0.0,0.0,0.0,0.0,0.0,0.0,0.0,0.0,0.0,0.0,0,0.0,0.3600150347,0.2243994623,0.0,90.0,90.0,90.0,89.6997299194,90.5909881592,88.4264831543,44.9079971313,7.4118871689,521.2600097656,0,2,25,1,140,54
30,1530214737425,1538425, RC,0,39.9586422891,-88.4448908703,0,0.0,0.0,0.0,0.0,0.0,0.1299493611,0.0,0.0,0.0,0.0,0.0,0.0,0.0,1500,1500,0.0,0.0,40.0466691667,-88.2306678333,0.0,0.0,0.0,0.0,0.0,0.0,0.0,0.0,0.0,0.0,0.0,0,0.0,0.0,0.2598987222,0.0,90.0,90.0,90.0,90.145362854,90.7819747925,88.8084564209,44.9079971313,7.4118871689,521.2600097656,0,2,25,1,160,56
31,1530214737476,1538476, RC,0,39.9586422891,-88.4448908703,0,0.0,0.0,0.0,0.0,0.0,0.1114640012,0.0,0.0,0.0,0.0,0.0,0.0,0.0,1500,1500,0.0,0.0,40.0466691667,-88.2306678333,0.0,0.0,0.0,0.0,0.0,0.0,0.0,0.0,0.0,0.0,0.0,0,0.0,0.0,0.2229280025,0.0,90.0,90.0,90.0,90.0816955566,90.9729614258,89.0631027222,44.9079971313,7.4118871689,521.2600097656,0,2,25,1,117,59
32,1530214737526,1538526, RC,0,39.9586422891,-88.4448908703,0,0.0,0.0,0.0,0.0,0.0,0.08893208949999999,0.0,0.0,0.0,0.0,0.0,0.0,0.0,1500,1500,0.0,0.0,40.0466691667,-88.2306678333,0.0,0.0,0.0,0.0,0.0,0.0,0.0,0.0,0.0,0.0,0.0,0,0.0,0.0,0.17786417899999998,0.0,90.0,90.0,90.0,90.20902252200001,90.6546554565,90.20902252200001,44.9079971313,7.4118871689,521.2600097656,0,2,25,1,132,61
33,1530214737577,1538577, RC,0,39.9586422891,-88.4448908703,0,0.0,0.0,0.0,0.0,0.0,0.0640090257,0.0,0.0,0.0,0.0,0.0,0.0,0.0,1500,1500,0.0,0.0,40.0466691667,-88.2306678333,0.0,0.0,0.0,0.0,0.0,0.0,0.0,0.0,0.0,0.0,0.0,0,0.0,0.0,0.1280180514,0.0,90.0,90.0,90.0,90.20902252200001,90.3363494873,90.20902252200001,44.9079971313,7.4118871689,521.2600097656,0,2,25,1,165,64
34,1530214737627,1538627, RC,0,39.9586422891,-88.4448908703,0,0.0,0.0,0.0,0.0,0.0,0.0515015163,0.0,0.0,0.0,0.0,0.0,0.0,0.0,1500,1500,0.0,0.0,40.0466691667,-88.2306678333,0.0,0.0,0.0,0.0,0.0,0.0,0.0,0.0,0.0,0.0,0.0,0,0.0,0.0,0.1030030325,0.0,90.0,90.0,90.0,90.20902252200001,90.40000915530001,90.0816955566,44.9079971313,7.4118871689,521.2600097656,0,2,25,1,114,67
35,1530214737678,1538678, RC,0,39.9586422891,-88.4448908703,0,0.0,0.0,0.0,0.0,0.0,0.0367867984,0.0,0.0,0.0,0.0,0.0,0.0,0.0,1500,1500,0.0,0.0,40.0466691667,-88.2306678333,0.0,0.0,0.0,0.0,0.0,0.0,0.0,0.0,0.0,0.0,0.0,0,0.0,0.0,0.0735735968,0.0,90.0,90.0,90.0,90.20902252200001,90.4636688232,90.01803588870001,44.9079971313,7.4118871689,521.2600097656,0,2,25,1,139,69
36,1530214737729,1538729, RC,0,39.9586422891,-88.4448908703,0,0.0,0.0,0.0,0.0,0.0,0.0282338671,0.0,0.0,0.0,0.0,0.0,0.0,0.0,1500,1500,0.0,0.0,40.0466691667,-88.2306678333,0.0,0.0,0.0,0.0,0.0,0.0,0.0,0.0,0.0,0.0,0.0,0,0.0,0.0,0.056467734299999996,0.0,90.0,90.0,90.0,90.20902252200001,90.5909881592,89.8907089233,44.9079971313,7.412106990800001,520.8200073242,0,2,25,1,144,72
37,1530214737779,1538779, RC,0,39.9586422891,-88.4448908703,0,0.0,0.0,0.0,0.0,0.0,0.0200488046,0.0,0.0,0.0,0.0,0.0,0.0,0.0,1500,1500,0.0,0.0,40.0466691667,-88.2306678333,0.0,0.0,0.0,0.0,0.0,0.0,0.0,0.0,0.0,0.0,0.0,0,0.0,0.0,0.0400976092,0.0,90.0,90.0,90.0,90.20902252200001,90.6546554565,89.82704925540001,44.9079971313,7.412106990800001,520.8200073242,0,2,25,1,159,74
38,1530214737830,1538830, RC,0,39.9586422891,-88.4448908703,0,0.0,0.0,0.0,0.0,0.0,0.0156343896,0.0,0.0,0.0,0.0,0.0,0.0,0.0,1500,1500,0.0,0.0,40.0466691667,-88.2306678333,0.0,0.0,0.0,0.0,0.0,0.0,0.0,0.0,0.0,0.0,0.0,0,0.0,0.0,0.0312687792,0.0,90.0,90.0,90.0,90.145362854,90.7183227539,89.6997299194,44.9079971313,7.412106990800001,520.8200073242,0,2,25,1,164,77
39,1530214737880,1538880, RC,0,39.9586422891,-88.4448908703,0,0.0,0.0,0.0,0.0,0.0,0.0100244023,0.0,0.0,0.0,0.0,0.0,0.0,0.0,1500,1500,0.0,0.0,40.0466691667,-88.2306678333,0.0,0.0,0.0,0.0,0.0,0.0,0.0,0.0,0.0,0.0,0.0,0,0.0,0.0,0.0200488046,0.0,90.0,90.0,90.0,90.145362854,90.7819747925,89.63606262209998,44.9079971313,7.412106990800001,520.8200073242,0,2,25,1,150,79
40,1530214737931,1538931, RC,0,39.9586422891,-88.4448908703,0,0.0,0.0,0.0,0.0,0.0,0.0075412933,0.0,0.0,0.0,0.0,0.0,0.0,0.0,1500,1500,0.0,0.0,40.0466691667,-88.2306678333,0.0,0.0,0.0,0.0,0.0,0.0,0.0,0.0,0.0,0.0,0.0,0,0.0,0.0,0.0150825866,0.0,90.0,90.0,90.0,90.145362854,90.2726821899,89.5724029541,44.9079971313,7.412106990800001,520.8200073242,0,2,25,1,120,82
41,1530214737982,1538982, RC,0,39.9586422891,-88.4448908703,0,0.0,0.0,0.0,0.0,0.0,0.0048742509,0.0,0.0,0.0,0.0,0.0,0.0,0.0,1482,1500,0.0,0.0,40.0466691667,-88.2306678333,0.0,0.0,0.0,0.0,0.0,0.0,0.0,0.0,0.0,0.0,0.0,0,-0.0346000195,0.0,0.0097485017,0.0,90.0,90.0,90.0,90.145362854,89.6997299194,89.5087432861,44.9079971313,7.412106990800001,520.8200073242,0,2,25,1,139,84
42,1530214738032,1539032, RC,0,39.9586422891,-88.4448908703,0,0.0,0.0,0.0,0.0,0.0,0.0019313069000000001,0.0,0.0,0.0,0.0,0.0,0.0,0.0,1482,1500,0.0,0.0,40.0466691667,-88.2306678333,0.0,0.0,0.0,0.0,0.0,0.0,0.0,0.0,0.0,0.0,0.0,0,-0.0346000195,0.0,0.0038626138000000003,0.0,90.0,90.0,90.0,90.145362854,89.7633895874,89.5087432861,44.9079971313,7.412106990800001,520.8200073242,0,2,25,1,162,87
43,1530214738083,1539083, RC,0,39.9586422891,-88.4448908703,0,0.0,0.0,0.0,0.0,0.0,0.0009196699,0.0,0.0,0.0,0.0,0.0,0.0,0.0,1482,1500,0.0,0.0,40.0466691667,-88.2306678333,0.0,0.0,0.0,0.0,0.0,0.0,0.0,0.0,0.0,0.0,0.0,0,-0.0346000195,0.0,-0.0018393398,0.0,90.0,90.0,90.0,90.0816955566,89.82704925540001,89.44507598879999,44.9079971313,7.412106990800001,520.8200073242,0,2,25,1,116,89
44,1530214738133,1539133, RC,0,39.9586422891,-88.4448908703,0,0.0,0.0,0.0,0.0,0.0,0.0037706465999999997,0.0,0.0,0.0,0.0,0.0,0.0,0.0,1482,1500,0.0,0.0,40.0466691667,-88.2306678333,0.0,0.0,0.0,0.0,0.0,0.0,0.0,0.0,0.0,0.0,0.0,0,-0.0346000195,0.0,-0.0075412933,0.0,90.0,90.0,90.0,90.0816955566,89.82704925540001,89.44507598879999,44.9079971313,7.412106990800001,520.8200073242,0,2,25,1,153,92
45,1530214738184,1539184, RC,0,39.9586422891,-88.4448908703,0,0.0,0.0,0.0,0.0,0.0,0.0085529303,0.0,0.0,0.0,0.0,0.0,0.0,0.0,1255,1500,0.0,0.0,40.0466676667,-88.2306681667,0.0,0.0,0.0,0.0,0.0,0.0,0.0,0.0,0.0,0.0,0.0,0,-0.4894360304,0.0,-0.0171058606,0.0,90.0,90.0,90.0,90.0816955566,89.8907089233,89.3814163208,44.9079971313,7.412106990800001,520.8200073242,0,2,25,1,133,94
46,1530214738235,1539235, RC,0,39.9586422891,-88.4448908703,0,0.0,0.0,0.0,0.0,0.0,0.0125994785,0.0,0.0,0.0,0.0,0.0,0.0,0.0,1255,1500,0.0,0.0,40.0466676667,-88.2306681667,0.0,0.0,0.0,0.0,0.0,0.0,0.0,0.0,0.0,0.0,0.0,0,-0.4894360304,0.0,-0.025198957,0.0,90.0,90.0,90.0,90.0816955566,90.01803588870001,89.25408935549999,44.9079971313,7.412106990800001,520.8200073242,0,2,25,1,127,97
47,1530214738285,1539285, RC,0,39.9586422891,-88.4448908703,0,0.0,0.0,0.0,0.0,0.0,0.053800690899999996,0.0,0.0,0.0,0.0,0.0,0.0,0.0,1255,1500,0.0,0.0,40.0466676667,-88.2306681667,0.0,0.0,0.0,0.0,0.0,0.0,0.0,0.0,0.0,0.0,0.0,0,-0.4894360304,0.0,-0.10760138179999999,0.0,90.0,90.0,90.0,90.01803588870001,90.145362854,89.1904296875,44.9079971313,7.412106990800001,520.8200073242,0,2,25,1,133,99
48,1530214738355,1539355, RC,0,39.9586422891,-88.4448908703,0,0.0,0.0,0.0,0.0,0.0,0.1091648191,0.0,0.0,0.0,0.0,0.0,0.0,0.0,1255,1500,0.0,0.0,40.0466676667,-88.2306681667,0.0,0.0,0.0,0.0,0.0,0.0,0.0,0.0,0.0,0.0,0.0,0,-0.4894360304,0.0,-0.2183296382,0.0,90.0,90.0,90.0,90.0816955566,89.9543762207,89.63606262209998,45.445999145500004,7.412106990800001,520.8200073242,0,2,25,1,125,103
49,1530214738406,1539406, RC,0,39.9586422891,-88.4448908703,0,0.0,0.0,0.0,0.0,0.0,0.1268224865,0.0,0.0,0.0,0.0,0.0,0.0,0.0,1255,1500,0.0,0.0,40.0466676667,-88.2306681667,0.0,0.0,0.0,0.0,0.0,0.0,0.0,0.0,0.0,0.0,0.0,0,-0.4894360304,0.0,-0.253644973,0.0,90.0,90.0,90.0,90.7819747925,89.44507598879999,90.145362854,45.445999145500004,7.412106990800001,520.8200073242,0,2,25,1,154,105
50,1530214738456,1539456, RC,0,39.9586422891,-88.4448908703,0,0.0,0.0,0.0,0.0,0.0,0.1548724174,0.0,0.0,0.0,0.0,0.0,0.0,0.0,1255,1500,0.0,0.0,40.0466676667,-88.2306681667,0.0,0.0,0.0,0.0,0.0,0.0,0.0,0.0,0.0,0.0,0.0,0,-0.4894360304,0.0,-0.3097448349,0.0,90.0,90.0,90.0,90.9093093872,88.93578338620001,90.6546554565,45.445999145500004,7.412106990800001,520.8200073242,0,2,25,1,147,108
51,1530214738507,1539507, RC,0,39.9586422891,-88.4448908703,0,0.0,0.0,0.0,0.0,0.0,0.1671040356,0.0,0.0,0.0,0.0,0.0,0.0,0.0,1255,1500,0.0,0.0,40.0466676667,-88.2306681667,0.0,0.0,0.0,0.0,0.0,0.0,0.0,0.0,0.0,0.0,0.0,0,-0.4894360304,0.0,-0.3342080712,0.0,90.0,90.0,90.0,90.7819747925,88.8084564209,90.9093093872,45.445999145500004,7.412106990800001,520.8200073242,0,2,25,1,139,110
52,1530214738557,1539557, RC,0,39.9586422891,-88.4448908703,0,0.0,0.0,0.0,0.0,0.0,0.19680938120000002,0.0,0.0,0.0,0.0,0.0,0.0,0.0,1255,1500,0.0,0.0,40.0466676667,-88.2306681667,0.0,0.0,0.0,0.0,0.0,0.0,0.0,0.0,0.0,0.0,0.0,0,-0.4894360304,0.0,-0.3936187625,0.0,90.0,90.0,90.0,90.8456420898,89.12677001950001,90.20902252200001,45.445999145500004,7.412106990800001,520.8200073242,0,2,25,1,133,113
53,1530214738608,1539608, RC,0,39.9586422891,-88.4448908703,0,0.0,0.0,0.0,0.0,0.0,0.19276282190000002,0.0,0.0,0.0,0.0,0.0,0.0,0.0,1255,1500,0.0,0.0,40.0466676667,-88.2306681667,0.0,0.0,0.0,0.0,0.0,0.0,0.0,0.0,0.0,0.0,0.0,0,-0.4894360304,0.0,-0.38552564380000004,0.0,90.0,90.0,90.0,90.7183227539,89.1904296875,90.2726821899,45.445999145500004,7.412106990800001,520.8200073242,0,2,25,1,115,115
54,1530214738659,1539659, RC,0,39.9586422891,-88.4448908703,0,0.0,0.0,0.0,0.0,0.0,0.20619000489999997,0.0,0.0,0.0,0.0,0.0,0.0,0.0,1255,1500,0.0,0.0,40.0466676667,-88.2306681667,0.0,0.0,0.0,0.0,0.0,0.0,0.0,0.0,0.0,0.0,0.0,0,-0.4894360304,0.0,-0.4123800099,0.0,90.0,90.0,90.0,90.0816955566,89.44507598879999,89.63606262209998,45.445999145500004,7.412106990800001,520.8200073242,0,2,25,1,81,118
55,1530214738709,1539709, RC,0,39.9586422891,-88.4448908703,0,0.0,0.0,0.0,0.0,0.0,0.20802934469999998,0.0,0.0,0.0,0.0,0.0,0.0,0.0,1255,1500,0.0,0.0,40.0466676667,-88.2306681667,0.0,0.0,0.0,0.0,0.0,0.0,0.0,0.0,0.0,0.0,0.0,0,-0.4894360304,0.0,-0.41605868939999996,0.0,90.0,90.0,90.0,89.9543762207,89.5087432861,89.5087432861,45.445999145500004,7.412106990800001,520.8200073242,0,2,25,1,88,120
56,1530214738760,1539760, RC,0,39.9586422891,-88.4448908703,0,0.0,0.0,0.0,0.0,0.0,0.2282620817,0.0,0.0,0.0,0.0,0.0,0.0,0.0,1255,1500,0.0,0.0,40.0466676667,-88.2306681667,0.0,0.0,0.0,0.0,0.0,0.0,0.0,0.0,0.0,0.0,0.0,0,-0.4894360304,0.0,-0.4565241635,0.0,90.0,90.0,90.0,90.0816955566,89.5087432861,89.5087432861,45.445999145500004,7.3932547569,544.5800170898,0,2,25,1,94,123
57,1530214738810,1539810, RC,0,39.9586422891,-88.4448908703,0,0.0,0.0,0.0,0.0,0.0,0.2370909005,0.0,0.0,0.0,0.0,0.0,0.0,0.0,1255,1500,0.0,0.0,40.0466676667,-88.2306681667,0.0,0.0,0.0,0.0,0.0,0.0,0.0,0.0,0.0,0.0,0.0,0,-0.4894360304,0.0,-0.47418180109999997,0.0,90.0,90.0,90.0,90.0816955566,89.63606262209998,89.1904296875,45.445999145500004,7.3932547569,544.5800170898,0,2,25,1,107,125
58,1530214738861,1539861, RC,0,39.9586422891,-88.4448908703,0,0.0,0.0,0.0,0.0,0.0,0.2523574233,0.0,0.0,0.0,0.0,0.0,0.0,0.0,1255,1500,0.0,0.0,40.0466676667,-88.2306681667,0.0,0.0,0.0,0.0,0.0,0.0,0.0,0.0,0.0,0.0,0.0,0,-0.4894360304,0.0,-0.5047148466,0.0,90.0,90.0,90.0,89.5087432861,89.9543762207,88.93578338620001,45.445999145500004,7.3932547569,544.5800170898,0,2,25,1,110,128
59,1530214738911,1539911, RC,0,39.9586422891,-88.4448908703,0,0.0,0.0,0.0,0.0,0.0,0.253277123,0.0,0.0,0.0,0.0,0.0,0.0,0.0,1255,1500,0.0,0.0,40.0466676667,-88.2306681667,0.0,0.0,0.0,0.0,0.0,0.0,0.0,0.0,0.0,0.0,0.0,0,-0.4894360304,0.0,-0.5065542459000001,0.0,90.0,90.0,90.0,88.9994430542,90.20902252200001,88.6174697876,45.445999145500004,7.3932547569,544.5800170898,0,2,25,1,109,130
60,1530214738962,1539962, RC,0,39.9586422891,-88.4448908703,0,0.0,0.0,0.0,0.0,0.0,0.26403725149999996,0.0,0.0,0.0,0.0,0.0,0.0,0.0,1255,1500,0.0,0.0,40.0466676667,-88.2306681667,0.0,0.0,0.0,0.0,0.0,0.0,0.0,0.0,0.0,0.0,0.0,0,-0.4894360304,0.0,-0.5280745029,0.0,90.0,90.0,90.0,88.4901504517,90.3363494873,89.0631027222,45.445999145500004,7.3932547569,544.5800170898,0,2,25,1,118,133
61,1530214739013,1540013, RC,0,39.9586422891,-88.4448908703,0,0.0,0.0,0.0,0.0,0.0,0.2663364112,0.0,0.0,0.0,0.0,0.0,0.0,0.0,1255,1500,0.0,0.0,40.0466676667,-88.2306681667,0.0,0.0,0.0,0.0,0.0,0.0,0.0,0.0,0.0,0.0,0.0,0,-0.4894360304,0.0,-0.5326728225,0.0,90.0,90.0,90.0,88.8721160889,90.40000915530001,89.44507598879999,45.445999145500004,7.3932547569,544.5800170898,0,2,25,1,89,135
62,1530214739063,1540063, RC,0,39.9586422891,-88.4448908703,0,0.0,0.0,0.0,0.0,0.0,0.267531991,0.0,0.0,0.0,0.0,0.0,0.0,0.0,1255,1500,0.0,0.0,40.0466676667,-88.2306681667,0.0,0.0,0.0,0.0,0.0,0.0,0.0,0.0,0.0,0.0,0.0,0,-0.4894360304,0.0,-0.535063982,0.0,90.0,90.0,90.0,89.63606262209998,90.2726821899,89.5724029541,45.445999145500004,7.3932547569,544.5800170898,0,2,25,1,72,138
63,1530214739114,1540114, RC,0,39.9586422891,-88.4448908703,0,0.0,0.0,0.0,0.0,0.0,0.2620139718,0.0,0.0,0.0,0.0,0.0,0.0,0.0,1255,1500,0.0,0.0,40.0466676667,-88.2306681667,0.0,0.0,0.0,0.0,0.0,0.0,0.0,0.0,0.0,0.0,0.0,0,-0.4894360304,0.0,-0.5240279436,0.0,90.0,90.0,90.0,89.3814163208,91.5459213257,88.4264831543,45.445999145500004,7.3932547569,544.5800170898,0,2,25,1,114,140
64,1530214739164,1540164, RC,0,39.9586422891,-88.4448908703,0,0.0,0.0,0.0,0.0,0.0,0.267623961,0.0,0.0,0.0,0.0,0.0,0.0,0.0,1255,1500,0.0,0.0,40.046669,-88.2306695,0.0,0.0,0.0,0.0,0.0,0.0,0.0,0.0,0.0,0.0,0.0,0,-0.4894360304,0.0,-0.5352479218999999,0.0,90.0,90.0,90.0,89.1904296875,91.4186019897,88.4264831543,45.445999145500004,7.3932547569,544.5800170898,0,2,25,1,105,143
65,1530214739215,1540215, RC,0,39.9586422891,-88.4448908703,0,0.0,0.0,0.0,0.0,0.0,0.2623818517,0.0,0.0,0.0,0.0,0.0,0.0,0.0,1255,1500,0.0,0.0,40.046669,-88.2306695,0.0,0.0,0.0,0.0,0.0,0.0,0.0,0.0,0.0,0.0,0.0,0,-0.4894360304,0.0,-0.5247637033,0.0,90.0,90.0,90.0,90.5909881592,91.29127502440001,88.6174697876,45.445999145500004,7.3932547569,544.5800170898,0,2,25,1,110,146
66,1530214739265,1540265, RC,0,39.9586422891,-88.4448908703,0,0.0,0.0,0.0,0.0,0.0,0.2621059418,0.0,0.0,0.0,0.0,0.0,0.0,0.0,1255,1500,0.0,0.0,40.046669,-88.2306695,0.0,0.0,0.0,0.0,0.0,0.0,0.0,0.0,0.0,0.0,0.0,0,-0.4894360304,0.0,-0.5242118835,0.0,90.0,90.0,90.0,90.3363494873,91.0366287231,88.74479675290002,45.445999145500004,7.3932547569,544.5800170898,0,2,25,1,140,148
67,1530214739316,1540316, RC,0,39.9586422891,-88.4448908703,0,0.0,0.0,0.0,0.0,0.0,0.2606344819,0.0,0.0,0.0,0.0,0.0,0.0,0.0,1255,1500,0.0,0.0,40.046669,-88.2306695,0.0,0.0,0.0,0.0,0.0,0.0,0.0,0.0,0.0,0.0,0.0,0,-0.4894360304,0.0,-0.5212689638,0.0,90.0,90.0,90.0,89.8907089233,90.01803588870001,89.5724029541,45.445999145500004,7.3932547569,544.5800170898,0,2,25,1,96,151
68,1530214739367,1540367, RC,0,39.9586422891,-88.4448908703,0,0.0,0.0,0.0,0.0,0.0,0.2518056333,0.0,0.0,0.0,0.0,0.0,0.0,0.0,1255,1500,0.0,0.0,40.046669,-88.2306695,0.0,0.0,0.0,0.0,0.0,0.0,0.0,0.0,0.0,0.0,0.0,0,-0.4894360304,0.0,-0.5036112666,0.0,90.0,90.0,90.0,90.4636688232,90.01803588870001,89.3177566528,45.445999145500004,7.3932547569,544.5800170898,0,2,25,1,100,153
69,1530214739417,1540417, RC,0,39.9586422891,-88.4448908703,0,0.0,0.0,0.0,0.0,0.0,0.2580593824,0.0,0.0,0.0,0.0,0.0,0.0,0.0,1255,1500,0.0,0.0,40.046669,-88.2306695,0.0,0.0,0.0,0.0,0.0,0.0,0.0,0.0,0.0,0.0,0.0,0,-0.4894360304,0.0,-0.5249476433,0.0,90.0,90.0,90.0,90.4636688232,89.6997299194,90.2726821899,45.445999145500004,7.3932547569,544.5800170898,0,2,25,1,141,156
70,1530214739468,1540468, RC,0,39.9586422891,-88.4448908703,0,0.0,0.0,0.0,0.0,0.0,0.25511643289999997,0.0,0.0,0.0,0.0,0.0,0.0,0.0,1255,1500,0.0,0.0,40.046669,-88.2306695,0.0,0.0,0.0,0.0,0.0,0.0,0.0,0.0,0.0,0.0,0.0,0,-0.4894360304,0.0,-0.5102328657999999,0.0,90.0,90.0,90.0,90.5273361206,88.93578338620001,91.2276153564,45.445999145500004,7.3932547569,544.5800170898,0,2,25,1,101,158
71,1530214739518,1540518, RC,0,39.9586422891,-88.4448908703,0,0.0,0.0,0.0,0.0,0.0,0.2476671189,0.0,0.0,0.0,0.0,0.0,0.0,0.0,1500,1500,0.0,0.0,40.046669,-88.2306695,0.0,0.0,0.0,0.0,0.0,0.0,0.0,0.0,0.0,0.0,0.0,0,0.0,0.0,-0.4953342378,0.0,90.0,90.0,90.0,91.3549346924,89.3814163208,90.7183227539,45.445999145500004,7.3932547569,544.5800170898,0,2,25,1,102,161
72,1530214739569,1540569, RC,0,39.9586422891,-88.4448908703,0,0.0,0.0,0.0,0.0,0.0,0.2292737216,0.0,0.0,0.0,0.0,0.0,0.0,0.0,1500,1500,0.0,0.0,40.046669,-88.2306695,0.0,0.0,0.0,0.0,0.0,0.0,0.0,0.0,0.0,0.0,0.0,0,0.0,0.0,-0.4585474432,0.0,90.0,90.0,90.0,91.10028839110001,89.5724029541,89.7633895874,45.445999145500004,7.3932547569,544.5800170898,0,2,25,1,117,163
73,1530214739619,1540619, RC,0,39.9586422891,-88.4448908703,0,0.0,0.0,0.0,0.0,0.0,0.1836580932,0.0,0.0,0.0,0.0,0.0,0.0,0.0,1500,1500,0.0,0.0,40.046669,-88.2306695,0.0,0.0,0.0,0.0,0.0,0.0,0.0,0.0,0.0,0.0,0.0,0,0.0,0.0,-0.3673161864,0.0,90.0,90.0,90.0,90.5909881592,90.5273361206,87.7898712158,45.445999145500004,7.3932547569,544.5800170898,0,2,25,1,137,166
74,1530214739670,1540670, RC,0,39.9586422891,-88.4448908703,0,0.0,0.0,0.0,0.0,0.0,0.1533089876,0.0,0.0,0.0,0.0,0.0,0.0,0.0,1500,1500,0.0,0.0,40.046669,-88.2306695,0.0,0.0,0.0,0.0,0.0,0.0,0.0,0.0,0.0,0.0,0.0,0,0.0,0.0,-0.3066179752,0.0,90.0,90.0,90.0,90.4636688232,90.7819747925,88.4901504517,45.445999145500004,7.3932547569,544.5800170898,0,2,25,1,130,168
75,1530214739721,1540721, RC,0,39.9586422891,-88.4448908703,0,0.0,0.0,0.0,0.0,0.0,0.116338253,0.0,0.0,0.0,0.0,0.0,0.0,0.0,1500,1500,0.0,0.0,40.046669,-88.2306695,0.0,0.0,0.0,0.0,0.0,0.0,0.0,0.0,0.0,0.0,0.0,0,0.0,0.0,-0.232676506,0.0,90.0,90.0,90.0,90.4636688232,90.7819747925,89.3814163208,45.445999145500004,7.388417243999999,520.9199829102,0,2,25,1,142,171
76,1530214739771,1540771, RC,0,39.9586422891,-88.4448908703,0,0.0,0.0,0.0,0.0,0.0,0.09868058560000001,0.0,0.0,0.0,0.0,0.0,0.0,0.0,1500,1500,0.0,0.0,40.046669,-88.2306695,0.0,0.0,0.0,0.0,0.0,0.0,0.0,0.0,0.0,0.0,0.0,0,0.0,0.0,-0.19736117120000002,0.0,90.0,90.0,90.0,90.5909881592,89.9543762207,89.3177566528,45.445999145500004,7.388417243999999,520.9199829102,0,2,25,1,144,173
77,1530214739822,1540822, RC,0,39.9586422891,-88.4448908703,0,0.0,0.0,0.0,0.0,0.0,0.07568883900000001,0.0,0.0,0.0,0.0,0.0,0.0,0.0,1500,1500,0.0,0.0,40.046669,-88.2306695,0.0,0.0,0.0,0.0,0.0,0.0,0.0,0.0,0.0,0.0,0.0,0,0.0,0.0,-0.15137767789999998,0.0,90.0,90.0,90.0,90.4636688232,89.7633895874,89.3177566528,45.445999145500004,7.388417243999999,520.9199829102,0,2,25,1,145,176
78,1530214739872,1540872, RC,0,39.9586422891,-88.4448908703,0,0.0,0.0,0.0,0.0,0.0,0.0620777234,0.0,0.0,0.0,0.0,0.0,0.0,0.0,1500,1500,0.0,0.0,40.046669,-88.2306695,0.0,0.0,0.0,0.0,0.0,0.0,0.0,0.0,0.0,0.0,0.0,0,0.0,0.0,-0.1241554469,0.0,90.0,90.0,90.0,90.5273361206,89.63606262209998,89.3814163208,45.445999145500004,7.388417243999999,520.9199829102,0,2,25,1,115,178
79,1530214739923,1540923, RC,0,39.9586422891,-88.4448908703,0,0.0,0.0,0.0,0.0,0.0,0.046719234400000004,0.0,0.0,0.0,0.0,0.0,0.0,0.0,1500,1500,0.0,0.0,40.046669,-88.2306695,0.0,0.0,0.0,0.0,0.0,0.0,0.0,0.0,0.0,0.0,0.0,0,0.0,0.0,-0.0934384689,0.0,90.0,90.0,90.0,90.5909881592,89.5724029541,89.44507598879999,45.445999145500004,7.388417243999999,520.9199829102,0,2,25,1,116,181
80,1530214739973,1540973, RC,0,39.9586422891,-88.4448908703,0,0.0,0.0,0.0,0.0,0.0,0.0387181044,0.0,0.0,0.0,0.0,0.0,0.0,0.0,1500,1500,0.0,0.0,40.046669,-88.2306695,0.0,0.0,0.0,0.0,0.0,0.0,0.0,0.0,0.0,0.0,0.0,0,0.0,0.0,-0.0774362087,0.0,90.0,90.0,90.0,90.5909881592,89.5724029541,89.44507598879999,45.445999145500004,7.388417243999999,520.9199829102,0,2,25,1,139,183
81,1530214740024,1541024, RC,0,39.9586422891,-88.4448908703,0,0.0,0.0,0.0,0.0,0.0,0.029153537,0.0,0.0,0.0,0.0,0.0,0.0,0.0,1500,1500,0.0,0.0,40.046669,-88.2306695,0.0,0.0,0.0,0.0,0.0,0.0,0.0,0.0,0.0,0.0,0.0,0,0.0,0.0,-0.058307074,0.0,90.0,90.0,90.0,90.5909881592,89.5724029541,89.44507598879999,45.445999145500004,7.388417243999999,520.9199829102,0,2,25,1,150,186
82,1530214740075,1541075, RC,0,39.9586422891,-88.4448908703,0,0.0,0.0,0.0,0.0,0.0,0.0240953527,0.0,0.0,0.0,0.0,0.0,0.0,0.0,1500,1500,0.0,0.0,40.046669,-88.2306695,0.0,0.0,0.0,0.0,0.0,0.0,0.0,0.0,0.0,0.0,0.0,0,0.0,0.0,-0.0481907055,0.0,90.0,90.0,90.0,90.5909881592,89.5724029541,89.44507598879999,45.445999145500004,7.388417243999999,520.9199829102,0,2,25,1,145,188
83,1530214740125,1541125, RC,0,39.9586422891,-88.4448908703,0,0.0,0.0,0.0,0.0,0.0,0.0182094648,0.0,0.0,0.0,0.0,0.0,0.0,0.0,1500,1500,0.0,0.0,40.0466738333,-88.2306661667,0.0,0.0,0.0,0.0,0.0,0.0,0.0,0.0,0.0,0.0,0.0,0,0.0,0.0,-0.036418929700000005,0.0,90.0,90.0,90.0,90.5909881592,89.5724029541,89.44507598879999,45.445999145500004,7.388417243999999,520.9199829102,0,2,25,1,138,191
84,1530214740176,1541176, RC,0,39.9586422891,-88.4448908703,0,0.0,0.0,0.0,0.0,0.0,0.0149906203,0.0,0.0,0.0,0.0,0.0,0.0,0.0,1500,1500,0.0,0.0,40.0466738333,-88.2306661667,0.0,0.0,0.0,0.0,0.0,0.0,0.0,0.0,0.0,0.0,0.0,0,0.0,0.0,-0.0299812406,0.0,90.0,90.0,90.0,90.5909881592,89.5724029541,89.44507598879999,45.445999145500004,7.388417243999999,520.9199829102,0,2,25,1,136,193
85,1530214740226,1541226, RC,0,39.9586422891,-88.4448908703,0,0.0,0.0,0.0,0.0,0.0,0.011219973700000002,0.0,0.0,0.0,0.0,0.0,0.0,0.0,1500,1500,0.0,0.0,40.0466738333,-88.2306661667,0.0,0.0,0.0,0.0,0.0,0.0,0.0,0.0,0.0,0.0,0.0,0,0.0,0.0,-0.022439947400000004,0.0,90.0,90.0,90.0,90.5909881592,89.5724029541,89.3814163208,45.445999145500004,7.388417243999999,520.9199829102,0,2,25,1,129,196
86,1530214740277,1541277, RC,0,39.9586422891,-88.4448908703,0,0.0,0.0,0.0,0.0,0.0,0.009288666800000001,0.0,0.0,0.0,0.0,0.0,0.0,0.0,1500,1500,0.0,0.0,40.0466738333,-88.2306661667,0.0,0.0,0.0,0.0,0.0,0.0,0.0,0.0,0.0,0.0,0.0,0,0.0,0.0,-0.0185773335,0.0,90.0,90.0,90.0,90.5909881592,89.63606262209998,89.3814163208,45.445999145500004,7.388417243999999,520.9199829102,0,2,25,1,137,198
87,1530214740327,1541327, RC,0,39.9586422891,-88.4448908703,0,0.0,0.0,0.0,0.0,0.0,0.006897524499999999,0.0,0.0,0.0,0.0,0.0,0.0,0.0,1500,1500,0.0,0.0,40.0466738333,-88.2306661667,0.0,0.0,0.0,0.0,0.0,0.0,0.0,0.0,0.0,0.0,0.0,0,0.0,0.0,-0.013795048899999999,0.0,90.0,90.0,90.0,90.5909881592,89.63606262209998,89.44507598879999,45.445999145500004,7.388417243999999,520.9199829102,0,2,25,1,120,201
88,1530214740378,1541378, RC,0,39.9586422891,-88.4448908703,0,0.0,0.0,0.0,0.0,0.0,0.005793920699999999,0.0,0.0,0.0,0.0,0.0,0.0,0.0,1500,1500,0.0,0.0,40.0466738333,-88.2306661667,0.0,0.0,0.0,0.0,0.0,0.0,0.0,0.0,0.0,0.0,0.0,0,0.0,0.0,-0.011587841399999998,0.0,90.0,90.0,90.0,90.5909881592,89.63606262209998,89.3814163208,45.445999145500004,7.388417243999999,520.9199829102,0,2,25,1,102,203
89,1530214740429,1541429, RC,0,39.9586422891,-88.4448908703,0,0.0,0.0,0.0,0.0,0.0,0.0043224487,0.0,0.0,0.0,0.0,0.0,0.0,0.0,1500,1500,0.0,0.0,40.0466738333,-88.2306661667,0.0,0.0,0.0,0.0,0.0,0.0,0.0,0.0,0.0,0.0,0.0,0,0.0,0.0,-0.0086448975,0.0,90.0,90.0,90.0,90.5909881592,89.63606262209998,89.3814163208,45.445999145500004,7.388417243999999,520.9199829102,0,2,25,1,130,206
90,1530214740479,1541479, RC,0,39.9586422891,-88.4448908703,0,0.0,0.0,0.0,0.0,0.0,0.0033108116999999997,0.0,0.0,0.0,0.0,0.0,0.0,0.0,1500,1500,0.0,0.0,40.0466738333,-88.2306661667,0.0,0.0,0.0,0.0,0.0,0.0,0.0,0.0,0.0,0.0,0.0,0,0.0,0.0,-0.006621623399999999,0.0,90.0,90.0,90.0,90.5909881592,89.63606262209998,89.3814163208,45.445999145500004,7.388417243999999,520.9199829102,0,2,25,1,126,208
91,1530214740530,1541530, RC,0,39.9586422891,-88.4448908703,0,0.0,0.0,0.0,0.0,0.0,0.0026670429,0.0,0.0,0.0,0.0,0.0,0.0,0.0,1500,1500,0.0,0.0,40.0466738333,-88.2306661667,0.0,0.0,0.0,0.0,0.0,0.0,0.0,0.0,0.0,0.0,0.0,0,0.0,0.0,-0.0053340858,0.0,90.0,90.0,90.0,90.5909881592,89.63606262209998,89.3814163208,45.445999145500004,7.388417243999999,520.9199829102,0,2,25,1,117,211
92,1530214740580,1541580, RC,0,39.9586422891,-88.4448908703,0,0.0,0.0,0.0,0.0,0.0,0.002207208,0.0,0.0,0.0,0.0,0.0,0.0,0.0,1500,1500,0.0,0.0,40.0466738333,-88.2306661667,0.0,0.0,0.0,0.0,0.0,0.0,0.0,0.0,0.0,0.0,0.0,0,0.0,0.0,-0.0044144159,0.0,90.0,90.0,90.0,90.5909881592,89.6997299194,89.3814163208,45.445999145500004,7.388417243999999,520.9199829102,0,2,25,1,127,213
93,1530214740631,1541631, RC,0,39.9586422891,-88.4448908703,0,0.0,0.0,0.0,0.0,0.0,0.0016554058999999999,0.0,0.0,0.0,0.0,0.0,0.0,0.0,1500,1500,0.0,0.0,40.0466738333,-88.2306661667,0.0,0.0,0.0,0.0,0.0,0.0,0.0,0.0,0.0,0.0,0.0,0,0.0,0.0,-0.0033108116999999997,0.0,90.0,90.0,90.0,90.5909881592,89.6997299194,89.3814163208,45.445999145500004,7.388417243999999,520.9199829102,0,2,25,1,105,216
94,1530214740681,1541681, RC,0,39.9586422891,-88.4448908703,0,0.0,0.0,0.0,0.0,0.0,0.0011955709,0.0,0.0,0.0,0.0,0.0,0.0,0.0,1500,1500,0.0,0.0,40.0466738333,-88.2306661667,0.0,0.0,0.0,0.0,0.0,0.0,0.0,0.0,0.0,0.0,0.0,0,0.0,0.0,-0.0023911418,0.0,90.0,90.0,90.0,90.5909881592,89.6997299194,89.3814163208,45.445999145500004,7.388417243999999,520.9199829102,0,2,25,1,150,218
95,1530214740732,1541732, RC,0,39.9586422891,-88.4448908703,0,0.0,0.0,0.0,0.0,0.0,0.0010116369,0.0,0.0,0.0,0.0,0.0,0.0,0.0,1500,1500,0.0,0.0,40.0466738333,-88.2306661667,0.0,0.0,0.0,0.0,0.0,0.0,0.0,0.0,0.0,0.0,0.0,0,0.0,0.0,-0.0020232738,0.0,90.0,90.0,90.0,90.5909881592,89.6997299194,89.3814163208,45.445999145500004,7.3885126113999995,520.5399780273,0,2,25,1,155,221
96,1530214740783,1541783, RC,0,39.9586422891,-88.4448908703,0,0.0,0.0,0.0,0.0,0.0,0.0007357360000000001,0.0,0.0,0.0,0.0,0.0,0.0,0.0,1500,1500,0.0,0.0,40.0466738333,-88.2306661667,0.0,0.0,0.0,0.0,0.0,0.0,0.0,0.0,0.0,0.0,0.0,0,0.0,0.0,-0.0014714720000000001,0.0,90.0,90.0,90.0,90.5909881592,89.6997299194,89.3814163208,45.445999145500004,7.3885126113999995,520.5399780273,0,2,25,1,139,224
97,1530214740833,1541833, RC,0,39.9586422891,-88.4448908703,0,0.0,0.0,0.0,0.0,0.0,0.000643769,0.0,0.0,0.0,0.0,0.0,0.0,0.0,1500,1500,0.0,0.0,40.0466738333,-88.2306661667,0.0,0.0,0.0,0.0,0.0,0.0,0.0,0.0,0.0,0.0,0.0,0,0.0,0.0,-0.001287538,0.0,90.0,90.0,90.0,90.5909881592,89.6997299194,89.3814163208,45.445999145500004,7.3885126113999995,520.5399780273,0,2,25,1,155,226
98,1530214740884,1541884, RC,0,39.9586422891,-88.4448908703,0,0.0,0.0,0.0,0.0,0.0,0.000459835,0.0,0.0,0.0,0.0,0.0,0.0,0.0,1500,1500,0.0,0.0,40.0466738333,-88.2306661667,0.0,0.0,0.0,0.0,0.0,0.0,0.0,0.0,0.0,0.0,0.0,0,0.0,0.0,-0.0009196699,0.0,90.0,90.0,90.0,90.5909881592,89.7633895874,89.3814163208,45.445999145500004,7.3885126113999995,520.5399780273,0,2,25,1,135,229
99,1530214740934,1541934, RC,0,39.9586422891,-88.4448908703,0,0.0,0.0,0.0,0.0,0.0,0.00036786800000000004,0.0,0.0,0.0,0.0,0.0,0.0,0.0,1500,1500,0.0,0.0,40.0466738333,-88.2306661667,0.0,0.0,0.0,0.0,0.0,0.0,0.0,0.0,0.0,0.0,0.0,0,0.0,0.0,-0.0007357360000000001,0.0,90.0,90.0,90.0,90.5909881592,89.7633895874,89.3814163208,45.445999145500004,7.3885126113999995,520.5399780273,0,2,25,1,108,231
100,1530214740985,1541985, RC,0,39.9586422891,-88.4448908703,0,0.0,0.0,0.0,0.0,0.0,0.000275901,0.0,0.0,0.0,0.0,0.0,0.0,0.0,1500,1500,0.0,0.0,40.0466738333,-88.2306661667,0.0,0.0,0.0,0.0,0.0,0.0,0.0,0.0,0.0,0.0,0.0,0,0.0,0.0,-0.000551802,0.0,90.0,90.0,90.0,90.5909881592,89.7633895874,89.3814163208,45.445999145500004,7.3885126113999995,520.5399780273,0,2,25,1,119,234
101,1530214741035,1542035, RC,0,39.9586422891,-88.4448908703,0,0.0,0.0,0.0,0.0,0.0,0.00018393400000000002,0.0,0.0,0.0,0.0,0.0,0.0,0.0,1500,1500,0.0,0.0,40.0466738333,-88.2306661667,0.0,0.0,0.0,0.0,0.0,0.0,0.0,0.0,0.0,0.0,0.0,0,0.0,0.0,-0.00036786800000000004,0.0,90.0,90.0,90.0,90.5909881592,89.7633895874,89.3814163208,45.445999145500004,7.3885126113999995,520.5399780273,0,2,25,1,110,236
102,1530214741086,1542086, RC,0,39.9586422891,-88.4448908703,0,0.0,0.0,0.0,0.0,0.0,0.00018393400000000002,0.0,0.0,0.0,0.0,0.0,0.0,0.0,1500,1500,0.0,0.0,40.0466738333,-88.2306661667,0.0,0.0,0.0,0.0,0.0,0.0,0.0,0.0,0.0,0.0,0.0,0,0.0,0.0,-0.00036786800000000004,0.0,90.0,90.0,90.0,90.5909881592,89.7633895874,89.3814163208,45.445999145500004,7.3885126113999995,520.5399780273,0,2,25,1,118,239
103,1530214741137,1542137, RC,0,39.9586422891,-88.4448908703,0,0.0,0.0,0.0,0.0,0.0,0.00018393400000000002,0.0,0.0,0.0,0.0,0.0,0.0,0.0,1500,1500,0.0,0.0,40.0466738333,-88.2306661667,0.0,0.0,0.0,0.0,0.0,0.0,0.0,0.0,0.0,0.0,0.0,0,0.0,0.0,-0.00036786800000000004,0.0,90.0,90.0,90.0,90.5909881592,89.7633895874,89.3814163208,45.445999145500004,7.3885126113999995,520.5399780273,0,2,25,1,158,241
104,1530214741187,1542187, RC,0,39.9586422891,-88.4448908703,0,0.0,0.0,0.0,0.0,0.0,0.00018393400000000002,0.0,0.0,0.0,0.0,0.0,0.0,0.0,1500,1500,0.0,0.0,40.0466728333,-88.2306565,0.0,0.0,0.0,0.0,0.0,0.0,0.0,0.0,0.0,0.0,0.0,0,0.0,0.0,-0.00036786800000000004,0.0,90.0,90.0,90.0,90.5909881592,89.82704925540001,89.3814163208,45.445999145500004,7.3885126113999995,520.5399780273,0,2,25,1,103,244
105,1530214741238,1542238, RC,0,39.9586422891,-88.4448908703,0,0.0,0.0,0.0,0.0,0.0,0.00018393400000000002,0.0,0.0,0.0,0.0,0.0,0.0,0.0,1500,1500,0.0,0.0,40.0466728333,-88.2306565,0.0,0.0,0.0,0.0,0.0,0.0,0.0,0.0,0.0,0.0,0.0,0,0.0,0.0,-0.00036786800000000004,0.0,90.0,90.0,90.0,90.5909881592,89.82704925540001,89.3814163208,45.445999145500004,7.3885126113999995,520.5399780273,0,2,25,1,122,246
106,1530214741288,1542288, RC,0,39.9586422891,-88.4448908703,0,0.0,0.0,0.0,0.0,0.0,0.00018393400000000002,0.0,0.0,0.0,0.0,0.0,0.0,0.0,1500,1500,0.0,0.0,40.0466728333,-88.2306565,0.0,0.0,0.0,0.0,0.0,0.0,0.0,0.0,0.0,0.0,0.0,0,0.0,0.0,-0.00036786800000000004,0.0,90.0,90.0,90.0,90.5909881592,89.82704925540001,89.3814163208,45.445999145500004,7.3885126113999995,520.5399780273,0,2,25,1,134,249
107,1530214741339,1542339, RC,0,39.9586422891,-88.4448908703,0,0.0,0.0,0.0,0.0,0.0,0.00018393400000000002,0.0,0.0,0.0,0.0,0.0,0.0,0.0,1500,1500,0.0,0.0,40.0466728333,-88.2306565,0.0,0.0,0.0,0.0,0.0,0.0,0.0,0.0,0.0,0.0,0.0,0,0.0,0.0,-0.00036786800000000004,0.0,90.0,90.0,90.0,90.5909881592,89.82704925540001,89.3814163208,45.445999145500004,7.3885126113999995,520.5399780273,0,2,25,1,132,251
108,1530214741390,1542390, RC,0,39.9586422891,-88.4448908703,0,0.0,0.0,0.0,0.0,0.0,0.0,0.0,0.0,0.0,0.0,0.0,0.0,0.0,1500,1500,0.0,0.0,40.0466728333,-88.2306565,0.0,0.0,0.0,0.0,0.0,0.0,0.0,0.0,0.0,0.0,0.0,0,0.0,0.0,0.0,0.0,90.0,90.0,90.0,90.5909881592,89.82704925540001,89.3814163208,45.445999145500004,7.3885126113999995,520.5399780273,0,2,25,1,104,254
109,1530214741440,1542440, RC,0,39.9586422891,-88.4448908703,0,0.0,0.0,0.0,0.0,0.0,0.0,0.0,0.0,0.0,0.0,0.0,0.0,0.0,1500,1500,0.0,0.0,40.0466728333,-88.2306565,0.0,0.0,0.0,0.0,0.0,0.0,0.0,0.0,0.0,0.0,0.0,0,0.0,0.0,0.0,0.0,90.0,90.0,90.0,90.5909881592,89.82704925540001,89.3814163208,45.445999145500004,7.3885126113999995,520.5399780273,0,2,25,1,118,256
110,1530214741491,1542491, RC,0,39.9586422891,-88.4448908703,0,0.0,0.0,0.0,0.0,0.0,0.0,0.0,0.0,0.0,0.0,0.0,0.0,0.0,1500,1500,0.0,0.0,40.0466728333,-88.2306565,0.0,0.0,0.0,0.0,0.0,0.0,0.0,0.0,0.0,0.0,0.0,0,0.0,0.0,0.0,0.0,90.0,90.0,90.0,90.5909881592,89.82704925540001,89.3814163208,45.445999145500004,7.3885126113999995,520.5399780273,0,2,25,1,147,259
111,1530214741541,1542541, RC,0,39.9586422891,-88.4448908703,0,0.0,0.0,0.0,0.0,0.0,0.0,0.0,0.0,0.0,0.0,0.0,0.0,0.0,1500,1500,0.0,0.0,40.0466728333,-88.2306565,0.0,0.0,0.0,0.0,0.0,0.0,0.0,0.0,0.0,0.0,0.0,0,0.0,0.0,0.0,0.0,90.0,90.0,90.0,90.5909881592,89.82704925540001,89.3814163208,45.445999145500004,7.3885126113999995,520.5399780273,0,2,25,1,129,261
112,1530214741592,1542592, RC,0,39.9586422891,-88.4448908703,0,0.0,0.0,0.0,0.0,0.0,0.0,0.0,0.0,0.0,0.0,0.0,0.0,0.0,1500,1500,0.0,0.0,40.0466728333,-88.2306565,0.0,0.0,0.0,0.0,0.0,0.0,0.0,0.0,0.0,0.0,0.0,0,0.0,0.0,0.0,0.0,90.0,90.0,90.0,90.5909881592,89.82704925540001,89.3814163208,45.445999145500004,7.3885126113999995,520.5399780273,0,2,25,1,151,264
113,1530214741642,1542642, RC,0,39.9586422891,-88.4448908703,0,0.0,0.0,0.0,0.0,0.0,0.0,0.0,0.0,0.0,0.0,0.0,0.0,0.0,1500,1500,0.0,0.0,40.0466728333,-88.2306565,0.0,0.0,0.0,0.0,0.0,0.0,0.0,0.0,0.0,0.0,0.0,0,0.0,0.0,0.0,0.0,90.0,90.0,90.0,90.5909881592,89.82704925540001,89.3814163208,45.445999145500004,7.3885126113999995,520.5399780273,0,2,25,1,122,266
114,1530214741693,1542693, RC,0,39.9586422891,-88.4448908703,0,0.0,0.0,0.0,0.0,0.0,0.0,0.0,0.0,0.0,0.0,0.0,0.0,0.0,1500,1500,0.0,0.0,40.0466728333,-88.2306565,0.0,0.0,0.0,0.0,0.0,0.0,0.0,0.0,0.0,0.0,0.0,0,0.0,0.0,0.0,0.0,90.0,90.0,90.0,90.5909881592,89.82704925540001,89.3814163208,45.445999145500004,7.3885126113999995,520.5399780273,0,2,25,1,113,269
115,1530214741743,1542743, RC,0,39.9586422891,-88.4448908703,0,0.0,0.0,0.0,0.0,0.0,0.000275901,0.0,0.0,0.0,0.0,0.0,0.0,0.0,1500,1633,0.0,0.0,40.0466728333,-88.2306565,0.0,0.0,0.0,0.0,0.0,0.0,0.0,0.0,0.0,0.0,0.0,0,0.0,0.2669429779,0.000551802,0.0,90.0,90.0,90.0,90.5909881592,89.82704925540001,89.3814163208,45.445999145500004,7.3887319565,520.9799804688,0,2,25,1,104,271
116,1530214741794,1542794, RC,0,39.9586422891,-88.4448908703,0,0.0,0.0,0.0,0.0,0.0,0.021244375,0.0,0.0,0.0,0.0,0.0,0.0,0.0,1500,1633,0.0,0.0,40.0466728333,-88.2306565,0.0,0.0,0.0,0.0,0.0,0.0,0.0,0.0,0.0,0.0,0.0,0,0.0,0.3316110373,0.0424887501,0.0,90.0,90.0,90.0,90.6546554565,89.82704925540001,89.44507598879999,45.445999145500004,7.3887319565,520.9799804688,0,2,25,1,117,274
117,1530214741845,1542845, RC,0,39.9586422891,-88.4448908703,0,0.0,0.0,0.0,0.0,0.0,0.0476389006,0.0,0.0,0.0,0.0,0.0,0.0,0.0,1500,1665,0.0,0.0,40.0466728333,-88.2306565,0.0,0.0,0.0,0.0,0.0,0.0,0.0,0.0,0.0,0.0,0.0,0,0.0,0.3316110373,0.0952778012,0.0,90.0,90.0,90.0,90.7819747925,89.6997299194,89.5087432861,45.445999145500004,7.3887319565,520.9799804688,0,2,25,1,121,276
118,1530214741895,1542895, RC,0,39.9586422891,-88.4448908703,0,0.0,0.0,0.0,0.0,0.0,0.06906721,0.0,0.0,0.0,0.0,0.0,0.0,0.0,1500,1671,0.0,0.0,40.0466728333,-88.2306565,0.0,0.0,0.0,0.0,0.0,0.0,0.0,0.0,0.0,0.0,0.0,0,0.0,0.3422570229,0.1381344199,0.0,90.0,90.0,90.0,90.5909881592,89.1904296875,89.82704925540001,45.445999145500004,7.3887319565,520.9799804688,0,2,25,1,108,279
119,1530214741946,1542946, RC,0,39.9586422891,-88.4448908703,0,0.0,0.0,0.0,0.0,0.0,0.0824944004,0.0,0.0,0.0,0.0,0.0,0.0,0.0,1500,1671,0.0,0.0,40.0466728333,-88.2306565,0.0,0.0,0.0,0.0,0.0,0.0,0.0,0.0,0.0,0.0,0.0,0,0.0,0.3422570229,0.1649888009,0.0,90.0,90.0,90.0,90.5909881592,88.8721160889,90.6546554565,45.445999145500004,7.3887319565,520.9799804688,0,2,25,1,100,281
120,1530214741997,1542997, RC,0,39.9586422891,-88.4448908703,0,0.0,0.0,0.0,0.0,0.0,0.09969222550000001,0.0,0.0,0.0,0.0,0.0,0.0,0.0,1500,1671,0.0,0.0,40.0466728333,-88.2306565,0.0,0.0,0.0,0.0,0.0,0.0,0.0,0.0,0.0,0.0,0.0,0,0.0,0.3422570229,0.1993844509,0.0,90.0,90.0,90.0,90.2726821899,89.3177566528,90.8456420898,45.445999145500004,7.3887319565,520.9799804688,0,2,25,1,130,284
121,1530214742047,1543047, RC,0,39.9586422891,-88.4448908703,0,0.0,0.0,0.0,0.0,0.0,0.1126595736,0.0,0.0,0.0,0.0,0.0,0.0,0.0,1500,1671,0.0,0.0,40.0466728333,-88.2306565,0.0,0.0,0.0,0.0,0.0,0.0,0.0,0.0,0.0,0.0,0.0,0,0.0,0.3422570229,0.2253191471,0.0,90.0,90.0,90.0,90.145362854,89.8907089233,90.5909881592,45.445999145500004,7.3887319565,520.9799804688,0,2,25,1,124,286
122,1530214742098,1543098, RC,0,39.9586422891,-88.4448908703,0,0.0,0.0,0.0,0.0,0.0,0.13739869,0.0,0.0,0.0,0.0,0.0,0.0,0.0,1500,1671,0.0,0.0,40.0466728333,-88.2306565,0.0,0.0,0.0,0.0,0.0,0.0,0.0,0.0,0.0,0.0,0.0,0,0.0,0.3422570229,0.27479738,0.0,90.0,90.0,90.0,90.3363494873,90.01803588870001,90.3363494873,45.445999145500004,7.3887319565,520.9799804688,0,2,25,1,111,289
123,1530214742148,1543148, RC,0,39.9586422891,-88.4448908703,0,0.0,0.0,0.0,0.0,0.0,0.14788292349999999,0.0,0.0,0.0,0.0,0.0,0.0,0.0,1500,1676,0.0,0.0,40.0466728333,-88.2306565,0.0,0.0,0.0,0.0,0.0,0.0,0.0,0.0,0.0,0.0,0.0,0,0.0,0.3521580696,0.29576584699999997,0.0,90.0,90.0,90.0,89.1904296875,89.9543762207,90.145362854,45.445999145500004,7.3887319565,520.9799804688,0,2,25,1,129,291
124,1530214742199,1543199, RC,0,39.9586422891,-88.4448908703,0,0.0,0.0,0.0,0.0,0.0,0.1684835255,0.0,0.0,0.0,0.0,0.0,0.0,0.0,1500,1676,0.0,0.0,40.0466768333,-88.230659,0.0,0.0,0.0,0.0,0.0,0.0,0.0,0.0,0.0,0.0,0.0,0,0.0,0.3521580696,0.336967051,0.0,90.0,90.0,90.0,88.9994430542,89.8907089233,89.9543762207,45.445999145500004,7.3887319565,520.9799804688,0,2,25,1,138,294
125,1530214742249,1543249, RC,0,39.9586422891,-88.4448908703,0,0.0,0.0,0.0,0.0,0.0,0.1806231737,0.0,0.0,0.0,0.0,0.0,0.0,0.0,1500,1676,0.0,0.0,40.0466768333,-88.230659,0.0,0.0,0.0,0.0,0.0,0.0,0.0,0.0,0.0,0.0,0.0,0,0.0,0.3521580696,0.3612463474,0.0,90.0,90.0,90.0,89.0631027222,89.9543762207,89.1904296875,45.445999145500004,7.3887319565,520.9799804688,0,2,25,1,121,296
126,1530214742300,1543300, RC,0,39.9586422891,-88.4448908703,0,0.0,0.0,0.0,0.0,0.0,0.1862331778,0.0,0.0,0.0,0.0,0.0,0.0,0.0,1453,1675,0.0,0.0,40.0466768333,-88.230659,0.0,0.0,0.0,0.0,0.0,0.0,0.0,0.0,0.0,0.0,0.0,0,-0.0923929811,0.35178601740000004,0.3724663556,0.0,90.0,90.0,90.0,90.5909881592,90.01803588870001,89.3177566528,45.445999145500004,7.3887319565,520.9799804688,0,2,25,1,117,299
127,1530214742351,1543351, RC,0,39.9586422891,-88.4448908703,0,0.0,0.0,0.0,0.0,0.0,0.19257889690000002,0.0,0.0,0.0,0.0,0.0,0.0,0.0,1453,1675,0.0,0.0,40.0466768333,-88.230659,0.0,0.0,0.0,0.0,0.0,0.0,0.0,0.0,0.0,0.0,0.0,0,-0.0923929811,0.35178601740000004,0.38515779380000004,0.0,90.0,90.0,90.0,90.7819747925,90.2726821899,89.1904296875,45.445999145500004,7.3887319565,520.9799804688,0,2,25,1,99,301
128,1530214742401,1543401, RC,0,39.9586422891,-88.4448908703,0,0.0,0.0,0.0,0.0,0.0,0.1815428436,0.0,0.0,0.0,0.0,0.0,0.0,0.0,1382,1675,0.0,0.0,40.0466768333,-88.230659,0.0,0.0,0.0,0.0,0.0,0.0,0.0,0.0,0.0,0.0,0.0,0,-0.2359420061,0.35178601740000004,0.3630856872,0.0,90.0,90.0,90.0,90.7819747925,90.3363494873,89.1904296875,45.445999145500004,7.3887319565,520.9799804688,0,2,25,1,122,304
129,1530214742459,1543459, RC,0,39.9586422891,-88.4448908703,0,0.0,0.0,0.0,0.0,0.0,0.1757489145,0.0,0.0,0.0,0.0,0.0,0.0,0.0,1382,1675,0.0,0.0,40.0466768333,-88.230659,0.0,0.0,0.0,0.0,0.0,0.0,0.0,0.0,0.0,0.0,0.0,0,-0.2359420061,0.35178601740000004,0.351497829,0.0,90.0,90.0,90.0,90.7819747925,90.2726821899,89.3814163208,45.445999145500004,7.3887319565,520.9799804688,0,2,25,1,115,307
130,1530214742509,1543509, RC,0,39.9586422891,-88.4448908703,0,0.0,0.0,0.0,0.0,0.0,0.15799929199999999,0.0,0.0,0.0,0.0,0.0,0.0,0.0,1382,1675,0.0,0.0,40.0466768333,-88.230659,0.0,0.0,0.0,0.0,0.0,0.0,0.0,0.0,0.0,0.0,0.0,0,-0.2359420061,0.35178601740000004,0.31599858399999997,0.0,90.0,90.0,90.0,91.0366287231,90.145362854,89.9543762207,45.445999145500004,7.3887319565,520.9799804688,0,2,25,1,91,309
131,1530214742560,1543560, RC,0,39.9586422891,-88.4448908703,0,0.0,0.0,0.0,0.0,0.0,0.1348236054,0.0,0.0,0.0,0.0,0.0,0.0,0.0,1382,1675,0.0,0.0,40.0466768333,-88.230659,0.0,0.0,0.0,0.0,0.0,0.0,0.0,0.0,0.0,0.0,0.0,0,-0.2359420061,0.35178601740000004,0.2696472108,0.0,90.0,90.0,90.0,90.7819747925,89.8907089233,90.3363494873,45.445999145500004,7.3887319565,520.9799804688,0,2,25,1,108,312
132,1530214742610,1543610, RC,0,39.9586422891,-88.4448908703,0,0.0,0.0,0.0,0.0,0.0,0.1274662614,0.0,0.0,0.0,0.0,0.0,0.0,0.0,1296,1675,0.0,0.0,40.0466768333,-88.230659,0.0,0.0,0.0,0.0,0.0,0.0,0.0,0.0,0.0,0.0,0.0,0,-0.407712996,0.35178601740000004,0.2549325228,0.0,90.0,90.0,90.0,90.20902252200001,89.5087432861,90.5909881592,45.445999145500004,7.3887319565,520.9799804688,0,2,25,1,104,314
133,1530214742661,1543661, RC,0,39.9586422891,-88.4448908703,0,0.0,0.0,0.0,0.0,0.0,0.1085210517,0.0,0.0,0.0,0.0,0.0,0.0,0.0,1296,1675,0.0,0.0,40.0466768333,-88.230659,0.0,0.0,0.0,0.0,0.0,0.0,0.0,0.0,0.0,0.0,0.0,0,-0.407712996,0.35178601740000004,0.2170421034,0.0,90.0,90.0,90.0,90.145362854,89.3814163208,90.7183227539,45.445999145500004,7.3887319565,520.9799804688,0,2,25,1,85,317
134,1530214742711,1543711, RC,0,39.9586422891,-88.4448908703,0,0.0,0.0,0.0,0.0,0.0,0.07899964599999999,0.0,0.0,0.0,0.0,0.0,0.0,0.0,1255,1675,0.0,0.0,40.0466768333,-88.230659,0.0,0.0,0.0,0.0,0.0,0.0,0.0,0.0,0.0,0.0,0.0,0,-0.4894360304,0.35178601740000004,0.15799929199999999,0.0,90.0,90.0,90.0,90.01803588870001,89.1904296875,90.9093093872,45.445999145500004,7.3887319565,520.9799804688,0,2,25,1,105,319
135,1530214742762,1543762, RC,0,39.9586422891,-88.4448908703,0,0.0,0.0,0.0,0.0,0.0,0.0469031669,0.0,0.0,0.0,0.0,0.0,0.0,0.0,1255,1675,0.0,0.0,40.0466768333,-88.230659,0.0,0.0,0.0,0.0,0.0,0.0,0.0,0.0,0.0,0.0,0.0,0,-0.4894360304,0.35178601740000004,0.0938063338,0.0,90.0,90.0,90.0,90.3363494873,89.12677001950001,91.2276153564,45.445999145500004,7.3902320862,525.7700195312,0,2,25,1,94,322
136,1530214742813,1543813, RC,0,39.9586422891,-88.4448908703,0,0.0,0.0,0.0,0.0,0.0,0.0284178015,0.0,0.0,0.0,0.0,0.0,0.0,0.0,1255,1675,0.0,0.0,40.0466768333,-88.230659,0.0,0.0,0.0,0.0,0.0,0.0,0.0,0.0,0.0,0.0,0.0,0,-0.4894360304,0.35178601740000004,0.056835603,0.0,90.0,90.0,90.0,90.4636688232,89.1904296875,90.7819747925,45.445999145500004,7.3902320862,525.7700195312,0,2,25,1,76,324
137,1530214742863,1543863, RC,0,39.9586422891,-88.4448908703,0,0.0,0.0,0.0,0.0,0.0,0.0034947458000000003,0.0,0.0,0.0,0.0,0.0,0.0,0.0,1255,1675,0.0,0.0,40.0466768333,-88.230659,0.0,0.0,0.0,0.0,0.0,0.0,0.0,0.0,0.0,0.0,0.0,0,-0.4894360304,0.35178601740000004,0.006989491600000001,0.0,90.0,90.0,90.0,90.2726821899,89.63606262209998,89.44507598879999,45.445999145500004,7.3902320862,525.7700195312,0,2,25,1,109,327
138,1530214742914,1543914, RC,0,39.9586422891,-88.4448908703,0,0.0,0.0,0.0,0.0,0.0,0.0187612679,0.0,0.0,0.0,0.0,0.0,0.0,0.0,1255,1675,0.0,0.0,40.0466768333,-88.230659,0.0,0.0,0.0,0.0,0.0,0.0,0.0,0.0,0.0,0.0,0.0,0,-0.4894360304,0.35178601740000004,-0.0375225358,0.0,90.0,90.0,90.0,90.145362854,89.9543762207,89.12677001950001,45.445999145500004,7.3902320862,525.7700195312,0,2,25,1,121,329
139,1530214742964,1543964, RC,0,39.9586422891,-88.4448908703,0,0.0,0.0,0.0,0.0,0.0,0.030808944300000002,0.0,0.0,0.0,0.0,0.0,0.0,0.0,1255,1675,0.0,0.0,40.0466768333,-88.230659,0.0,0.0,0.0,0.0,0.0,0.0,0.0,0.0,0.0,0.0,0.0,0,-0.4894360304,0.35178601740000004,-0.061617888499999995,0.0,90.0,90.0,90.0,90.0816955566,90.145362854,88.9994430542,45.445999145500004,7.3902320862,525.7700195312,0,2,25,1,102,332
140,1530214743015,1544015, RC,0,39.9586422891,-88.4448908703,0,0.0,0.0,0.0,0.0,0.0,0.0472710356,0.0,0.0,0.0,0.0,0.0,0.0,0.0,1255,1675,0.0,0.0,40.0466768333,-88.230659,0.0,0.0,0.0,0.0,0.0,0.0,0.0,0.0,0.0,0.0,0.0,0,-0.4894360304,0.35178601740000004,-0.0945420712,0.0,90.0,90.0,90.0,90.20902252200001,90.01803588870001,88.9994430542,45.445999145500004,7.3902320862,525.7700195312,0,2,25,1,102,335
141,1530214743065,1544065, RC,0,39.9586422891,-88.4448908703,0,0.0,0.0,0.0,0.0,0.0,0.0550882295,0.0,0.0,0.0,0.0,0.0,0.0,0.0,1255,1675,0.0,0.0,40.0466768333,-88.230659,0.0,0.0,0.0,0.0,0.0,0.0,0.0,0.0,0.0,0.0,0.0,0,-0.4894360304,0.35178601740000004,-0.110176459,0.0,90.0,90.0,90.0,90.5273361206,89.8907089233,89.25408935549999,45.445999145500004,7.3902320862,525.7700195312,0,2,25,1,128,337
142,1530214743116,1544116, RC,0,39.9586422891,-88.4448908703,0,0.0,0.0,0.0,0.0,0.0,0.059870515,0.0,0.0,0.0,0.0,0.0,0.0,0.0,1255,1675,0.0,0.0,40.0466768333,-88.230659,0.0,0.0,0.0,0.0,0.0,0.0,0.0,0.0,0.0,0.0,0.0,0,-0.4894360304,0.35178601740000004,-0.11974103,0.0,90.0,90.0,90.0,90.5273361206,90.0816955566,89.3814163208,45.445999145500004,7.3902320862,525.7700195312,0,2,25,1,148,340
143,1530214743167,1544167, RC,0,39.9586422891,-88.4448908703,0,0.0,0.0,0.0,0.0,0.0,0.06612427530000001,0.0,0.0,0.0,0.0,0.0,0.0,0.0,1255,1675,0.0,0.0,40.0466768333,-88.230657,0.0,0.0,0.0,0.0,0.0,0.0,0.0,0.0,0.0,0.0,0.0,0,-0.4894360304,0.35178601740000004,-0.1322485507,0.0,90.0,90.0,90.0,90.2726821899,90.40000915530001,89.12677001950001,45.445999145500004,7.3902320862,525.7700195312,0,2,25,1,135,342
144,1530214743217,1544217, RC,0,39.9586422891,-88.4448908703,0,0.0,0.0,0.0,0.0,0.0,0.0697109848,0.0,0.0,0.0,0.0,0.0,0.0,0.0,1255,1675,0.0,0.0,40.0466768333,-88.230657,0.0,0.0,0.0,0.0,0.0,0.0,0.0,0.0,0.0,0.0,0.0,0,-0.4894360304,0.35178601740000004,-0.1394219697,0.0,90.0,90.0,90.0,90.145362854,90.5273361206,89.44507598879999,45.445999145500004,7.3902320862,525.7700195312,0,2,25,1,138,345
145,1530214743268,1544268, RC,0,39.9586422891,-88.4448908703,0,0.0,0.0,0.0,0.0,0.0,0.07458523660000001,0.0,0.0,0.0,0.0,0.0,0.0,0.0,1255,1675,0.0,0.0,40.0466768333,-88.230657,0.0,0.0,0.0,0.0,0.0,0.0,0.0,0.0,0.0,0.0,0.0,0,-0.4894360304,0.35178601740000004,-0.14917047320000001,0.0,90.0,90.0,90.0,90.20902252200001,90.5273361206,89.3814163208,45.445999145500004,7.3902320862,525.7700195312,0,2,25,1,126,347
146,1530214743318,1544318, RC,0,39.9586422891,-88.4448908703,0,0.0,0.0,0.0,0.0,0.0,0.0782639161,0.0,0.0,0.0,0.0,0.0,0.0,0.0,1255,1697,0.0,0.0,40.0466768333,-88.230657,0.0,0.0,0.0,0.0,0.0,0.0,0.0,0.0,0.0,0.0,0.0,0,-0.4894360304,0.39453899859999997,-0.1565278322,0.0,90.0,90.0,90.0,90.3363494873,90.5909881592,89.3814163208,45.445999145500004,7.3902320862,525.7700195312,0,2,25,1,128,350
147,1530214743369,1544369, RC,0,39.9586422891,-88.4448908703,0,0.0,0.0,0.0,0.0,0.0,0.0750450715,0.0,0.0,0.0,0.0,0.0,0.0,0.0,1255,1697,0.0,0.0,40.0466768333,-88.230657,0.0,0.0,0.0,0.0,0.0,0.0,0.0,0.0,0.0,0.0,0.0,0,-0.4894360304,0.39453899859999997,-0.15009014310000002,0.0,90.0,90.0,90.0,90.3363494873,90.7183227539,89.25408935549999,45.445999145500004,7.3902320862,525.7700195312,0,2,25,1,105,352
148,1530214743419,1544419, RC,0,39.9586422891,-88.4448908703,0,0.0,0.0,0.0,0.0,0.0,0.0735735968,0.0,0.0,0.0,0.0,0.0,0.0,0.0,1255,1697,0.0,0.0,40.0466768333,-88.230657,0.0,0.0,0.0,0.0,0.0,0.0,0.0,0.0,0.0,0.0,0.0,0,-0.4894360304,0.39453899859999997,-0.1471471936,0.0,90.0,90.0,90.0,90.3363494873,90.9729614258,88.93578338620001,45.445999145500004,7.3902320862,525.7700195312,0,2,25,1,102,355
149,1530214743470,1544470, RC,0,39.9586422891,-88.4448908703,0,0.0,0.0,0.0,0.0,0.0,0.0714583546,0.0,0.0,0.0,0.0,0.0,0.0,0.0,1255,1697,0.0,0.0,40.0466768333,-88.230657,0.0,0.0,0.0,0.0,0.0,0.0,0.0,0.0,0.0,0.0,0.0,0,-0.4894360304,0.39453899859999997,-0.1429167092,0.0,90.0,90.0,90.0,90.20902252200001,90.40000915530001,90.20902252200001,45.445999145500004,7.3902320862,525.7700195312,0,2,25,1,101,357
150,1530214743521,1544521, RC,0,39.9586422891,-88.4448908703,0,0.0,0.0,0.0,0.0,0.0,0.0692511499,0.0,0.0,0.0,0.0,0.0,0.0,0.0,1255,1697,0.0,0.0,40.0466768333,-88.230657,0.0,0.0,0.0,0.0,0.0,0.0,0.0,0.0,0.0,0.0,0.0,0,-0.4894360304,0.39453899859999997,-0.1385022998,0.0,90.0,90.0,90.0,90.20902252200001,90.2726821899,90.7819747925,45.445999145500004,7.3902320862,525.7700195312,0,2,25,1,97,360
151,1530214743571,1544571, RC,0,39.9586422891,-88.4448908703,0,0.0,0.0,0.0,0.0,0.0,0.0655724704,0.0,0.0,0.0,0.0,0.0,0.0,0.0,1255,1697,0.0,0.0,40.0466768333,-88.230657,0.0,0.0,0.0,0.0,0.0,0.0,0.0,0.0,0.0,0.0,0.0,0,-0.4894360304,0.39453899859999997,-0.1311449409,0.0,90.0,90.0,90.0,90.20902252200001,90.145362854,90.9093093872,44.9079971313,7.3902320862,525.7700195312,0,2,25,1,115,362
152,1530214743622,1544622, RC,0,39.9586422891,-88.4448908703,0,0.0,0.0,0.0,0.0,0.0,0.065296568,0.0,0.0,0.0,0.0,0.0,0.0,0.0,1500,1750,0.0,0.0,40.0466768333,-88.230657,0.0,0.0,0.0,0.0,0.0,0.0,0.0,0.0,0.0,0.0,0.0,0,0.0,0.5,-0.130593136,0.0,90.0,90.0,90.0,90.2726821899,90.01803588870001,90.6546554565,44.9079971313,7.3902320862,525.7700195312,0,2,25,1,118,365
153,1530214743673,1544673, RC,0,39.9586422891,-88.4448908703,0,0.0,0.0,0.0,0.0,0.0,0.0500300452,0.0,0.0,0.0,0.0,0.0,0.0,0.0,1500,1750,0.0,0.0,40.0466768333,-88.230657,0.0,0.0,0.0,0.0,0.0,0.0,0.0,0.0,0.0,0.0,0.0,0,0.0,0.5,-0.1000600904,0.0,90.0,90.0,90.0,90.2726821899,89.8907089233,89.3177566528,44.9079971313,7.3902320862,525.7700195312,0,2,25,1,134,367
154,1530214743723,1544723, RC,0,39.9586422891,-88.4448908703,0,0.0,0.0,0.0,0.0,0.0,0.0214283112,0.0,0.0,0.0,0.0,0.0,0.0,0.0,1500,1750,0.0,0.0,40.0466768333,-88.230657,0.0,0.0,0.0,0.0,0.0,0.0,0.0,0.0,0.0,0.0,0.0,0,0.0,0.5,-0.0428566225,0.0,90.0,90.0,90.0,90.6546554565,89.82704925540001,88.8721160889,44.9079971313,7.387749671900001,529.8900146484,0,2,25,1,127,370
155,1530214743774,1544774, RC,0,39.9586422891,-88.4448908703,0,0.0,0.0,0.0,0.0,0.0,0.0528810248,0.0,0.0,0.0,0.0,0.0,0.0,0.0,1500,1750,0.0,0.0,40.0466768333,-88.230657,0.0,0.0,0.0,0.0,0.0,0.0,0.0,0.0,0.0,0.0,0.0,0,0.0,0.5,0.1057620496,0.0,90.0,90.0,90.0,90.5909881592,90.0816955566,88.681137085,44.9079971313,7.387749671900001,529.8900146484,0,2,25,1,117,372
156,1530214743824,1544824, RC,0,39.9586422891,-88.4448908703,0,0.0,0.0,0.0,0.0,0.0,0.0937143639,0.0,0.0,0.0,0.0,0.0,0.0,0.0,1500,1750,0.0,0.0,40.0466768333,-88.230657,0.0,0.0,0.0,0.0,0.0,0.0,0.0,0.0,0.0,0.0,0.0,0,0.0,0.5,0.1874287277,0.0,90.0,90.0,90.0,90.8456420898,90.40000915530001,88.36282348629999,44.9079971313,7.387749671900001,529.8900146484,0,2,25,1,103,375
