,(0)linux time (ms),    (1)uptime  (ms),      (2)drive mode,(3)mpc step counter,(4)mpc origin latitude  (deg),(5)mpc origin longitude  (deg),(6)closest trajectory point index to robot,(7)mpc error x (W;E)  (m),(8)mpc error y (W;E)  (m),(9)abs mpc error (m),(10)input [x] for mhe (m),(11)input [y] for mhe (m),(12)input [speed] for mhe (m/s),(13)input [vyaw] for mhe (rad/s),(14)mhe output x  (m),(15)mhe output y  (m),(16)mhe output speed  (m/s),(17)mhe output yaw  (rad),(18)mpc reference heading (rad),(19)mpc turn rate command (rad/s),(20)turn rate command as PWM,(21)throttle command as PWM,(22)primary gps latitude (deg),(23)primary gps longitude (deg),(24)secondary gps latitude  (deg),(25)secondary gps longitude (deg),(26)accelerometer x (m/s^2),(27)accelerometer y (m/s^2),(28)accelerometer z (m/s^2),(29)gyro yaw rate (rad/s),(30)gyro pitch rate   (rad/s),(31)gyro roll rate (rad/s),      (32)yaw (rad),  (33)pitch   (rad),     (34)roll (rad),(35)sonar1 measurement (m),(36)ultrasonic sensor measurement (m),(37)primary gps time (s),(38)normalized turn rate command,(39)normalized throttle command,(40)speed calculation from encoder left (m/s),(41)speed calculation from encoder right (m/s),(42)front gimbal target angle (degrees from straight down),(43)left gimbal target angle  (degrees from straight down),(44)right gimbal target angle  (degrees from straight down),(45)front gimbal measured angle  (degrees from straight down),(46)left gimbal measured angle    (degrees from straight down),(47)right gimbal measured angle  (degrees from straight down),(48)internal temperature (C),(49)battery voltage (V),(50)primary gps type,(51)secondary gps type,    (52)MPC R value, (53)MPC Q[0] value,Unnamed: 54,weed_num,start
0,1530197800027,1467027, RC,0,40.1021155673,-88.22673299799999,0,18576.5859305219,-15952.5100544974,24486.1618444562,18574.293734907398,-15952.0487838657,0.0427646525,0.0,18574.273480196298,-15951.9957435504,0.3317689175,-10.6407413235,0.0,0.0,1500,1500,39.958655346,-88.4448887828,39.9586651667,-88.4448933333,0.0,0.0,0.0,0.0,0.0,0.0,0.0,0.0,0.0,0.0,0.0,145554,0.0,0.0,0.055915933099999995,0.0296133738,90.0,90.0,90.0,89.63606262209998,88.74479675290002,89.5087432861,42.7559967041,15.685290336600001,8.7299995422,0,2,25,1,373,1237
1,1530197800077,1467077, RC,0,40.1021155673,-88.22673299799999,0,18576.5809090616,-15952.4988408427,24486.1507293,18574.293734907398,-15952.0487838657,0.0351313911,0.0,18574.268458736,-15951.9845298957,0.3110726035,-10.6348217856,0.0,0.0,1500,1500,39.958655346,-88.4448887828,39.958684,-88.4448666667,0.0,0.0,0.0,0.0,0.0,0.0,0.0,0.0,0.0,0.0,0.0,145554,0.0,0.0,0.0459834971,0.024279287099999998,90.0,90.0,90.0,89.5724029541,88.681137085,89.5087432861,42.7559967041,15.685290336600001,8.7299995422,0,2,25,1,506,1239
2,1530197800128,1467128, RC,0,40.1021155673,-88.22673299799999,0,18576.5773950298,-15952.4922615473,24486.143777007,18574.2908650674,-15952.0460225252,0.029061570800000002,0.0,18574.2649447042,-15951.9779506003,0.2896583448,-10.628413875,0.0,0.0,1500,1500,39.9586553708,-88.4448887492,39.958684,-88.4448666667,0.0,0.0,0.0,0.0,0.0,0.0,0.0,0.0,0.0,0.0,0.0,145554,0.0,0.0,0.0380743369,0.0200488046,90.0,90.0,90.0,89.63606262209998,88.681137085,89.5087432861,42.7559967041,15.685290336600001,8.7299995422,0,2,25,1,585,1241
3,1530197800178,1467178, RC,0,40.1021155673,-88.22673299799999,0,18576.5773950298,-15952.4922615473,24486.143777007,18574.2887614406,-15952.043205586999,0.0210604407,0.0,18574.2649447042,-15951.9779506003,0.2896583448,-10.628413875,0.0,0.0,1500,1500,39.9586553962,-88.4448887245,39.958684,-88.4448666667,0.0,0.0,0.0,0.0,0.0,0.0,0.0,0.0,0.0,0.0,0.0,145554,0.0,0.0,0.0274061635,0.014714718799999998,90.0,90.0,90.0,89.63606262209998,88.681137085,89.5087432861,43.293998718299996,15.6851806641,1.4799998999000001,0,2,25,1,537,1243
4,1530197800229,1467229, RC,0,40.1021155673,-88.22673299799999,0,18576.5757626167,-15952.4902132546,24486.141204122403,18574.2887614406,-15952.043205586999,0.0163701251,0.0,18574.2633122911,-15951.9759023076,0.2671695433,-10.6244832848,0.0,0.0,1500,1500,39.9586553962,-88.4448887245,39.958684,-88.4448666667,0.0,0.0,0.0,0.0,0.0,0.0,0.0,0.0,0.0,0.0,0.0,145554,0.0,0.0,0.021336343100000002,0.0114039071,90.0,90.0,90.0,89.5724029541,88.681137085,89.5087432861,43.293998718299996,15.6851806641,1.4799998999000001,0,2,25,1,573,1245
5,1530197800279,1467279, RC,0,40.1021155673,-88.22673299799999,0,18576.5757626167,-15952.4902132546,24486.141204122403,18574.2898989192,-15952.0450403031,0.0135191493,0.0,18574.2633122911,-15951.9759023076,0.2671695433,-10.6244832848,0.0,0.0,1500,1500,39.9586553797,-88.44488873780001,39.958684,-88.4448666667,0.0,0.0,0.0,0.0,0.0,0.0,0.0,0.0,0.0,0.0,0.0,145554,0.0,0.0,0.0176576637,0.009380633900000001,90.0,90.0,90.0,89.63606262209998,88.681137085,89.5087432861,43.293998718299996,15.6851806641,1.4799998999000001,0,2,25,1,554,1247
6,1530197800330,1467330, RC,0,40.1021155673,-88.22673299799999,0,18576.5761128211,-15952.4921373571,24486.142723342004,18574.2898989192,-15952.0450403031,0.0101163695,0.0,18574.2636624955,-15951.9778264101,0.2443662786,-10.6226052828,0.0,0.0,1500,1500,39.9586553797,-88.44488873780001,39.958684,-88.4448666667,0.0,0.0,0.0,0.0,0.0,0.0,0.0,0.0,0.0,0.0,0.0,145554,0.0,0.0,0.013243246799999999,0.006989491600000001,90.0,90.0,90.0,89.63606262209998,88.681137085,89.5087432861,42.7559967041,15.6851806641,1.4799998999000001,0,2,25,1,528,1249
7,1530197800380,1467380, RC,0,40.1021155673,-88.22673299799999,0,18576.5761128211,-15952.4921373571,24486.142723342004,18574.2898989192,-15952.0450403031,0.0084609631,0.0,18574.2636624955,-15951.9778264101,0.2443662786,-10.6226052828,0.0,0.0,1500,1500,39.9586553797,-88.44488873780001,39.958684,-88.4448666667,0.0,0.0,0.0,0.0,0.0,0.0,0.0,0.0,0.0,0.0,0.0,145554,0.0,0.0,0.0110360393,0.0058858879,90.0,90.0,90.0,89.63606262209998,88.6174697876,89.5087432861,42.7559967041,15.6851806641,1.4799998999000001,0,2,25,1,581,1251
8,1530197800431,1467431, RC,0,40.1021155673,-88.22673299799999,0,18576.5761128211,-15952.4921373571,24486.142723342004,18574.290765486203,-15952.0458186676,0.0062537556999999995,0.0,18574.2636624955,-15951.9778264101,0.2443662786,-10.6226052828,0.0,0.0,1500,1500,39.9586553727,-88.444888748,39.958684,-88.4448666667,0.0,0.0,0.0,0.0,0.0,0.0,0.0,0.0,0.0,0.0,0.0,145554,0.0,0.0,0.008277029699999999,0.004230482,90.0,90.0,90.0,89.63606262209998,88.55381011959999,89.5087432861,42.7559967041,15.6851806641,1.4799998999000001,0,2,25,1,561,1253
9,1530197800481,1467481, RC,0,40.1021155673,-88.22673299799999,0,18576.577866845502,-15952.496811331499,24486.147099094902,18574.290765486203,-15952.0458186676,0.005793920699999999,0.0,18574.2654165199,-15951.9825003845,0.2212592031,-10.6235973673,0.0,0.0,1500,1500,39.9586553727,-88.444888748,39.958684,-88.4448666667,0.0,0.0,0.0,0.0,0.0,0.0,0.0,0.0,0.0,0.0,0.0,145554,0.0,0.0,0.0075412933,0.0040465477,90.0,90.0,90.0,89.5724029541,88.4901504517,89.44507598879999,42.7559967041,15.6851806641,1.4799998999000001,0,2,25,1,543,1255
10,1530197800532,1467532, RC,0,40.1021155673,-88.22673299799999,0,18576.577866845502,-15952.496811331499,24486.147099094902,18574.29262572,-15952.04687502,0.0038626138000000003,0.0,18574.2654165199,-15951.9825003845,0.2212592031,-10.6235973673,0.0,0.0,1500,1500,39.9586553632,-88.4448887698,39.958684,-88.4448666667,0.0,0.0,0.0,0.0,0.0,0.0,0.0,0.0,0.0,0.0,0.0,145554,0.0,0.0,0.0051501519,0.002575076,90.0,90.0,90.0,89.63606262209998,88.4264831543,89.44507598879999,42.7559967041,15.6851806641,1.4799998999000001,0,2,25,1,558,1257
11,1530197800583,1467583, RC,0,40.1021155673,-88.22673299799999,0,18576.580895673,-15952.5039039225,24486.154017692203,18574.29262572,-15952.04687502,0.003218845,0.0,18574.2684453474,-15951.9895929755,0.1976131,-10.627308597899999,0.0,0.0,1500,1500,39.9586553632,-88.4448887698,39.958684,-88.4448666667,0.0,0.0,0.0,0.0,0.0,0.0,0.0,0.0,0.0,0.0,0.0,145554,0.0,0.0,0.004230482,0.002207208,90.0,90.0,90.0,89.5724029541,88.4264831543,89.44507598879999,42.7559967041,15.6851806641,1.4799998999000001,0,2,25,1,564,1260
12,1530197800634,1467634, RC,0,40.1021155673,-88.22673299799999,0,18576.5846242127,-15952.513061758898,24486.1628126198,18574.2911072793,-15952.046819423,0.0023911418,0.0,18574.2721738871,-15951.9987508119,0.1735606833,-10.6316723089,0.0,0.0,1500,1500,39.9586553637,-88.44488875200001,39.958684,-88.4448666667,0.0,0.0,0.0,0.0,0.0,0.0,0.0,0.0,0.0,0.0,0.0,145554,0.0,0.0,0.0031268778000000004,0.0016554058999999999,90.0,90.0,90.0,89.5724029541,88.681137085,89.3814163208,42.7559967041,15.6851806641,1.4799998999000001,0,2,25,1,580,1263
13,1530197800685,1467685, RC,0,40.1021155673,-88.22673299799999,0,18576.5846242127,-15952.513061758898,24486.1628126198,18574.2911072793,-15952.046819423,0.0019313069000000001,0.0,18574.2721738871,-15951.9987508119,0.1735606833,-10.6316723089,0.0,0.0,1500,1500,39.9586553637,-88.44488875200001,39.958684,-88.4448666667,0.0,0.0,0.0,0.0,0.0,0.0,0.0,0.0,0.0,0.0,0.0,145554,0.0,0.0,0.002575076,0.001287538,90.0,90.0,90.0,89.5724029541,88.681137085,89.3814163208,43.293998718299996,15.6851806641,1.4799998999000001,0,2,25,1,553,1267
14,1530197800736,1467736, RC,0,40.1021155673,-88.22673299799999,0,18576.5846242127,-15952.513061758898,24486.1628126198,18574.2911072793,-15952.046819423,0.0014714719000000001,0.0,18574.2721738871,-15951.9987508119,0.1735606833,-10.6316723089,0.0,0.0,1500,1500,39.9586553637,-88.44488875200001,39.958684,-88.4448666667,0.0,0.0,0.0,0.0,0.0,0.0,0.0,0.0,0.0,0.0,0.0,145554,0.0,0.0,0.0020232738,0.0009196699,90.0,90.0,90.0,89.5724029541,88.6174697876,89.3814163208,43.293998718299996,15.6851806641,1.4799998999000001,0,2,25,1,561,1270
15,1530197800786,1467786, RC,0,40.1021155673,-88.22673299799999,0,18576.5889377715,-15952.5232243055,24486.1727059363,18574.2945979809,-15952.0467082276,0.0011955709,0.0,18574.276487445903,-15952.0089133585,0.1495626048,-10.636938542200001,0.0,0.0,1500,1500,39.9586553647,-88.44488879299999,39.958684,-88.4448666667,0.0,0.0,0.0,0.0,0.0,0.0,0.0,0.0,0.0,0.0,0.0,145555,0.0,0.0,0.0016554058999999999,0.0007357360000000001,90.0,90.0,90.0,89.5724029541,88.6174697876,89.3814163208,43.293998718299996,15.6851806641,1.4799998999000001,0,2,25,1,549,1273
16,1530197800839,1467839, RC,0,40.1021155673,-88.22673299799999,0,18576.5889377715,-15952.5232243055,24486.1727059363,18574.2945979809,-15952.0467082276,0.000827703,0.0,18574.276487445903,-15952.0089133585,0.1495626048,-10.636938542200001,0.0,0.0,1500,1500,39.9586553647,-88.44488879299999,39.958684,-88.4448666667,0.0,0.0,0.0,0.0,0.0,0.0,0.0,0.0,0.0,0.0,0.0,145555,0.0,0.0,0.001103604,0.000551802,90.0,90.0,90.0,89.5724029541,88.55381011959999,89.3177566528,42.7559967041,15.6851806641,1.4799998999000001,0,2,25,1,586,1275
17,1530197800890,1467890, RC,0,40.1021155673,-88.22673299799999,0,18576.5889377715,-15952.5232243055,24486.1727059363,18574.2945979809,-15952.0467082276,0.0007357360000000001,0.0,18574.276487445903,-15952.0089133585,0.1495626048,-10.636938542200001,0.0,0.0,1500,1500,39.9586553647,-88.44488879299999,39.958684,-88.4448666667,0.0,0.0,0.0,0.0,0.0,0.0,0.0,0.0,0.0,0.0,0.0,145555,0.0,0.0,0.0009196699,0.000551802,90.0,90.0,90.0,89.5724029541,88.55381011959999,89.3177566528,42.7559967041,15.6851806641,1.4799998999000001,0,2,25,1,566,1277
18,1530197800940,1467940, RC,0,40.1021155673,-88.22673299799999,0,18576.5930972811,-15952.5326542572,24486.182005104303,18574.2943551563,-15952.0454109532,0.000551802,0.0,18574.2806469555,-15952.018343310201,0.125856668,-10.6408294144,0.0,0.0,1500,1500,39.9586553763,-88.44488879020001,39.958684,-88.4448666667,0.0,0.0,0.0,0.0,0.0,0.0,0.0,0.0,0.0,0.0,0.0,145555,0.0,0.0,0.0007357360000000001,0.00036786800000000004,90.0,90.0,90.0,89.63606262209998,88.4901504517,89.3177566528,42.7559967041,15.6851806641,1.4799998999000001,0,2,25,1,548,1279
19,1530197800991,1467991, RC,0,40.1021155673,-88.22673299799999,0,18576.5930972811,-15952.5326542572,24486.182005104303,18574.292691951698,-15952.0430202627,0.000459835,0.0,18574.2806469555,-15952.018343310201,0.125856668,-10.6408294144,0.0,0.0,1500,1500,39.9586553978,-88.4448887707,39.958684,-88.4448666667,0.0,0.0,0.0,0.0,0.0,0.0,0.0,0.0,0.0,0.0,0.0,145555,0.0,0.0,0.000551802,0.00036786800000000004,90.0,90.0,90.0,89.63606262209998,88.4901504517,89.3177566528,42.7559967041,15.6851806641,1.4799998999000001,0,2,25,1,554,1281
20,1530197801041,1468041, RC,0,40.1021155673,-88.22673299799999,0,18576.596390236,-15952.540727251599,24486.189762810096,18574.292691951698,-15952.0430202627,0.000275901,0.0,18574.2839399104,-15952.0264163046,0.10207151240000001,-10.6438584844,0.0,0.0,1500,1500,39.9586553978,-88.4448887707,39.958692166700004,-88.4448708333,0.0,0.0,0.0,0.0,0.0,0.0,0.0,0.0,0.0,0.0,0.0,145555,0.0,0.0,0.00036786800000000004,0.00018393400000000002,90.0,90.0,90.0,89.63606262209998,88.4264831543,89.3177566528,42.7559967041,15.6851806641,1.4799998999000001,0,2,25,1,566,1283
21,1530197801091,1468091, RC,0,40.1021155673,-88.22673299799999,0,18576.5992979827,-15952.547403691999,24486.196318433198,18574.2948076353,-15952.0440951462,0.000275901,0.0,18574.2868476571,-15952.033092745,0.078367153,-10.6459918505,0.0,0.0,1500,1500,39.9586553882,-88.44488879549999,39.958692166700004,-88.4448708333,0.0,0.0,0.0,0.0,0.0,0.0,0.0,0.0,0.0,0.0,0.0,145555,0.0,0.0,0.00036786800000000004,0.00018393400000000002,90.0,90.0,90.0,89.63606262209998,88.681137085,89.3177566528,42.7559967041,15.6851806641,1.4799998999000001,0,2,25,1,565,1285
22,1530197801150,1468150, RC,0,40.1021155673,-88.22673299799999,0,18576.5992979827,-15952.547403691999,24486.196318433198,18574.2947747158,-15952.040388649399,0.00018393400000000002,0.0,18574.2868476571,-15952.033092745,0.078367153,-10.6459918505,0.0,0.0,1500,1500,39.9586554215,-88.4448887952,39.958692166700004,-88.4448708333,0.0,0.0,0.0,0.0,0.0,0.0,0.0,0.0,0.0,0.0,0.0,145555,0.0,0.0,0.00018393400000000002,0.00018393400000000002,90.0,90.0,90.0,89.63606262209998,89.3814163208,89.25408935549999,42.7559967041,15.685060501099999,1.4800000191,0,2,25,1,562,1287
23,1530197801200,1468200, RC,0,40.1021155673,-88.22673299799999,0,18576.601954227,-15952.5516328754,24486.201088885697,18574.2947747158,-15952.040388649399,9.196700000000001e-05,0.0,18574.2895039014,-15952.037321928401,0.053965463,-10.6467003789,0.0,0.0,1500,1500,39.9586554215,-88.4448887952,39.958692166700004,-88.4448708333,0.0,0.0,0.0,0.0,0.0,0.0,0.0,0.0,0.0,0.0,0.0,145555,0.0,0.0,0.00018393400000000002,0.0,90.0,90.0,90.0,89.63606262209998,89.3814163208,89.25408935549999,42.7559967041,15.685060501099999,1.4800000191,0,2,25,1,540,1289
24,1530197801251,1468251, RC,0,40.1021155673,-88.22673299799999,0,18576.601954227,-15952.5516328754,24486.201088885697,18574.2947747158,-15952.040388649399,9.196700000000001e-05,0.0,18574.2895039014,-15952.037321928401,0.053965463,-10.6467003789,0.0,0.0,1500,1500,39.9586554215,-88.4448887952,39.958692166700004,-88.4448708333,0.0,0.0,0.0,0.0,0.0,0.0,0.0,0.0,0.0,0.0,0.0,145555,0.0,0.0,0.00018393400000000002,0.0,90.0,90.0,90.0,89.63606262209998,89.3814163208,89.25408935549999,42.7559967041,15.685060501099999,1.4800000191,0,2,25,1,556,1291
25,1530197801301,1468301, RC,0,40.1021155673,-88.22673299799999,0,18576.6039032956,-15952.5549225184,24486.2047107327,18574.2945977766,-15952.0465414351,9.196700000000001e-05,0.0,18574.29145297,-15952.0406115714,0.030133998199999998,-10.6467540815,0.0,0.0,1500,1500,39.9586553662,-88.44488879299999,39.958692166700004,-88.4448708333,0.0,0.0,0.0,0.0,0.0,0.0,0.0,0.0,0.0,0.0,0.0,145555,0.0,0.0,0.00018393400000000002,0.0,90.0,90.0,90.0,89.63606262209998,89.3814163208,89.25408935549999,42.7559967041,15.685060501099999,1.4800000191,0,2,25,1,568,1293
26,1530197801353,1468353, RC,0,40.1021155673,-88.22673299799999,0,18576.6039032956,-15952.5549225184,24486.2047107327,18574.2945977766,-15952.0465414351,0.0,0.0,18574.29145297,-15952.0406115714,0.030133998199999998,-10.6467540815,0.0,0.0,1500,1500,39.9586553662,-88.44488879299999,39.958692166700004,-88.4448708333,0.0,0.0,0.0,0.0,0.0,0.0,0.0,0.0,0.0,0.0,0.0,145555,0.0,0.0,0.0,0.0,90.0,90.0,90.0,89.63606262209998,89.3814163208,89.25408935549999,42.2180023193,15.685060501099999,1.4800000191,0,2,25,1,546,1295
27,1530197801403,1468403, RC,0,40.1021155673,-88.22673299799999,0,18576.6039032956,-15952.5549225184,24486.2047107327,18574.2916294879,-15952.0445028614,0.0,0.0,18574.29145297,-15952.0406115714,0.030133998199999998,-10.6467540815,0.0,0.0,1500,1500,39.9586553845,-88.4448887582,39.958692166700004,-88.4448708333,0.0,0.0,0.0,0.0,0.0,0.0,0.0,0.0,0.0,0.0,0.0,145555,0.0,0.0,0.0,0.0,90.0,90.0,90.0,89.63606262209998,89.3177566528,89.25408935549999,42.2180023193,15.685060501099999,1.4800000191,0,2,25,1,541,1297
28,1530197801454,1468454, RC,0,40.1021155673,-88.22673299799999,0,18576.6039288258,-15952.5566415491,24486.205850035298,18574.2916294879,-15952.0445028614,0.0,0.0,18574.2914785002,-15952.0423306021,0.0197709547,-10.6468982107,0.0,0.0,1500,1500,39.9586553845,-88.4448887582,39.958692166700004,-88.4448708333,0.0,0.0,0.0,0.0,0.0,0.0,0.0,0.0,0.0,0.0,0.0,145555,0.0,0.0,0.0,0.0,90.0,90.0,90.0,89.63606262209998,89.3177566528,89.25408935549999,42.7559967041,15.685060501099999,1.4800000191,0,2,25,1,571,1299
29,1530197801504,1468504, RC,0,40.1021155673,-88.22673299799999,0,18576.604366729098,-15952.5578395704,24486.206962753902,18574.292933618897,-15952.0433723801,0.0,0.0,18574.2919164035,-15952.0435286234,0.011989896000000002,-10.6470059651,0.0,0.0,1500,1500,39.958655394699996,-88.4448887735,39.958692166700004,-88.4448708333,0.0,0.0,0.0,0.0,0.0,0.0,0.0,0.0,0.0,0.0,0.0,145555,0.0,0.0,0.0,0.0,90.0,90.0,90.0,89.63606262209998,89.3177566528,89.25408935549999,42.7559967041,15.685060501099999,1.4800000191,0,2,25,1,537,1301
30,1530197801554,1468554, RC,0,40.1021155673,-88.22673299799999,0,18576.604366729098,-15952.5578395704,24486.206962753902,18574.2923799681,-15952.0431870544,0.0001,0.0,18574.2919164035,-15952.0435286234,0.011989896000000002,-10.6470059651,0.0,0.0,1500,1500,39.9586553963,-88.44488876700001,39.958692166700004,-88.4448708333,0.0,0.0,0.0,0.0,0.0,0.0,0.0,0.0,0.0,0.0,0.0,145555,0.0,0.0,0.0,0.0,90.0,90.0,90.0,89.63606262209998,89.3177566528,89.25408935549999,42.7559967041,15.685060501099999,1.4800000191,0,2,25,1,590,1303
31,1530197801605,1468605, RC,0,40.1021155673,-88.22673299799999,0,18576.6045887557,-15952.5582121086,24486.2073739012,18574.2923799681,-15952.0431870544,0.0,0.0,18574.2921384301,-15952.0439011616,0.0082889777,-10.647068556,0.0,0.0,1500,1500,39.9586553963,-88.44488876700001,39.958692166700004,-88.4448708333,0.0,0.0,0.0,0.0,0.0,0.0,0.0,0.0,0.0,0.0,0.0,145555,0.0,0.0,0.0,0.0,90.0,90.0,90.0,89.63606262209998,89.3177566528,89.1904296875,43.293998718299996,15.685060501099999,1.4800000191,0,2,25,1,565,1305
32,1530197801655,1468655, RC,0,40.1021155673,-88.22673299799999,0,18576.6045887557,-15952.5582121086,24486.2073739012,18574.2923799681,-15952.0431870544,0.0,0.0,18574.2921384301,-15952.0439011616,0.0082889777,-10.647068556,0.0,0.0,1500,1500,39.9586553963,-88.44488876700001,39.958692166700004,-88.4448708333,0.0,0.0,0.0,0.0,0.0,0.0,0.0,0.0,0.0,0.0,0.0,145555,0.0,0.0,0.0,0.0,90.0,90.0,90.0,89.63606262209998,89.3177566528,89.1904296875,43.293998718299996,15.685060501099999,1.4800000191,0,2,25,1,582,1307
33,1530197801706,1468706, RC,0,40.1021155673,-88.22673299799999,0,18576.6045887557,-15952.5582121086,24486.2073739012,18574.2923799681,-15952.0431870544,0.0,0.0,18574.2921384301,-15952.0439011616,0.0082889777,-10.647068556,0.0,0.0,1500,1500,39.9586553963,-88.44488876700001,39.958692166700004,-88.4448708333,0.0,0.0,0.0,0.0,0.0,0.0,0.0,0.0,0.0,0.0,0.0,145555,0.0,0.0,0.0,0.0,90.0,90.0,90.0,89.63606262209998,89.3177566528,89.1904296875,43.293998718299996,15.685060501099999,1.4800000191,0,2,25,1,556,1309
34,1530197801781,1468781, RC,0,40.1021155673,-88.22673299799999,0,18576.6045712372,-15952.558264538,24486.207394767996,18574.2912166944,-15952.0434650416,0.0,0.0,18574.2921209116,-15952.043953591,0.0053534143000000005,-10.6471083877,0.0,0.0,1500,1500,39.9586553938,-88.4448887533,39.958692166700004,-88.4448708333,0.0,0.0,0.0,0.0,0.0,0.0,0.0,0.0,0.0,0.0,0.0,145556,0.0,0.0,0.0,0.0,90.0,90.0,90.0,89.63606262209998,89.3177566528,89.1904296875,42.7559967041,15.685060501099999,1.4800000191,0,2,25,1,576,1312
35,1530197801919,1468919, RC,0,40.1021155673,-88.22673299799999,0,18576.6050327953,-15952.558405870901,24486.207837009,18574.2925206018,-15952.0421492353,0.0,0.0,18574.2925824697,-15952.044094923898,0.0021692662,-10.6471392665,0.0,0.0,1500,1500,39.9586554057,-88.44488876870001,39.958692166700004,-88.4448708333,0.0,0.0,0.0,0.0,0.0,0.0,0.0,0.0,0.0,0.0,0.0,145556,0.0,0.0,0.0,0.0,90.0,90.0,90.0,89.63606262209998,89.3177566528,89.1904296875,42.7559967041,15.685060501099999,1.4800000191,0,2,25,1,569,1318
36,1530197801969,1468969, RC,0,40.1021155673,-88.22673299799999,0,18576.6050327953,-15952.558405870901,24486.207837009,18574.2925206018,-15952.0421492353,0.0,0.0,18574.2925824697,-15952.044094923898,0.0021692662,-10.6471392665,0.0,0.0,1500,1500,39.9586554057,-88.44488876870001,39.958692166700004,-88.4448708333,0.0,0.0,0.0,0.0,0.0,0.0,0.0,0.0,0.0,0.0,0.0,145556,0.0,0.0,0.0,0.0,90.0,90.0,90.0,89.63606262209998,89.3177566528,89.1904296875,42.7559967041,15.685060501099999,1.4800000191,0,2,25,1,590,1320
37,1530197802020,1469020, RC,0,40.1021155673,-88.22673299799999,0,18576.6052126124,-15952.558277440701,24486.2078897571,18574.292122089,-15952.0411855458,0.0,0.0,18574.2927622868,-15952.0439664937,0.0013121351000000001,-10.6471426618,0.0,0.0,1500,1500,39.9586554143,-88.444888764,39.9586758333,-88.4448585,0.0,0.0,0.0,0.0,0.0,0.0,0.0,0.0,0.0,0.0,0.0,145556,0.0,0.0,0.0,0.0,90.0,90.0,90.0,89.63606262209998,89.3177566528,89.1904296875,42.7559967041,15.685060501099999,1.4800000191,0,2,25,1,592,1322
38,1530197802086,1469086, RC,0,40.1021155673,-88.22673299799999,0,18576.6052126124,-15952.558277440701,24486.2078897571,18574.2916957876,-15952.040703701,0.0,0.0,18574.2927622868,-15952.0439664937,0.0013121351000000001,-10.6471426618,0.0,0.0,1500,1500,39.9586554187,-88.444888759,39.9586758333,-88.4448585,0.0,0.0,0.0,0.0,0.0,0.0,0.0,0.0,0.0,0.0,0.0,145556,0.0,0.0,0.0,0.0,90.0,90.0,90.0,89.63606262209998,89.3177566528,89.1904296875,42.7559967041,15.685060501099999,1.4800000191,0,2,25,1,578,1324
39,1530197802136,1469136, RC,0,40.1021155673,-88.22673299799999,0,18576.605289111798,-15952.558008260701,24486.2077724252,18574.2916957876,-15952.040703701,0.0,0.0,18574.2928387862,-15952.043697313702,0.0009297101,-10.6471430451,0.0,0.0,1500,1500,39.9586554187,-88.444888759,39.9586758333,-88.4448585,0.0,0.0,0.0,0.0,0.0,0.0,0.0,0.0,0.0,0.0,0.0,145556,0.0,0.0,0.0,0.0,90.0,90.0,90.0,89.63606262209998,89.3177566528,89.1904296875,42.7559967041,15.7028141022,1.7499998808000001,0,2,25,1,597,1326
40,1530197802186,1469186, RC,0,40.1021155673,-88.22673299799999,0,18576.605289111798,-15952.558008260701,24486.2077724252,18574.2916957876,-15952.040703701,0.0,0.0,18574.2928387862,-15952.043697313702,0.0009297101,-10.6471430451,0.0,0.0,1500,1500,39.9586554187,-88.444888759,39.9586758333,-88.4448585,0.0,0.0,0.0,0.0,0.0,0.0,0.0,0.0,0.0,0.0,0.0,145556,0.0,0.0,0.0,0.0,90.0,90.0,90.0,89.63606262209998,89.3177566528,89.1904296875,42.7559967041,15.7028141022,1.7499998808000001,0,2,25,1,623,1328
41,1530197802237,1469237, RC,0,40.1021155673,-88.22673299799999,0,18576.6052053977,-15952.557681254599,24486.2074958733,18574.2910860773,-15952.0410928836,0.0,0.0,18574.2927550721,-15952.0433703076,0.0006696503,-10.6471423517,0.0,0.0,1500,1500,39.9586554152,-88.44488875180001,39.9586758333,-88.4448585,0.0,0.0,0.0,0.0,0.0,0.0,0.0,0.0,0.0,0.0,0.0,145556,0.0,0.0,0.0,0.0,90.0,90.0,90.0,89.63606262209998,89.3177566528,89.1904296875,42.7559967041,15.7028141022,1.7499998808000001,0,2,25,1,563,1330
42,1530197802287,1469287, RC,0,40.1021155673,-88.22673299799999,0,18576.6052053977,-15952.557681254599,24486.2074958733,18574.291411616497,-15952.040407181299,0.0001,0.0,18574.2927550721,-15952.0433703076,0.0006696503,-10.6471423517,0.0,0.0,1500,1500,39.9586554213,-88.44488875569999,39.9586758333,-88.4448585,0.0,0.0,0.0,0.0,0.0,0.0,0.0,0.0,0.0,0.0,0.0,145556,0.0,0.0,0.0,0.0,90.0,90.0,90.0,89.63606262209998,89.3177566528,89.1904296875,42.7559967041,15.7028141022,1.7499998808000001,0,2,25,1,590,1332
43,1530197802338,1469338, RC,0,40.1021155673,-88.22673299799999,0,18576.605232545702,-15952.557302929099,24486.2072699935,18574.291411616497,-15952.040407181299,0.0,0.0,18574.2927822201,-15952.0429919821,0.0005002866000000001,-10.6471407984,0.0,0.0,1500,1500,39.9586554213,-88.44488875569999,39.9586758333,-88.4448585,0.0,0.0,0.0,0.0,0.0,0.0,0.0,0.0,0.0,0.0,0.0,145556,0.0,0.0,0.0,0.0,90.0,90.0,90.0,89.63606262209998,89.3177566528,89.1904296875,42.7559967041,15.7028141022,1.7499998808000001,0,2,25,1,580,1334
44,1530197802388,1469388, RC,0,40.1021155673,-88.22673299799999,0,18576.605232545702,-15952.557302929099,24486.2072699935,18574.291411616497,-15952.040407181299,0.0,0.0,18574.2927822201,-15952.0429919821,0.0005002866000000001,-10.6471407984,0.0,0.0,1500,1500,39.9586554213,-88.44488875569999,39.9586758333,-88.4448585,0.0,0.0,0.0,0.0,0.0,0.0,0.0,0.0,0.0,0.0,0.0,145556,0.0,0.0,0.0,0.0,90.0,90.0,90.0,89.63606262209998,89.1904296875,89.1904296875,42.7559967041,15.7028141022,1.7499998808000001,0,2,25,1,577,1336
45,1530197802439,1469439, RC,0,40.1021155673,-88.22673299799999,0,18576.605059776102,-15952.556849031202,24486.206843210097,18574.2917649693,-15952.0392581682,0.0,0.0,18574.292609450502,-15952.042538084199,0.0004118995,-10.647139836100001,0.0,0.0,1500,1500,39.9586554317,-88.4448887598,39.9586758333,-88.4448585,0.0,0.0,0.0,0.0,0.0,0.0,0.0,0.0,0.0,0.0,0.0,145556,0.0,0.0,0.0,0.0,90.0,90.0,90.0,89.63606262209998,89.1904296875,89.1904296875,42.7559967041,15.7028141022,1.7499998808000001,0,2,25,1,560,1338
46,1530197802489,1469489, RC,0,40.1021155673,-88.22673299799999,0,18576.605059776102,-15952.556849031202,24486.206843210097,18574.2917940774,-15952.039851206899,0.0,0.0,18574.292609450502,-15952.042538084199,0.0004118995,-10.647139836100001,0.0,0.0,1500,1500,39.9586554263,-88.4448887602,39.9586758333,-88.4448585,0.0,0.0,0.0,0.0,0.0,0.0,0.0,0.0,0.0,0.0,0.0,145556,0.0,0.0,0.0,0.0,90.0,90.0,90.0,89.63606262209998,89.1904296875,89.1904296875,42.7559967041,15.7028141022,1.7499998808000001,0,2,25,1,571,1340
47,1530197802540,1469540, RC,0,40.1021155673,-88.22673299799999,0,18576.6049021548,-15952.5565082679,24486.206501625496,18574.2917940774,-15952.039851206899,0.0,0.0,18574.2924518292,-15952.042197320901,0.0003610103,-10.6471392163,0.0,0.0,1500,1500,39.9586554263,-88.4448887602,39.9586758333,-88.4448585,0.0,0.0,0.0,0.0,0.0,0.0,0.0,0.0,0.0,0.0,0.0,145556,0.0,0.0,0.0,0.0,90.0,90.0,90.0,89.63606262209998,89.1904296875,89.1904296875,42.7559967041,15.7028141022,1.7499998808000001,0,2,25,1,564,1342
48,1530197802590,1469590, RC,0,40.1021155673,-88.22673299799999,0,18576.6049021548,-15952.5565082679,24486.206501625496,18574.2914966695,-15952.040333051698,0.0001,0.0,18574.2924518292,-15952.042197320901,0.0003610103,-10.6471392163,0.0,0.0,1500,1500,39.958655422,-88.4448887567,39.9586758333,-88.4448585,0.0,0.0,0.0,0.0,0.0,0.0,0.0,0.0,0.0,0.0,0.0,145556,0.0,0.0,0.0,0.0,90.0,90.0,90.0,89.63606262209998,89.1904296875,89.1904296875,42.7559967041,15.7028141022,1.7499998808000001,0,2,25,1,560,1344
49,1530197802641,1469641, RC,0,40.1021155673,-88.22673299799999,0,18576.6048276357,-15952.5563408398,24486.2063360131,18574.2914966695,-15952.040333051698,0.0,0.0,18574.2923773101,-15952.0420298928,0.00035659010000000003,-10.6471386151,0.0,0.0,1500,1500,39.958655422,-88.4448887567,39.9586758333,-88.4448585,0.0,0.0,0.0,0.0,0.0,0.0,0.0,0.0,0.0,0.0,0.0,145556,0.0,0.0,0.0,0.0,90.0,90.0,90.0,89.63606262209998,89.1904296875,89.1904296875,42.7559967041,15.7028141022,1.7499998808000001,0,2,25,1,558,1346
50,1530197802691,1469691, RC,0,40.1021155673,-88.22673299799999,0,18576.6048276357,-15952.5563408398,24486.2063360131,18574.2914966695,-15952.040333051698,0.0,0.0,18574.2923773101,-15952.0420298928,0.00035659010000000003,-10.6471386151,0.0,0.0,1500,1500,39.958655422,-88.4448887567,39.9586758333,-88.4448585,0.0,0.0,0.0,0.0,0.0,0.0,0.0,0.0,0.0,0.0,0.0,145556,0.0,0.0,0.0,0.0,90.0,90.0,90.0,89.63606262209998,89.1904296875,89.1904296875,43.293998718299996,15.7028141022,1.7499998808000001,0,2,25,1,576,1348
51,1530197802742,1469742, RC,0,40.1021155673,-88.22673299799999,0,18576.6048276357,-15952.5563408398,24486.2063360131,18574.2909292123,-15952.0404627797,0.0,0.0,18574.2923773101,-15952.0420298928,0.00035659010000000003,-10.6471386151,0.0,0.0,1500,1500,39.9586554208,-88.44488875,39.9586758333,-88.4448585,0.0,0.0,0.0,0.0,0.0,0.0,0.0,0.0,0.0,0.0,0.0,145557,0.0,0.0,0.0,0.0,90.0,90.0,90.0,89.63606262209998,89.1904296875,89.1904296875,43.293998718299996,15.7028141022,1.7499998808000001,0,2,25,1,569,1350
52,1530197802792,1469792, RC,0,40.1021155673,-88.22673299799999,0,18576.6045865205,-15952.5561172823,24486.206007443798,18574.2915528845,-15952.0398882721,0.0001,0.0,18574.2921361949,-15952.0418063353,0.0003304411,-10.647138183500001,0.0,0.0,1500,1500,39.958655426,-88.44488875729999,39.9586758333,-88.4448585,0.0,0.0,0.0,0.0,0.0,0.0,0.0,0.0,0.0,0.0,0.0,145557,0.0,0.0,0.0,0.0,90.0,90.0,90.0,89.63606262209998,89.1904296875,89.1904296875,42.7559967041,15.7028141022,1.7499998808000001,0,2,25,1,574,1352
53,1530197802842,1469842, RC,0,40.1021155673,-88.22673299799999,0,18576.6043835541,-15952.556081583401,24486.2058302045,18574.2915528845,-15952.0398882721,0.0,0.0,18574.291933228502,-15952.041770636399,0.00036307470000000004,-10.6471383288,0.0,0.0,1500,1500,39.958655426,-88.44488875729999,39.9586758333,-88.4448585,0.0,0.0,0.0,0.0,0.0,0.0,0.0,0.0,0.0,0.0,0.0,145557,0.0,0.0,0.0,0.0,90.0,90.0,90.0,89.63606262209998,89.1904296875,89.1904296875,42.7559967041,15.7028141022,1.7499998808000001,0,2,25,1,578,1354
54,1530197802893,1469893, RC,0,40.1021155673,-88.22673299799999,0,18576.6043835541,-15952.556081583401,24486.2058302045,18574.2927577986,-15952.0388504523,0.0,0.0,18574.291933228502,-15952.041770636399,0.00036307470000000004,-10.6471383288,0.0,0.0,1500,1500,39.9586554353,-88.44488877149999,39.9586758333,-88.4448585,0.0,0.0,0.0,0.0,0.0,0.0,0.0,0.0,0.0,0.0,0.0,145557,0.0,0.0,0.0,0.0,90.0,90.0,90.0,89.63606262209998,89.1904296875,89.1904296875,42.7559967041,15.7028141022,1.7499998808000001,0,2,25,1,584,1356
55,1530197802943,1469943, RC,0,40.1021155673,-88.22673299799999,0,18576.6042709903,-15952.5556077283,24486.2054360948,18574.2927577986,-15952.0388504523,0.0,0.0,18574.2918206647,-15952.041296781299,0.0003123013,-10.6471389654,0.0,0.0,1500,1500,39.9586554353,-88.44488877149999,39.9586758333,-88.4448585,0.0,0.0,0.0,0.0,0.0,0.0,0.0,0.0,0.0,0.0,0.0,145557,0.0,0.0,0.0,0.0,90.0,90.0,90.0,89.63606262209998,89.1904296875,89.1904296875,42.7559967041,15.7028141022,1.7499998808000001,0,2,25,1,553,1358
56,1530197802994,1469994, RC,0,40.1021155673,-88.22673299799999,0,18576.6042771691,-15952.5553145954,24486.205249808798,18574.2917088223,-15952.039758544099,0.0,0.0,18574.291826843502,-15952.0410036484,0.0002865737,-10.6471393561,0.0,0.0,1500,1500,39.9586554272,-88.4448887592,39.9586758333,-88.4448585,0.0,0.0,0.0,0.0,0.0,0.0,0.0,0.0,0.0,0.0,0.0,145557,0.0,0.0,0.0,0.0,90.0,90.0,90.0,89.63606262209998,89.1904296875,89.1904296875,42.7559967041,15.7028141022,1.7499998808000001,0,2,25,1,584,1360
57,1530197803054,1470054, RC,0,40.1021155673,-88.22673299799999,0,18576.6042771691,-15952.5553145954,24486.205249808798,18574.2917088223,-15952.039758544099,0.0,0.0,18574.291826843502,-15952.0410036484,0.0002865737,-10.6471393561,0.0,0.0,1500,1500,39.9586554272,-88.4448887592,39.9586728333,-88.4448671667,0.0,0.0,0.0,0.0,0.0,0.0,0.0,0.0,0.0,0.0,0.0,145557,0.0,0.0,0.0,0.0,90.0,90.0,90.0,89.63606262209998,89.1904296875,89.1904296875,42.7559967041,15.7028141022,1.7499998808000001,0,2,25,1,582,1362
58,1530197803104,1470104, RC,0,40.1021155673,-88.22673299799999,0,18576.6042771691,-15952.5553145954,24486.205249808798,18574.2917088223,-15952.039758544099,0.0,0.0,18574.291826843502,-15952.0410036484,0.0002865737,-10.6471393561,0.0,0.0,1500,1500,39.9586554272,-88.4448887592,39.9586728333,-88.4448671667,0.0,0.0,0.0,0.0,0.0,0.0,0.0,0.0,0.0,0.0,0.0,145557,0.0,0.0,0.0,0.0,90.0,90.0,90.0,89.63606262209998,89.1904296875,89.1904296875,42.7559967041,15.7028141022,1.7499998808000001,0,2,25,1,579,1364
59,1530197803154,1470154, RC,0,40.1021155673,-88.22673299799999,0,18576.604327907902,-15952.555144523601,24486.2051775017,18574.293710641898,-15952.040555441201,0.0,0.0,18574.2918775823,-15952.040833576599,0.0002415519,-10.6471400164,0.0,0.0,1500,1500,39.95865542,-88.4448887827,39.9586728333,-88.4448671667,0.0,0.0,0.0,0.0,0.0,0.0,0.0,0.0,0.0,0.0,0.0,145557,0.0,0.0,0.0,0.0,90.0,90.0,90.0,89.63606262209998,89.1904296875,89.1904296875,42.7559967041,15.7070407867,1.3099999428,0,2,25,1,579,1366
60,1530197803205,1470205, RC,0,40.1021155673,-88.22673299799999,0,18576.6044222669,-15952.5550777743,24486.205205601098,18574.293840101698,-15952.041982442901,0.0,0.0,18574.2919719413,-15952.0407668273,0.0001775634,-10.647140694600001,0.0,0.0,1500,1500,39.9586554072,-88.4448887842,39.9586728333,-88.4448671667,0.0,0.0,0.0,0.0,0.0,0.0,0.0,0.0,0.0,0.0,0.0,145557,0.0,0.0,0.0,0.0,90.0,90.0,90.0,89.63606262209998,89.1904296875,89.1904296875,42.7559967041,15.7070407867,1.3099999428,0,2,25,1,581,1368
61,1530197803262,1470262, RC,0,40.1021155673,-88.22673299799999,0,18576.6044222669,-15952.5550777743,24486.205205601098,18574.293840101698,-15952.041982442901,0.0,0.0,18574.2919719413,-15952.0407668273,0.0001775634,-10.647140694600001,0.0,0.0,1500,1500,39.9586554072,-88.4448887842,39.9586728333,-88.4448671667,0.0,0.0,0.0,0.0,0.0,0.0,0.0,0.0,0.0,0.0,0.0,145557,0.0,0.0,0.0,0.0,90.0,90.0,90.0,89.63606262209998,89.1904296875,89.1904296875,42.7559967041,15.7070407867,1.3099999428,0,2,25,1,582,1372
62,1530197803312,1470312, RC,0,40.1021155673,-88.22673299799999,0,18576.604606306002,-15952.5550032728,24486.205296686403,18574.2941099013,-15952.0421307027,0.0,0.0,18574.2921559804,-15952.040692325802,0.0001111087,-10.6471411661,0.0,0.0,1500,1500,39.9586554058,-88.4448887873,39.9586728333,-88.4448671667,0.0,0.0,0.0,0.0,0.0,0.0,0.0,0.0,0.0,0.0,0.0,145557,0.0,0.0,0.0,0.0,90.0,90.0,90.0,89.63606262209998,89.1904296875,89.1904296875,42.7559967041,15.7070407867,1.3099999428,0,2,25,1,576,1375
63,1530197803369,1470369, RC,0,40.1021155673,-88.22673299799999,0,18576.604606306002,-15952.5550032728,24486.205296686403,18574.2941099013,-15952.0421307027,0.0,0.0,18574.2921559804,-15952.040692325802,0.0001111087,-10.6471411661,0.0,0.0,1500,1500,39.9586554058,-88.4448887873,39.9586728333,-88.4448671667,0.0,0.0,0.0,0.0,0.0,0.0,0.0,0.0,0.0,0.0,0.0,145557,0.0,0.0,0.0,0.0,90.0,90.0,90.0,89.63606262209998,89.1904296875,89.1904296875,42.7559967041,15.7070407867,1.3099999428,0,2,25,1,566,1378
64,1530197803419,1470419, RC,0,40.1021155673,-88.22673299799999,0,18576.604606306002,-15952.5550032728,24486.205296686403,18574.293483730802,-15952.040666635901,0.0001,0.0,18574.2921559804,-15952.040692325802,0.0001111087,-10.6471411661,0.0,0.0,1500,1500,39.958655419,-88.44488878,39.9586728333,-88.4448671667,0.0,0.0,0.0,0.0,0.0,0.0,0.0,0.0,0.0,0.0,0.0,145557,0.0,0.0,0.0,0.0,90.0,90.0,90.0,89.63606262209998,89.1904296875,89.1904296875,42.7559967041,15.7070407867,1.3099999428,0,2,25,1,613,1381
65,1530197803469,1470469, RC,0,40.1021155673,-88.22673299799999,0,18576.604695761598,-15952.5548808011,24486.205284763102,18574.293483730802,-15952.040666635901,0.0,0.0,18574.292245436,-15952.0405698541,7.42573e-05,-10.6471414815,0.0,0.0,1500,1500,39.958655419,-88.44488878,39.9586728333,-88.4448671667,0.0,0.0,0.0,0.0,0.0,0.0,0.0,0.0,0.0,0.0,0.0,145557,0.0,0.0,0.0,0.0,90.0,90.0,90.0,89.63606262209998,89.1904296875,89.1904296875,42.7559967041,15.7070407867,1.3099999428,0,2,25,1,607,1384
66,1530197803520,1470520, RC,0,40.1021155673,-88.22673299799999,0,18576.604695761598,-15952.5548808011,24486.205284763102,18574.293483730802,-15952.040666635901,0.0,0.0,18574.292245436,-15952.0405698541,7.42573e-05,-10.6471414815,0.0,0.0,1500,1500,39.958655419,-88.44488878,39.9586728333,-88.4448671667,0.0,0.0,0.0,0.0,0.0,0.0,0.0,0.0,0.0,0.0,0.0,145557,0.0,0.0,0.0,0.0,90.0,90.0,90.0,89.63606262209998,89.1904296875,89.1904296875,41.679000854499996,15.7070407867,1.3099999428,0,2,25,1,614,1386
67,1530197803570,1470570, RC,0,40.1021155673,-88.22673299799999,0,18576.6048832102,-15952.5548034726,24486.2053765933,18574.295484758302,-15952.040814895801,0.0,0.0,18574.2924328846,-15952.0404925256,2.8851999999999998e-05,-10.6471417864,0.0,0.0,1500,1500,39.9586554177,-88.4448888035,39.9586728333,-88.4448671667,0.0,0.0,0.0,0.0,0.0,0.0,0.0,0.0,0.0,0.0,0.0,145557,0.0,0.0,0.0,0.0,90.0,90.0,90.0,89.63606262209998,89.1904296875,89.1904296875,41.679000854499996,15.7070407867,1.3099999428,0,2,25,1,575,1389
68,1530197803621,1470621, RC,0,40.1021155673,-88.22673299799999,0,18576.6050026779,-15952.5547485842,24486.2054314688,18574.2940224904,-15952.040277454,0.0,0.0,18574.2925523523,-15952.040437637199,1.4851900000000001e-05,-10.647141916499999,0.0,0.0,1500,1500,39.9586554225,-88.4448887863,39.9586728333,-88.4448671667,0.0,0.0,0.0,0.0,0.0,0.0,0.0,0.0,0.0,0.0,0.0,145557,0.0,0.0,0.0,0.0,90.0,90.0,90.0,89.63606262209998,89.1904296875,89.1904296875,42.7559967041,15.7070407867,1.3099999428,0,2,25,1,604,1391
69,1530197803672,1470672, RC,0,40.1021155673,-88.22673299799999,0,18576.6050026779,-15952.5547485842,24486.2054314688,18574.2940224904,-15952.040277454,0.0,0.0,18574.2925523523,-15952.040437637199,1.4851900000000001e-05,-10.647141916499999,0.0,0.0,1500,1500,39.9586554225,-88.4448887863,39.9586728333,-88.4448671667,0.0,0.0,0.0,0.0,0.0,0.0,0.0,0.0,0.0,0.0,0.0,145557,0.0,0.0,0.0,0.0,90.0,90.0,90.0,89.63606262209998,89.1904296875,89.1904296875,42.7559967041,15.7070407867,1.3099999428,0,2,25,1,569,1394
70,1530197803723,1470723, RC,0,40.1021155673,-88.22673299799999,0,18576.6050026779,-15952.5547485842,24486.2054314688,18574.2937976454,-15952.0420751057,0.0001,0.0,18574.2925523523,-15952.040437637199,1.4851900000000001e-05,-10.647141916499999,0.0,0.0,1500,1500,39.958655406300004,-88.44488878370001,39.9586728333,-88.4448671667,0.0,0.0,0.0,0.0,0.0,0.0,0.0,0.0,0.0,0.0,0.0,145558,0.0,0.0,0.0,0.0,90.0,90.0,90.0,89.63606262209998,89.1904296875,89.1904296875,42.7559967041,15.7070407867,1.3099999428,0,2,25,1,556,1396
71,1530197803773,1470773, RC,0,40.1021155673,-88.22673299799999,0,18576.605134763402,-15952.554836257399,24486.2055887946,18574.2937976454,-15952.0420751057,0.0,0.0,18574.2926844378,-15952.0405253104,0.0,-10.6471419808,0.0,0.0,1500,1500,39.958655406300004,-88.44488878370001,39.9586728333,-88.4448671667,0.0,0.0,0.0,0.0,0.0,0.0,0.0,0.0,0.0,0.0,0.0,145558,0.0,0.0,0.0,0.0,90.0,90.0,90.0,89.63606262209998,89.1904296875,89.1904296875,42.7559967041,15.7070407867,1.3099999428,0,2,25,1,589,1398
72,1530197803824,1470824, RC,0,40.1021155673,-88.22673299799999,0,18576.605331676798,-15952.554864066598,24486.205756301602,18574.2942368898,-15952.0415376632,0.0,0.0,18574.2928813512,-15952.0405531196,-0.0,-10.647141980299999,0.0,0.0,1500,1500,39.9586554112,-88.44488878879999,39.9586728333,-88.4448671667,0.0,0.0,0.0,0.0,0.0,0.0,0.0,0.0,0.0,0.0,0.0,145558,0.0,0.0,0.0,0.0,90.0,90.0,90.0,89.63606262209998,89.1904296875,89.1904296875,42.7559967041,15.7070407867,1.3099999428,0,2,25,1,577,1400
73,1530197803875,1470875, RC,0,40.1021155673,-88.22673299799999,0,18576.605331676798,-15952.554864066598,24486.205756301602,18574.295074326,-15952.0417044557,0.0001,0.0,18574.2928813512,-15952.0405531196,-0.0,-10.647141980299999,0.0,0.0,1500,1500,39.9586554097,-88.4448887987,39.9586728333,-88.4448671667,0.0,0.0,0.0,0.0,0.0,0.0,0.0,0.0,0.0,0.0,0.0,145558,0.0,0.0,0.0,0.0,90.0,90.0,90.0,89.63606262209998,89.1904296875,89.1904296875,42.7559967041,15.7070407867,1.3099999428,0,2,25,1,599,1402
74,1530197803925,1470925, RC,0,40.1021155673,-88.22673299799999,0,18576.6055605902,-15952.554945136299,24486.2059827843,18574.295074326,-15952.0417044557,0.0,0.0,18574.2931102646,-15952.0406341893,0.0,-10.647141980299999,0.0,0.0,1500,1500,39.9586554097,-88.4448887987,39.9586728333,-88.4448671667,0.0,0.0,0.0,0.0,0.0,0.0,0.0,0.0,0.0,0.0,0.0,145558,0.0,0.0,0.0,0.0,90.0,90.0,90.0,89.63606262209998,89.1904296875,89.1904296875,42.7559967041,15.7070407867,1.3099999428,0,2,25,1,599,1404
75,1530197803976,1470976, RC,0,40.1021155673,-88.22673299799999,0,18576.6055605902,-15952.554945136299,24486.2059827843,18574.295074326,-15952.0417044557,0.0,0.0,18574.2931102646,-15952.0406341893,0.0,-10.647141980299999,0.0,0.0,1500,1500,39.9586554097,-88.4448887987,39.9586728333,-88.4448671667,0.0,0.0,0.0,0.0,0.0,0.0,0.0,0.0,0.0,0.0,0.0,145558,0.0,0.0,0.0,0.0,90.0,90.0,90.0,89.63606262209998,89.1904296875,89.1904296875,42.7559967041,15.7070407867,1.3099999428,0,2,25,1,594,1407
76,1530197804026,1471026, RC,0,40.1021155673,-88.22673299799999,0,18576.6058223455,-15952.5550482191,24486.2062485241,18574.295953154,-15952.040907558601,0.0,0.0,18574.2933720199,-15952.0407372721,0.0,-10.647141980299999,0.0,0.0,1500,1500,39.9586554168,-88.44488880899999,39.9586823333,-88.4448661667,0.0,0.0,0.0,0.0,0.0,0.0,0.0,0.0,0.0,0.0,0.0,145558,0.0,0.0,0.0,0.0,90.0,90.0,90.0,89.63606262209998,89.1904296875,89.1904296875,42.7559967041,15.7070407867,1.3099999428,0,2,25,1,595,1409
77,1530197804077,1471077, RC,0,40.1021155673,-88.22673299799999,0,18576.6058223455,-15952.5550482191,24486.2062485241,18574.2907866043,-15952.0398882721,0.0001,0.0,18574.2933720199,-15952.0407372721,0.0,-10.647141980299999,0.0,0.0,1500,1500,39.958655426,-88.4448887483,39.9586823333,-88.4448661667,0.0,0.0,0.0,0.0,0.0,0.0,0.0,0.0,0.0,0.0,0.0,145558,0.0,0.0,0.0,0.0,90.0,90.0,90.0,89.63606262209998,89.1904296875,89.1904296875,42.7559967041,15.7070407867,1.3099999428,0,2,25,1,607,1411
78,1530197804127,1471127, RC,0,40.1021155673,-88.22673299799999,0,18576.6057590706,-15952.5550495394,24486.2062013804,18574.2907866043,-15952.0398882721,0.0,0.0,18574.293308745,-15952.040738592399,7.5858e-06,-10.647141980299999,0.0,0.0,1500,1500,39.958655426,-88.4448887483,39.9586823333,-88.4448661667,0.0,0.0,0.0,0.0,0.0,0.0,0.0,0.0,0.0,0.0,0.0,145558,0.0,0.0,0.0,0.0,90.0,90.0,90.0,89.63606262209998,89.1904296875,89.1904296875,42.7559967041,15.7070407867,1.3099999428,0,2,25,1,574,1413
79,1530197804178,1471178, RC,0,40.1021155673,-88.22673299799999,0,18576.6057590706,-15952.5550495394,24486.2062013804,18574.2910707754,-15952.0401847918,0.0001,0.0,18574.293308745,-15952.040738592399,7.5858e-06,-10.647141980299999,0.0,0.0,1500,1500,39.9586554233,-88.4448887517,39.9586823333,-88.4448661667,0.0,0.0,0.0,0.0,0.0,0.0,0.0,0.0,0.0,0.0,0.0,145558,0.0,0.0,0.0,0.0,90.0,90.0,90.0,89.63606262209998,89.1904296875,89.1904296875,42.7559967041,15.7141113281,1.8600000143000002,0,2,25,1,585,1415
80,1530197804228,1471228, RC,0,40.1021155673,-88.22673299799999,0,18576.6057307273,-15952.5550355457,24486.2061707608,18574.2910707754,-15952.0401847918,0.0,0.0,18574.2932804017,-15952.0407245987,4.2931899999999995e-05,-10.6471419914,0.0,0.0,1500,1500,39.9586554233,-88.4448887517,39.9586823333,-88.4448661667,0.0,0.0,0.0,0.0,0.0,0.0,0.0,0.0,0.0,0.0,0.0,145558,0.0,0.0,0.0,0.0,90.0,90.0,90.0,89.63606262209998,89.1904296875,89.1904296875,42.7559967041,15.7141113281,1.8600000143000002,0,2,25,1,573,1417
81,1530197804279,1471279, RC,0,40.1021155673,-88.22673299799999,0,18576.6057307273,-15952.5550355457,24486.2061707608,18574.2916399108,-15952.0414264685,0.0,0.0,18574.2932804017,-15952.0407245987,4.2931899999999995e-05,-10.6471419914,0.0,0.0,1500,1500,39.958655412199995,-88.4448887583,39.9586823333,-88.4448661667,0.0,0.0,0.0,0.0,0.0,0.0,0.0,0.0,0.0,0.0,0.0,145558,0.0,0.0,0.0,0.0,90.0,90.0,90.0,89.63606262209998,89.1904296875,89.1904296875,42.7559967041,15.7141113281,1.8600000143000002,0,2,25,1,587,1419
82,1530197804329,1471329, RC,0,40.1021155673,-88.22673299799999,0,18576.605774345902,-15952.5550935974,24486.2062416725,18574.2916399108,-15952.0414264685,0.0,0.0,18574.293324020302,-15952.0407826504,5.91233e-05,-10.647141968,0.0,0.0,1500,1442,39.958655412199995,-88.4448887583,39.9586823333,-88.4448661667,0.0,0.0,0.0,0.0,0.0,0.0,0.0,0.0,0.0,0.0,0.0,145558,0.0,-0.1142680049,0.0,0.0,90.0,90.0,90.0,89.63606262209998,89.1904296875,89.1904296875,42.7559967041,15.7141113281,1.8600000143000002,0,2,25,1,587,1421
83,1530197804380,1471380, RC,0,40.1021155673,-88.22673299799999,0,18576.605774345902,-15952.5550935974,24486.2062416725,18574.2916399108,-15952.0414264685,0.001379505,0.0,18574.293324020302,-15952.0407826504,5.91233e-05,-10.647141968,0.0,0.0,1500,1442,39.958655412199995,-88.4448887583,39.9586823333,-88.4448661667,0.0,0.0,0.0,0.0,0.0,0.0,0.0,0.0,0.0,0.0,0.0,145558,0.0,-0.1142680049,-0.0014714720000000001,-0.001287538,90.0,90.0,90.0,89.63606262209998,89.1904296875,89.1904296875,42.7559967041,15.7141113281,1.8600000143000002,0,2,25,1,600,1423
84,1530197804430,1471430, RC,0,40.1021155673,-88.22673299799999,0,18576.6056701747,-15952.5549942453,24486.2060979154,18574.2905171678,-15952.040036531298,0.0273141973,0.0,18574.2932198491,-15952.0406832983,0.0008709119,-10.6471418254,0.0,0.0,1500,1442,39.9586554247,-88.4448887452,39.9586823333,-88.4448661667,0.0,0.0,0.0,0.0,0.0,0.0,0.0,0.0,0.0,0.0,0.0,145558,0.0,-0.1142680049,-0.0275900979,-0.0270382967,90.0,90.0,90.0,89.5724029541,89.1904296875,89.12677001950001,42.7559967041,15.7141113281,1.8600000143000002,0,2,25,1,583,1425
85,1530197804481,1471481, RC,0,40.1021155673,-88.22673299799999,0,18576.6056701747,-15952.5549942453,24486.2060979154,18574.2905171678,-15952.040036531298,0.0560078993,0.0,18574.2932198491,-15952.0406832983,0.0008709119,-10.6471418254,0.0,0.0,1500,1442,39.9586554247,-88.4448887452,39.9586823333,-88.4448661667,0.0,0.0,0.0,0.0,0.0,0.0,0.0,0.0,0.0,0.0,0.0,145558,0.0,-0.1142680049,-0.0524211861,-0.0595946126,90.0,90.0,90.0,88.93578338620001,89.7633895874,88.55381011959999,42.7559967041,15.7141113281,1.8600000143000002,0,2,25,1,586,1428
86,1530197804531,1471531, RC,0,40.1021155673,-88.22673299799999,0,18576.6053684178,-15952.554503999,24486.2055495944,18574.290913501998,-15952.039221102299,0.0764245763,0.0,18574.2929180922,-15952.040193052,0.0047076908,-10.6471391111,0.0,0.0,1500,1346,39.958655432,-88.4448887498,39.9586823333,-88.4448661667,0.0,0.0,0.0,0.0,0.0,0.0,0.0,0.0,0.0,0.0,0.0,145558,0.0,-0.3062820435,-0.0778040811,-0.0750450715,90.0,90.0,90.0,88.8084564209,90.2726821899,88.1718444824,42.7559967041,15.7141113281,1.8600000143000002,0,2,25,1,649,1430
87,1530197804592,1471592, RC,0,40.1021155673,-88.22673299799999,0,18576.6053922244,-15952.553921836101,24486.2051883813,18574.2963093218,-15952.0420565731,0.1270064265,0.0,18574.2929418988,-15952.0396108891,0.0101428453,-10.6471277356,0.0,0.0,1500,1346,39.9586554065,-88.4448888132,39.9586823333,-88.4448661667,0.0,0.0,0.0,0.0,0.0,0.0,0.0,0.0,0.0,0.0,0.0,145558,0.0,-0.3062820435,-0.1324324757,-0.1215803698,90.0,90.0,90.0,88.8721160889,89.3814163208,88.8721160889,43.293998718299996,15.7141113281,1.8600000143000002,0,2,25,1,702,1432
88,1530197804658,1471658, RC,0,40.1021155673,-88.22673299799999,0,18576.6053922244,-15952.553921836101,24486.2051883813,18574.2963093218,-15952.0420565731,0.19276282190000002,0.0,18574.2929418988,-15952.0396108891,0.0101428453,-10.6471277356,0.0,0.0,1500,1335,39.9586554065,-88.4448888132,39.9586823333,-88.4448661667,0.0,0.0,0.0,0.0,0.0,0.0,0.0,0.0,0.0,0.0,0.0,145558,0.0,-0.32854902739999997,-0.19221101699999998,-0.1933146268,90.0,90.0,90.0,89.9543762207,89.3814163208,89.7633895874,42.7559967041,15.7141113281,1.8600000143000002,0,2,25,1,497,1435
89,1530197804708,1471708, RC,0,40.1021155673,-88.22673299799999,0,18576.6053922244,-15952.553921836101,24486.2051883813,18574.2963093218,-15952.0420565731,0.24242499469999998,0.0,18574.2929418988,-15952.0396108891,0.0101428453,-10.6471277356,0.0,0.0,1500,1335,39.9586554065,-88.4448888132,39.9586823333,-88.4448661667,0.0,0.0,0.0,0.0,0.0,0.0,0.0,0.0,0.0,0.0,0.0,145558,0.0,-0.32854902739999997,-0.2407695949,-0.2440804094,90.0,90.0,90.0,89.7633895874,89.1904296875,90.01803588870001,42.7559967041,15.7141113281,1.8600000143000002,0,2,25,1,492,1437
90,1530197804759,1471759, RC,0,40.1021155673,-88.22673299799999,0,18576.6053922244,-15952.553921836101,24486.2051883813,18574.2963093218,-15952.0420565731,0.2549325228,0.0,18574.2929418988,-15952.0396108891,0.0101428453,-10.6471277356,0.0,0.0,1500,1329,39.9586554065,-88.4448888132,39.9586823333,-88.4448661667,0.0,0.0,0.0,0.0,0.0,0.0,0.0,0.0,0.0,0.0,0.0,145558,0.0,-0.3417249918,-0.247759074,-0.2621059418,90.0,90.0,90.0,89.5724029541,89.3177566528,89.8907089233,42.7559967041,15.7141113281,1.8600000143000002,0,2,25,1,462,1439
91,1530197804809,1471809, RC,0,40.1021155673,-88.22673299799999,0,18576.6056340481,-15952.5525920398,24486.2045054913,18574.309248203997,-15952.0513969464,0.3107564747,0.0,18574.2931837225,-15952.0382810928,0.025627642000000003,-10.6471604976,0.0,0.0,1500,1329,39.9586553225,-88.444888965,39.9586823333,-88.4448661667,0.0,0.0,0.0,0.0,0.0,0.0,0.0,0.0,0.0,0.0,0.0,145559,0.0,-0.3417249918,-0.3108484447,-0.3106645048,90.0,90.0,90.0,89.1904296875,89.25408935549999,89.8907089233,42.2180023193,15.7141113281,1.8600000143000002,0,2,25,1,460,1441
92,1530197804860,1471860, RC,0,40.1021155673,-88.22673299799999,0,18576.6066509552,-15952.553122686,24486.2056226854,18574.3188408694,-15952.0745440245,0.33466789129999996,0.0,18574.2942006296,-15952.038811739,0.0454244552,-10.647368352,0.0,0.0,1500,1329,39.9586551143,-88.44488907729999,39.9586823333,-88.4448661667,0.0,0.0,0.0,0.0,0.0,0.0,0.0,0.0,0.0,0.0,0.0,145559,0.0,-0.3417249918,-0.3310811818,-0.33825460079999997,90.0,90.0,90.0,88.93578338620001,88.9994430542,90.20902252200001,42.7559967041,15.7141113281,1.8600000143000002,0,2,25,1,446,1444
93,1530197804917,1471917, RC,0,40.1021155673,-88.22673299799999,0,18576.6106374788,-15952.5601335958,24486.213214633197,18574.3448061901,-15952.1183733584,0.35747569799999995,0.0,18574.2981871532,-15952.045822648799,0.0671331176,-10.647912509700001,0.0,0.0,1500,1329,39.9586547202,-88.4448893817,39.9586823333,-88.4448661667,0.0,0.0,0.0,0.0,0.0,0.0,0.0,0.0,0.0,0.0,0.0,145559,0.0,-0.3417249918,-0.36970731619999997,-0.3452440798,90.0,90.0,90.0,88.9994430542,89.1904296875,89.8907089233,42.7559967041,15.7141113281,1.8600000143000002,0,2,25,1,444,1446
94,1530197804978,1471978, RC,0,40.1021155673,-88.22673299799999,0,18576.6106374788,-15952.5601335958,24486.213214633197,18574.3715986376,-15952.165538538999,0.3827666342,0.0,18574.2981871532,-15952.045822648799,0.0671331176,-10.647912509700001,0.0,0.0,1500,1301,39.958654296,-88.4448896957,39.9586823333,-88.4448661667,0.0,0.0,0.0,0.0,0.0,0.0,0.0,0.0,0.0,0.0,0.0,145559,0.0,-0.3979400396,-0.3873649836,-0.37816828490000004,90.0,90.0,90.0,88.235496521,89.3814163208,89.63606262209998,42.7559967041,15.7141113281,1.8600000143000002,0,2,25,1,404,1449
95,1530197805028,1472028, RC,0,40.1021155673,-88.22673299799999,0,18576.6159994521,-15952.569264375901,24486.2232311521,18574.3715986376,-15952.165538538999,0.40916115049999996,0.0,18574.3035491265,-15952.054953428898,0.0917708074,-10.6481171473,0.0,0.0,1500,1301,39.958654296,-88.4448896957,39.9586823333,-88.4448661667,0.0,0.0,0.0,0.0,0.0,0.0,0.0,0.0,0.0,0.0,0.0,145559,0.0,-0.3979400396,-0.418633759,-0.3996885717,90.0,90.0,90.0,88.55381011959999,89.9543762207,88.8721160889,42.7559967041,15.7141113281,1.8600000143000002,0,2,25,1,413,1451
96,1530197805078,1472078, RC,0,40.1021155673,-88.22673299799999,0,18576.6159994521,-15952.569264375901,24486.2232311521,18574.3715986376,-15952.165538538999,0.432520777,0.0,18574.3035491265,-15952.054953428898,0.0917708074,-10.6481171473,0.0,0.0,1500,1301,39.958654296,-88.4448896957,39.9586708333,-88.4448631667,0.0,0.0,0.0,0.0,0.0,0.0,0.0,0.0,0.0,0.0,0.0,145559,0.0,-0.3979400396,-0.4364753664,-0.4285661876,90.0,90.0,90.0,90.0816955566,90.0816955566,88.1718444824,42.7559967041,15.7141113281,1.8600000143000002,0,2,25,1,603,1453
97,1530197805129,1472129, RC,0,40.1021155673,-88.22673299799999,0,18576.6226005005,-15952.5795616895,24486.234947689703,18574.4032854549,-15952.211628836201,0.44217729570000003,0.0,18574.3101501749,-15952.0652507425,0.1185364181,-10.6485762944,0.0,0.0,1500,1301,39.9586538815,-88.44489006719999,39.9586708333,-88.4448631667,0.0,0.0,0.0,0.0,0.0,0.0,0.0,0.0,0.0,0.0,0.0,145559,0.0,-0.3979400396,-0.4497185946,-0.43463602659999995,90.0,90.0,90.0,90.20902252200001,89.6997299194,87.7898712158,42.7559967041,15.7141113281,1.8600000143000002,0,2,25,1,460,1457
98,1530197805179,1472179, RC,0,40.1021155673,-88.22673299799999,0,18576.6226005005,-15952.5795616895,24486.234947689703,18574.430486481102,-15952.2448019891,0.4685718417,0.0,18574.3101501749,-15952.0652507425,0.1185364181,-10.6485762944,0.0,0.0,1500,1301,39.958653583200004,-88.44489038620002,39.9586708333,-88.4448631667,0.0,0.0,0.0,0.0,0.0,0.0,0.0,0.0,0.0,0.0,0.0,145559,0.0,-0.3979400396,-0.4701352715,-0.4670084119,90.0,90.0,90.0,89.8907089233,89.3177566528,88.235496521,42.7559967041,15.714838981600002,12.420000076300001,0,2,25,1,457,1460
99,1530197805230,1472230, RC,0,40.1021155673,-88.22673299799999,0,18576.6309849489,-15952.5919402569,24486.2493731342,18574.430486481102,-15952.2448019891,0.4679280519,0.0,18574.3185346233,-15952.0776293099,0.1471218433,-10.6494355017,0.0,0.0,1500,1301,39.958653583200004,-88.44489038620002,39.9586708333,-88.4448631667,0.0,0.0,0.0,0.0,0.0,0.0,0.0,0.0,0.0,0.0,0.0,145559,0.0,-0.3979400396,-0.4730782211,-0.46277791259999995,90.0,90.0,90.0,90.2726821899,89.3814163208,89.44507598879999,42.7559967041,15.714838981600002,12.420000076300001,0,2,25,1,516,1463
100,1530197805280,1472280, RC,0,40.1021155673,-88.22673299799999,0,18576.6309849489,-15952.5919402569,24486.2493731342,18574.430486481102,-15952.2448019891,0.4808954,0.0,18574.3185346233,-15952.0776293099,0.1471218433,-10.6494355017,0.0,0.0,1500,1500,39.958653583200004,-88.44489038620002,39.9586708333,-88.4448631667,0.0,0.0,0.0,0.0,0.0,0.0,0.0,0.0,0.0,0.0,0.0,145559,0.0,0.0,-0.48742505909999995,-0.474365741,90.0,90.0,90.0,90.0816955566,89.1904296875,89.25408935549999,43.293998718299996,15.714838981600002,12.420000076300001,0,2,25,1,625,1466
101,1530197805331,1472331, RC,0,40.1021155673,-88.22673299799999,0,18576.641008265,-15952.6066286471,24486.266546746298,18574.4565452586,-15952.2838314081,0.46139842270000003,0.0,18574.3285579394,-15952.0923177001,0.1768691035,-10.6508534327,0.0,0.0,1500,1500,39.9586532322,-88.4448906917,39.9586708333,-88.4448631667,0.0,0.0,0.0,0.0,0.0,0.0,0.0,0.0,0.0,0.0,0.0,145559,0.0,0.0,-0.446775645,-0.47602117060000004,90.0,90.0,90.0,89.82704925540001,89.5724029541,88.9994430542,43.293998718299996,15.714838981600002,12.420000076300001,0,2,25,1,483,1468
102,1530197805381,1472381, RC,0,40.1021155673,-88.22673299799999,0,18576.641008265,-15952.6066286471,24486.266546746298,18574.4841153187,-15952.328661496598,0.364189297,0.0,18574.3285579394,-15952.0923177001,0.1768691035,-10.6508534327,0.0,0.0,1500,1500,39.958652829,-88.44489101479999,39.9586708333,-88.4448631667,0.0,0.0,0.0,0.0,0.0,0.0,0.0,0.0,0.0,0.0,0.0,145559,0.0,0.0,-0.3406457603,-0.3877328336,90.0,90.0,90.0,90.2726821899,89.0631027222,88.55381011959999,42.7559967041,15.714838981600002,12.420000076300001,0,2,25,1,539,1470
103,1530197805432,1472432, RC,0,40.1021155673,-88.22673299799999,0,18576.6527563138,-15952.6242230802,24486.2869221012,18574.4841153187,-15952.328661496598,0.3338401914,0.0,18574.3403059882,-15952.1099121332,0.20152903670000002,-10.6530052331,0.0,0.0,1500,1500,39.958652829,-88.44489101479999,39.9586708333,-88.4448631667,0.0,0.0,0.0,0.0,0.0,0.0,0.0,0.0,0.0,0.0,0.0,145559,0.0,0.0,-0.3136074543,-0.35407292840000004,90.0,90.0,90.0,90.7819747925,88.8084564209,88.6174697876,42.7559967041,15.714838981600002,12.420000076300001,0,2,25,1,410,1473
104,1530197805486,1472486, RC,0,40.1021155673,-88.22673299799999,0,18576.6527563138,-15952.6242230802,24486.2869221012,18574.4841153187,-15952.328661496598,0.2301014215,0.0,18574.3403059882,-15952.1099121332,0.20152903670000002,-10.6530052331,0.0,0.0,1500,1500,39.958652829,-88.44489101479999,39.9586708333,-88.4448631667,0.0,0.0,0.0,0.0,0.0,0.0,0.0,0.0,0.0,0.0,0.0,145559,0.0,0.0,-0.2153867036,-0.24481613929999999,90.0,90.0,90.0,89.8907089233,88.681137085,89.0631027222,42.7559967041,15.714838981600002,12.420000076300001,0,2,25,1,426,1476
105,1530197805537,1472537, RC,0,40.1021155673,-88.22673299799999,0,18576.6661089081,-15952.644401911999,24486.3101984703,18574.5096062773,-15952.367524123101,0.19257888199999998,0.0,18574.3536585825,-15952.130090965,0.21435258140000002,-10.6559883421,0.0,0.0,1500,1500,39.958652479499996,-88.44489131370001,39.9586708333,-88.4448631667,0.0,0.0,0.0,0.0,0.0,0.0,0.0,0.0,0.0,0.0,0.0,145559,0.0,0.0,-0.1797035187,-0.2054542601,90.0,90.0,90.0,87.8535232544,89.0631027222,88.9994430542,42.7559967041,15.714838981600002,12.420000076300001,0,2,25,1,383,1478
106,1530197805599,1472599, RC,0,40.1021155673,-88.22673299799999,0,18576.6661089081,-15952.644401911999,24486.3101984703,18574.5161824783,-15952.3840551026,0.1362031251,0.0,18574.3536585825,-15952.130090965,0.21435258140000002,-10.6559883421,0.0,0.0,1500,1500,39.9586523308,-88.4448913907,39.9586708333,-88.4448631667,0.0,0.0,0.0,0.0,0.0,0.0,0.0,0.0,0.0,0.0,0.0,145559,0.0,0.0,-0.1270983964,-0.1453078538,90.0,90.0,90.0,89.5087432861,89.5087432861,88.4901504517,42.7559967041,15.714838981600002,12.420000076300001,0,2,25,1,406,1480
107,1530197805650,1472650, RC,0,40.1021155673,-88.22673299799999,0,18576.6798393371,-15952.665715758101,24486.3345009407,18574.5161824783,-15952.3840551026,0.1144989133,0.0,18574.3673890115,-15952.1514048111,0.22344491019999999,-10.6596324442,0.0,0.0,1500,1500,39.9586523308,-88.4448913907,39.9586708333,-88.4448631667,0.0,0.0,0.0,0.0,0.0,0.0,0.0,0.0,0.0,0.0,0.0,145559,0.0,0.0,-0.1068656519,-0.12213217470000001,90.0,90.0,90.0,90.40000915530001,89.44507598879999,88.55381011959999,42.7559967041,15.714838981600002,12.420000076300001,0,2,25,1,288,1482
