,(0)linux time (ms),    (1)uptime  (ms),      (2)drive mode,(3)mpc step counter,(4)mpc origin latitude  (deg),(5)mpc origin longitude  (deg),(6)closest trajectory point index to robot,(7)mpc error x (W;E)  (m),(8)mpc error y (W;E)  (m),(9)abs mpc error (m),(10)input [x] for mhe (m),(11)input [y] for mhe (m),(12)input [speed] for mhe (m/s),(13)input [vyaw] for mhe (rad/s),(14)mhe output x  (m),(15)mhe output y  (m),(16)mhe output speed  (m/s),(17)mhe output yaw  (rad),(18)mpc reference heading (rad),(19)mpc turn rate command (rad/s),(20)turn rate command as PWM,(21)throttle command as PWM,(22)primary gps latitude (deg),(23)primary gps longitude (deg),(24)secondary gps latitude  (deg),(25)secondary gps longitude (deg),(26)accelerometer x (m/s^2),(27)accelerometer y (m/s^2),(28)accelerometer z (m/s^2),(29)gyro yaw rate (rad/s),(30)gyro pitch rate   (rad/s),(31)gyro roll rate (rad/s),      (32)yaw (rad),  (33)pitch   (rad),     (34)roll (rad),(35)sonar1 measurement (m),(36)ultrasonic sensor measurement (m),(37)primary gps time (s),(38)normalized turn rate command,(39)normalized throttle command,(40)speed calculation from encoder left (m/s),(41)speed calculation from encoder right (m/s),(42)front gimbal target angle (degrees from straight down),(43)left gimbal target angle  (degrees from straight down),(44)right gimbal target angle  (degrees from straight down),(45)front gimbal measured angle  (degrees from straight down),(46)left gimbal measured angle    (degrees from straight down),(47)right gimbal measured angle  (degrees from straight down),(48)internal temperature (C),(49)battery voltage (V),(50)primary gps type,(51)secondary gps type,    (52)MPC R value, (53)MPC Q[0] value,Unnamed: 54,weed_num,start
0,1530213280449,81449, RC,0,39.9586422891,-88.4448908703,0,0.0,0.0,0.0,0.0,0.0,0.0,0.0,0.0,0.0,0.0,0.0,0.0,0.0,1500,1500,0.0,0.0,40.0470328333,-88.23067783329999,0.0,0.0,0.0,0.0,0.0,0.0,0.0,0.0,0.0,0.0,0.0,0,0.0,0.0,0.0,0.0,84.0,90.0,90.0,95.74761199950001,89.25408935549999,89.8907089233,36.2999992371,16.454662323,1.9099999666,0,2,25,1,58,2
1,1530213280500,81500, RC,0,39.9586422891,-88.4448908703,0,0.0,0.0,0.0,0.0,0.0,0.0,0.0,0.0,0.0,0.0,0.0,0.0,0.0,1500,1500,0.0,0.0,40.0470328333,-88.23067783329999,0.0,0.0,0.0,0.0,0.0,0.0,0.0,0.0,0.0,0.0,0.0,0,0.0,0.0,0.0,0.0,84.0,90.0,90.0,95.74761199950001,89.25408935549999,89.8907089233,36.2999992371,16.454662323,1.9099999666,0,2,25,1,79,4
2,1530213280550,81550, RC,0,39.9586422891,-88.4448908703,0,0.0,0.0,0.0,0.0,0.0,0.0,0.0,0.0,0.0,0.0,0.0,0.0,0.0,1500,1500,0.0,0.0,40.0470328333,-88.23067783329999,0.0,0.0,0.0,0.0,0.0,0.0,0.0,0.0,0.0,0.0,0.0,0,0.0,0.0,0.0,0.0,84.0,90.0,90.0,95.74761199950001,89.25408935549999,89.8907089233,36.2999992371,16.4547023773,2.1300001144,0,2,25,1,76,5
3,1530213280601,81601, RC,0,39.9586422891,-88.4448908703,0,0.0,0.0,0.0,0.0,0.0,0.0,0.0,0.0,0.0,0.0,0.0,0.0,0.0,1500,1500,0.0,0.0,40.0470328333,-88.23067783329999,0.0,0.0,0.0,0.0,0.0,0.0,0.0,0.0,0.0,0.0,0.0,0,0.0,0.0,0.0,0.0,84.0,90.0,90.0,95.74761199950001,89.25408935549999,89.8907089233,36.2999992371,16.4547023773,2.1300001144,0,2,25,1,82,7
4,1530213280651,81651, RC,0,39.9586422891,-88.4448908703,0,0.0,0.0,0.0,0.0,0.0,0.0,0.0,0.0,0.0,0.0,0.0,0.0,0.0,1500,1500,0.0,0.0,40.0470328333,-88.23067783329999,0.0,0.0,0.0,0.0,0.0,0.0,0.0,0.0,0.0,0.0,0.0,0,0.0,0.0,0.0,0.0,84.0,90.0,90.0,95.74761199950001,89.25408935549999,89.8907089233,36.2999992371,16.4547023773,2.1300001144,0,2,25,1,90,8
5,1530213280702,81702, RC,0,39.9586422891,-88.4448908703,0,0.0,0.0,0.0,0.0,0.0,0.0,0.0,0.0,0.0,0.0,0.0,0.0,0.0,1500,1500,0.0,0.0,40.0470328333,-88.23067783329999,0.0,0.0,0.0,0.0,0.0,0.0,0.0,0.0,0.0,0.0,0.0,0,0.0,0.0,0.0,0.0,84.0,90.0,90.0,95.74761199950001,89.25408935549999,89.8907089233,36.2999992371,16.4547023773,2.1300001144,0,2,25,1,108,9
6,1530213280752,81752, RC,0,39.9586422891,-88.4448908703,0,0.0,0.0,0.0,0.0,0.0,0.0,0.0,0.0,0.0,0.0,0.0,0.0,0.0,1500,1500,0.0,0.0,40.0470328333,-88.23067783329999,0.0,0.0,0.0,0.0,0.0,0.0,0.0,0.0,0.0,0.0,0.0,0,0.0,0.0,0.0,0.0,84.0,90.0,90.0,95.74761199950001,89.25408935549999,89.8907089233,36.2999992371,16.4547023773,2.1300001144,0,2,25,1,126,10
7,1530213280803,81803, RC,0,39.9586422891,-88.4448908703,0,0.0,0.0,0.0,0.0,0.0,0.0,0.0,0.0,0.0,0.0,0.0,0.0,0.0,1500,1500,0.0,0.0,40.0470328333,-88.23067783329999,0.0,0.0,0.0,0.0,0.0,0.0,0.0,0.0,0.0,0.0,0.0,0,0.0,0.0,0.0,0.0,84.0,90.0,90.0,95.74761199950001,89.25408935549999,89.8907089233,36.2999992371,16.4547023773,2.1300001144,0,2,25,1,133,11
8,1530213280853,81853, RC,0,39.9586422891,-88.4448908703,0,0.0,0.0,0.0,0.0,0.0,0.0,0.0,0.0,0.0,0.0,0.0,0.0,0.0,1500,1500,0.0,0.0,40.0470328333,-88.23067783329999,0.0,0.0,0.0,0.0,0.0,0.0,0.0,0.0,0.0,0.0,0.0,0,0.0,0.0,0.0,0.0,84.0,90.0,90.0,95.74761199950001,89.25408935549999,89.8907089233,36.2999992371,16.4547023773,2.1300001144,0,2,25,1,140,12
9,1530213280904,81904, RC,0,39.9586422891,-88.4448908703,0,0.0,0.0,0.0,0.0,0.0,0.0,0.0,0.0,0.0,0.0,0.0,0.0,0.0,1500,1500,0.0,0.0,40.0470328333,-88.23067783329999,0.0,0.0,0.0,0.0,0.0,0.0,0.0,0.0,0.0,0.0,0.0,0,0.0,0.0,0.0,0.0,84.0,90.0,90.0,95.74761199950001,89.25408935549999,89.8907089233,36.2999992371,16.4547023773,2.1300001144,0,2,25,1,124,13
10,1530213280954,81954, RC,0,39.9586422891,-88.4448908703,0,0.0,0.0,0.0,0.0,0.0,0.0,0.0,0.0,0.0,0.0,0.0,0.0,0.0,1500,1500,0.0,0.0,40.0470328333,-88.23067783329999,0.0,0.0,0.0,0.0,0.0,0.0,0.0,0.0,0.0,0.0,0.0,0,0.0,0.0,0.0,0.0,84.0,90.0,90.0,95.74761199950001,89.25408935549999,89.8907089233,36.2999992371,16.4547023773,2.1300001144,0,2,25,1,112,14
11,1530213281005,82005, RC,0,39.9586422891,-88.4448908703,0,0.0,0.0,0.0,0.0,0.0,0.0,0.0,0.0,0.0,0.0,0.0,0.0,0.0,1500,1500,0.0,0.0,40.0470328333,-88.23067783329999,0.0,0.0,0.0,0.0,0.0,0.0,0.0,0.0,0.0,0.0,0.0,0,0.0,0.0,0.0,0.0,84.0,90.0,90.0,95.74761199950001,89.25408935549999,89.8907089233,36.2999992371,16.4547023773,2.1300001144,0,2,25,1,113,15
12,1530213281056,82056, RC,0,39.9586422891,-88.4448908703,0,0.0,0.0,0.0,0.0,0.0,0.0,0.0,0.0,0.0,0.0,0.0,0.0,0.0,1500,1500,0.0,0.0,40.0470328333,-88.23067783329999,0.0,0.0,0.0,0.0,0.0,0.0,0.0,0.0,0.0,0.0,0.0,0,0.0,0.0,0.0,0.0,84.0,90.0,90.0,95.74761199950001,89.25408935549999,89.8907089233,36.2999992371,16.4547023773,2.1300001144,0,2,25,1,133,16
13,1530213281106,82106, RC,0,39.9586422891,-88.4448908703,0,0.0,0.0,0.0,0.0,0.0,0.0,0.0,0.0,0.0,0.0,0.0,0.0,0.0,1500,1500,0.0,0.0,40.0470328333,-88.23067783329999,0.0,0.0,0.0,0.0,0.0,0.0,0.0,0.0,0.0,0.0,0.0,0,0.0,0.0,0.0,0.0,84.0,90.0,90.0,95.74761199950001,89.25408935549999,89.8907089233,36.2999992371,16.4547023773,2.1300001144,0,2,25,1,135,17
14,1530213281157,82157, RC,0,39.9586422891,-88.4448908703,0,0.0,0.0,0.0,0.0,0.0,0.0,0.0,0.0,0.0,0.0,0.0,0.0,0.0,1500,1500,0.0,0.0,40.0470328333,-88.23067783329999,0.0,0.0,0.0,0.0,0.0,0.0,0.0,0.0,0.0,0.0,0.0,0,0.0,0.0,0.0,0.0,84.0,90.0,90.0,95.74761199950001,89.25408935549999,89.8907089233,36.2999992371,16.4547023773,2.1300001144,0,2,25,1,122,18
15,1530213281207,82207, RC,0,39.9586422891,-88.4448908703,0,0.0,0.0,0.0,0.0,0.0,0.0,0.0,0.0,0.0,0.0,0.0,0.0,0.0,1500,1500,0.0,0.0,40.0470328333,-88.23067783329999,0.0,0.0,0.0,0.0,0.0,0.0,0.0,0.0,0.0,0.0,0.0,0,0.0,0.0,0.0,0.0,84.0,90.0,90.0,95.74761199950001,89.25408935549999,89.8907089233,36.2999992371,16.4547023773,2.1300001144,0,2,25,1,128,20
16,1530213281258,82258, RC,0,39.9586422891,-88.4448908703,0,0.0,0.0,0.0,0.0,0.0,0.0,0.0,0.0,0.0,0.0,0.0,0.0,0.0,1500,1500,0.0,0.0,40.0470298333,-88.2306766667,0.0,0.0,0.0,0.0,0.0,0.0,0.0,0.0,0.0,0.0,0.0,0,0.0,0.0,0.0,0.0,84.0,90.0,90.0,95.74761199950001,89.25408935549999,89.8907089233,36.2999992371,16.4547023773,2.1300001144,0,2,25,1,113,21
17,1530213281308,82308, RC,0,39.9586422891,-88.4448908703,0,0.0,0.0,0.0,0.0,0.0,0.0,0.0,0.0,0.0,0.0,0.0,0.0,0.0,1500,1500,0.0,0.0,40.0470298333,-88.2306766667,0.0,0.0,0.0,0.0,0.0,0.0,0.0,0.0,0.0,0.0,0.0,0,0.0,0.0,0.0,0.0,84.0,90.0,90.0,95.74761199950001,89.25408935549999,89.8907089233,36.2999992371,16.4547023773,2.1300001144,0,2,25,1,109,22
18,1530213281359,82359, RC,0,39.9586422891,-88.4448908703,0,0.0,0.0,0.0,0.0,0.0,0.0,0.0,0.0,0.0,0.0,0.0,0.0,0.0,1500,1500,0.0,0.0,40.0470298333,-88.2306766667,0.0,0.0,0.0,0.0,0.0,0.0,0.0,0.0,0.0,0.0,0.0,0,0.0,0.0,0.0,0.0,84.0,90.0,90.0,95.74761199950001,89.25408935549999,89.8907089233,36.2999992371,16.4547023773,2.1300001144,0,2,25,1,102,23
19,1530213281410,82410, RC,0,39.9586422891,-88.4448908703,0,0.0,0.0,0.0,0.0,0.0,0.0,0.0,0.0,0.0,0.0,0.0,0.0,0.0,1500,1500,0.0,0.0,40.0470298333,-88.2306766667,0.0,0.0,0.0,0.0,0.0,0.0,0.0,0.0,0.0,0.0,0.0,0,0.0,0.0,0.0,0.0,84.0,90.0,90.0,95.74761199950001,89.25408935549999,89.8907089233,36.2999992371,16.4547023773,2.1300001144,0,2,25,1,104,25
20,1530213281460,82460, RC,0,39.9586422891,-88.4448908703,0,0.0,0.0,0.0,0.0,0.0,0.0,0.0,0.0,0.0,0.0,0.0,0.0,0.0,1500,1500,0.0,0.0,40.0470298333,-88.2306766667,0.0,0.0,0.0,0.0,0.0,0.0,0.0,0.0,0.0,0.0,0.0,0,0.0,0.0,0.0,0.0,84.0,90.0,90.0,95.74761199950001,89.25408935549999,89.8907089233,36.2999992371,16.4547023773,2.1300001144,0,2,25,1,115,26
21,1530213281511,82511, RC,0,39.9586422891,-88.4448908703,0,0.0,0.0,0.0,0.0,0.0,0.0,0.0,0.0,0.0,0.0,0.0,0.0,0.0,1500,1500,0.0,0.0,40.0470298333,-88.2306766667,0.0,0.0,0.0,0.0,0.0,0.0,0.0,0.0,0.0,0.0,0.0,0,0.0,0.0,0.0,0.0,84.0,90.0,90.0,95.74761199950001,89.25408935549999,89.8907089233,36.2999992371,16.4546470642,1.3099999428,0,2,25,1,115,27
22,1530213281561,82561, RC,0,39.9586422891,-88.4448908703,0,0.0,0.0,0.0,0.0,0.0,0.0,0.0,0.0,0.0,0.0,0.0,0.0,0.0,1500,1500,0.0,0.0,40.0470298333,-88.2306766667,0.0,0.0,0.0,0.0,0.0,0.0,0.0,0.0,0.0,0.0,0.0,0,0.0,0.0,0.0,0.0,84.0,90.0,90.0,95.74761199950001,89.25408935549999,89.8907089233,36.2999992371,16.4546470642,1.3099999428,0,2,25,1,123,28
23,1530213281612,82612, RC,0,39.9586422891,-88.4448908703,0,0.0,0.0,0.0,0.0,0.0,0.0,0.0,0.0,0.0,0.0,0.0,0.0,0.0,1500,1500,0.0,0.0,40.0470298333,-88.2306766667,0.0,0.0,0.0,0.0,0.0,0.0,0.0,0.0,0.0,0.0,0.0,0,0.0,0.0,0.0,0.0,84.0,90.0,90.0,95.74761199950001,89.25408935549999,89.8907089233,36.2999992371,16.4546470642,1.3099999428,0,2,25,1,107,29
24,1530213281662,82662, RC,0,39.9586422891,-88.4448908703,0,0.0,0.0,0.0,0.0,0.0,0.0,0.0,0.0,0.0,0.0,0.0,0.0,0.0,1500,1500,0.0,0.0,40.0470298333,-88.2306766667,0.0,0.0,0.0,0.0,0.0,0.0,0.0,0.0,0.0,0.0,0.0,0,0.0,0.0,0.0,0.0,84.0,90.0,90.0,95.74761199950001,89.25408935549999,89.8907089233,36.2999992371,16.4546470642,1.3099999428,0,2,25,1,89,30
25,1530213281713,82713, RC,0,39.9586422891,-88.4448908703,0,0.0,0.0,0.0,0.0,0.0,0.0,0.0,0.0,0.0,0.0,0.0,0.0,0.0,1500,1500,0.0,0.0,40.0470298333,-88.2306766667,0.0,0.0,0.0,0.0,0.0,0.0,0.0,0.0,0.0,0.0,0.0,0,0.0,0.0,0.0,0.0,84.0,90.0,90.0,95.74761199950001,89.25408935549999,89.8907089233,36.2999992371,16.4546470642,1.3099999428,0,2,25,1,92,31
26,1530213281764,82764, RC,0,39.9586422891,-88.4448908703,0,0.0,0.0,0.0,0.0,0.0,0.0,0.0,0.0,0.0,0.0,0.0,0.0,0.0,1500,1500,0.0,0.0,40.0470298333,-88.2306766667,0.0,0.0,0.0,0.0,0.0,0.0,0.0,0.0,0.0,0.0,0.0,0,0.0,0.0,0.0,0.0,84.0,90.0,79.0,95.74761199950001,89.25408935549999,89.8907089233,36.2999992371,16.4546470642,1.3099999428,0,2,25,1,97,32
27,1530213281814,82814, RC,0,39.9586422891,-88.4448908703,0,0.0,0.0,0.0,0.0,0.0,0.0,0.0,0.0,0.0,0.0,0.0,0.0,0.0,1500,1500,0.0,0.0,40.0470298333,-88.2306766667,0.0,0.0,0.0,0.0,0.0,0.0,0.0,0.0,0.0,0.0,0.0,0,0.0,0.0,0.0,0.0,84.0,90.0,79.0,95.74761199950001,89.25408935549999,92.62817382809999,36.2999992371,16.4546470642,1.3099999428,0,2,25,1,100,33
28,1530213281865,82865, RC,0,39.9586422891,-88.4448908703,0,0.0,0.0,0.0,0.0,0.0,0.0,0.0,0.0,0.0,0.0,0.0,0.0,0.0,1500,1500,0.0,0.0,40.0470298333,-88.2306766667,0.0,0.0,0.0,0.0,0.0,0.0,0.0,0.0,0.0,0.0,0.0,0,0.0,0.0,0.0,0.0,84.0,90.0,79.0,95.74761199950001,89.25408935549999,100.9042358398,36.2999992371,16.4546470642,1.3099999428,0,2,25,1,96,34
29,1530213281916,82916, RC,0,39.9586422891,-88.4448908703,0,0.0,0.0,0.0,0.0,0.0,0.0,0.0,0.0,0.0,0.0,0.0,0.0,0.0,1500,1500,0.0,0.0,40.0470298333,-88.2306766667,0.0,0.0,0.0,0.0,0.0,0.0,0.0,0.0,0.0,0.0,0.0,0,0.0,0.0,0.0,0.0,84.0,90.0,79.0,95.74761199950001,89.25408935549999,99.9493103027,36.2999992371,16.4546470642,1.3099999428,0,2,25,1,101,35
30,1530213281966,82966, RC,0,39.9586422891,-88.4448908703,0,0.0,0.0,0.0,0.0,0.0,0.0,0.0,0.0,0.0,0.0,0.0,0.0,0.0,1500,1500,0.0,0.0,40.0470298333,-88.2306766667,0.0,0.0,0.0,0.0,0.0,0.0,0.0,0.0,0.0,0.0,0.0,0,0.0,0.0,0.0,0.0,84.0,90.0,77.0,95.74761199950001,89.25408935549999,99.3763504028,36.2999992371,16.4546470642,1.3099999428,0,2,25,1,81,37
31,1530213282017,83017, RC,0,39.9586422891,-88.4448908703,0,0.0,0.0,0.0,0.0,0.0,0.0,0.0,0.0,0.0,0.0,0.0,0.0,0.0,1500,1500,0.0,0.0,40.0470298333,-88.2306766667,0.0,0.0,0.0,0.0,0.0,0.0,0.0,0.0,0.0,0.0,0.0,0,0.0,0.0,0.0,0.0,84.0,90.0,77.0,95.74761199950001,89.25408935549999,100.45860290530001,36.2999992371,16.4546470642,1.3099999428,0,2,25,1,81,37
32,1530213282068,83068, RC,0,39.9586422891,-88.4448908703,0,0.0,0.0,0.0,0.0,0.0,0.0,0.0,0.0,0.0,0.0,0.0,0.0,0.0,1500,1500,0.0,0.0,40.0470298333,-88.2306766667,0.0,0.0,0.0,0.0,0.0,0.0,0.0,0.0,0.0,0.0,0.0,0,0.0,0.0,0.0,0.0,84.0,90.0,75.0,95.74761199950001,89.25408935549999,102.8140945435,36.2999992371,16.4546470642,1.3099999428,0,2,25,1,75,39
33,1530213282118,83118, RC,0,39.9586422891,-88.4448908703,0,0.0,0.0,0.0,0.0,0.0,0.0,0.0,0.0,0.0,0.0,0.0,0.0,0.0,1500,1500,0.0,0.0,40.0470298333,-88.2306766667,0.0,0.0,0.0,0.0,0.0,0.0,0.0,0.0,0.0,0.0,0.0,0,0.0,0.0,0.0,0.0,84.0,90.0,75.0,95.74761199950001,89.25408935549999,103.5780334473,36.2999992371,16.4546470642,1.3099999428,0,2,25,1,75,39
34,1530213282169,83169, RC,0,39.9586422891,-88.4448908703,0,0.0,0.0,0.0,0.0,0.0,0.0,0.0,0.0,0.0,0.0,0.0,0.0,0.0,1500,1500,0.0,0.0,40.0470298333,-88.2306766667,0.0,0.0,0.0,0.0,0.0,0.0,0.0,0.0,0.0,0.0,0.0,0,0.0,0.0,0.0,0.0,84.0,90.0,73.0,95.74761199950001,89.25408935549999,103.9600067139,36.2999992371,16.4546470642,1.3099999428,0,2,25,1,78,40
35,1530213282220,83220, RC,0,39.9586422891,-88.4448908703,0,0.0,0.0,0.0,0.0,0.0,0.0,0.0,0.0,0.0,0.0,0.0,0.0,0.0,1500,1500,0.0,0.0,40.0470283333,-88.2306751667,0.0,0.0,0.0,0.0,0.0,0.0,0.0,0.0,0.0,0.0,0.0,0,0.0,0.0,0.0,0.0,84.0,90.0,73.0,95.74761199950001,89.25408935549999,104.5966262817,36.2999992371,16.4546470642,1.3099999428,0,2,25,1,87,41
36,1530213282270,83270, RC,0,39.9586422891,-88.4448908703,0,0.0,0.0,0.0,0.0,0.0,0.0,0.0,0.0,0.0,0.0,0.0,0.0,0.0,1500,1500,0.0,0.0,40.0470283333,-88.2306751667,0.0,0.0,0.0,0.0,0.0,0.0,0.0,0.0,0.0,0.0,0.0,0,0.0,0.0,0.0,0.0,84.0,90.0,73.0,95.74761199950001,89.25408935549999,106.9521255493,36.2999992371,16.4546470642,1.3099999428,0,2,25,1,57,43
37,1530213282321,83321, RC,0,39.9586422891,-88.4448908703,0,0.0,0.0,0.0,0.0,0.0,0.0,0.0,0.0,0.0,0.0,0.0,0.0,0.0,1500,1500,0.0,0.0,40.0470283333,-88.2306751667,0.0,0.0,0.0,0.0,0.0,0.0,0.0,0.0,0.0,0.0,0.0,0,0.0,0.0,0.0,0.0,84.0,90.0,73.0,95.74761199950001,89.25408935549999,106.82479858399999,36.2999992371,16.4546470642,1.3099999428,0,2,25,1,57,43
38,1530213282371,83371, RC,0,39.9586422891,-88.4448908703,0,0.0,0.0,0.0,0.0,0.0,0.0,0.0,0.0,0.0,0.0,0.0,0.0,0.0,1500,1500,0.0,0.0,40.0470283333,-88.2306751667,0.0,0.0,0.0,0.0,0.0,0.0,0.0,0.0,0.0,0.0,0.0,0,0.0,0.0,0.0,0.0,84.0,90.0,73.0,95.74761199950001,89.25408935549999,106.82479858399999,36.2999992371,16.4546470642,1.3099999428,0,2,25,1,69,45
39,1530213282422,83422, RC,0,39.9586422891,-88.4448908703,0,0.0,0.0,0.0,0.0,0.0,0.0,0.0,0.0,0.0,0.0,0.0,0.0,0.0,1500,1500,0.0,0.0,40.0470283333,-88.2306751667,0.0,0.0,0.0,0.0,0.0,0.0,0.0,0.0,0.0,0.0,0.0,0,0.0,0.0,0.0,0.0,84.0,90.0,73.0,95.74761199950001,89.25408935549999,106.82479858399999,36.2999992371,16.4546470642,1.3099999428,0,2,25,1,72,46
40,1530213282473,83473, RC,0,39.9586422891,-88.4448908703,0,0.0,0.0,0.0,0.0,0.0,0.0,0.0,0.0,0.0,0.0,0.0,0.0,0.0,1500,1500,0.0,0.0,40.0470283333,-88.2306751667,0.0,0.0,0.0,0.0,0.0,0.0,0.0,0.0,0.0,0.0,0.0,0,0.0,0.0,0.0,0.0,84.0,90.0,72.0,95.74761199950001,89.25408935549999,106.82479858399999,36.2999992371,16.4546470642,1.3099999428,0,2,25,1,61,47
41,1530213282523,83523, RC,0,39.9586422891,-88.4448908703,0,0.0,0.0,0.0,0.0,0.0,0.0,0.0,0.0,0.0,0.0,0.0,0.0,0.0,1500,1500,0.0,0.0,40.0470283333,-88.2306751667,0.0,0.0,0.0,0.0,0.0,0.0,0.0,0.0,0.0,0.0,0.0,0,0.0,0.0,0.0,0.0,84.0,90.0,72.0,95.74761199950001,89.25408935549999,106.82479858399999,36.2999992371,16.4546871185,1.9099999666,0,2,25,1,50,48
42,1530213282574,83574, RC,0,39.9586422891,-88.4448908703,0,0.0,0.0,0.0,0.0,0.0,0.0,0.0,0.0,0.0,0.0,0.0,0.0,0.0,1500,1500,0.0,0.0,40.0470283333,-88.2306751667,0.0,0.0,0.0,0.0,0.0,0.0,0.0,0.0,0.0,0.0,0.0,0,0.0,0.0,0.0,0.0,84.0,90.0,72.0,95.74761199950001,89.25408935549999,106.82479858399999,36.2999992371,16.4546871185,1.9099999666,0,2,25,1,43,49
43,1530213282624,83624, RC,0,39.9586422891,-88.4448908703,0,0.0,0.0,0.0,0.0,0.0,0.0,0.0,0.0,0.0,0.0,0.0,0.0,0.0,1500,1500,0.0,0.0,40.0470283333,-88.2306751667,0.0,0.0,0.0,0.0,0.0,0.0,0.0,0.0,0.0,0.0,0.0,0,0.0,0.0,0.0,0.0,84.0,90.0,72.0,95.74761199950001,89.25408935549999,106.888458252,36.2999992371,16.4546871185,1.9099999666,0,2,25,1,56,50
44,1530213282675,83675, RC,0,39.9586422891,-88.4448908703,0,0.0,0.0,0.0,0.0,0.0,0.0,0.0,0.0,0.0,0.0,0.0,0.0,0.0,1500,1500,0.0,0.0,40.0470283333,-88.2306751667,0.0,0.0,0.0,0.0,0.0,0.0,0.0,0.0,0.0,0.0,0.0,0,0.0,0.0,0.0,0.0,84.0,90.0,72.0,95.74761199950001,89.25408935549999,106.888458252,36.2999992371,16.4546871185,1.9099999666,0,2,25,1,57,51
45,1530213282726,83726, RC,0,39.9586422891,-88.4448908703,0,0.0,0.0,0.0,0.0,0.0,0.0,0.0,0.0,0.0,0.0,0.0,0.0,0.0,1500,1500,0.0,0.0,40.0470283333,-88.2306751667,0.0,0.0,0.0,0.0,0.0,0.0,0.0,0.0,0.0,0.0,0.0,0,0.0,0.0,0.0,0.0,84.0,90.0,72.0,95.74761199950001,89.25408935549999,106.888458252,36.2999992371,16.4546871185,1.9099999666,0,2,25,1,51,52
46,1530213282776,83776, RC,0,39.9586422891,-88.4448908703,0,0.0,0.0,0.0,0.0,0.0,0.0,0.0,0.0,0.0,0.0,0.0,0.0,0.0,1500,1500,0.0,0.0,40.0470283333,-88.2306751667,0.0,0.0,0.0,0.0,0.0,0.0,0.0,0.0,0.0,0.0,0.0,0,0.0,0.0,0.0,0.0,84.0,90.0,70.0,95.74761199950001,89.25408935549999,106.888458252,36.2999992371,16.4546871185,1.9099999666,0,2,25,1,48,53
47,1530213282827,83827, RC,0,39.9586422891,-88.4448908703,0,0.0,0.0,0.0,0.0,0.0,0.0,0.0,0.0,0.0,0.0,0.0,0.0,0.0,1500,1500,0.0,0.0,40.0470283333,-88.2306751667,0.0,0.0,0.0,0.0,0.0,0.0,0.0,0.0,0.0,0.0,0.0,0,0.0,0.0,0.0,0.0,84.0,90.0,70.0,95.74761199950001,89.25408935549999,108.28902435299999,36.2999992371,16.4546871185,1.9099999666,0,2,25,1,44,54
48,1530213282877,83877, RC,0,39.9586422891,-88.4448908703,0,0.0,0.0,0.0,0.0,0.0,0.0,0.0,0.0,0.0,0.0,0.0,0.0,0.0,1500,1500,0.0,0.0,40.0470283333,-88.2306751667,0.0,0.0,0.0,0.0,0.0,0.0,0.0,0.0,0.0,0.0,0.0,0,0.0,0.0,0.0,0.0,84.0,90.0,70.0,95.74761199950001,89.25408935549999,109.6259231567,36.2999992371,16.4546871185,1.9099999666,0,2,25,1,44,55
49,1530213282928,83928, RC,0,39.9586422891,-88.4448908703,0,0.0,0.0,0.0,0.0,0.0,0.0,0.0,0.0,0.0,0.0,0.0,0.0,0.0,1500,1500,0.0,0.0,40.0470283333,-88.2306751667,0.0,0.0,0.0,0.0,0.0,0.0,0.0,0.0,0.0,0.0,0.0,0,0.0,0.0,0.0,0.0,84.0,90.0,70.0,95.74761199950001,89.25408935549999,109.6259231567,36.2999992371,16.4546871185,1.9099999666,0,2,25,1,41,56
50,1530213282979,83979, RC,0,39.9586422891,-88.4448908703,0,0.0,0.0,0.0,0.0,0.0,0.0,0.0,0.0,0.0,0.0,0.0,0.0,0.0,1500,1500,0.0,0.0,40.0470283333,-88.2306751667,0.0,0.0,0.0,0.0,0.0,0.0,0.0,0.0,0.0,0.0,0.0,0,0.0,0.0,0.0,0.0,84.0,90.0,70.0,95.74761199950001,89.25408935549999,109.6259231567,36.2999992371,16.4546871185,1.9099999666,0,2,25,1,51,57
51,1530213283029,84029, RC,0,39.9586422891,-88.4448908703,0,0.0,0.0,0.0,0.0,0.0,0.0,0.0,0.0,0.0,0.0,0.0,0.0,0.0,1500,1500,0.0,0.0,40.0470283333,-88.2306751667,0.0,0.0,0.0,0.0,0.0,0.0,0.0,0.0,0.0,0.0,0.0,0,0.0,0.0,0.0,0.0,84.0,90.0,70.0,95.74761199950001,89.25408935549999,109.6259231567,36.2999992371,16.4546871185,1.9099999666,0,2,25,1,63,59
52,1530213283080,84080, RC,0,39.9586422891,-88.4448908703,0,0.0,0.0,0.0,0.0,0.0,0.0,0.0,0.0,0.0,0.0,0.0,0.0,0.0,1500,1500,0.0,0.0,40.0470283333,-88.2306751667,0.0,0.0,0.0,0.0,0.0,0.0,0.0,0.0,0.0,0.0,0.0,0,0.0,0.0,0.0,0.0,84.0,90.0,69.0,95.74761199950001,89.25408935549999,109.6259231567,36.2999992371,16.4546871185,1.9099999666,0,2,25,1,49,60
53,1530213283130,84130, RC,0,39.9586422891,-88.4448908703,0,0.0,0.0,0.0,0.0,0.0,0.0,0.0,0.0,0.0,0.0,0.0,0.0,0.0,1500,1500,0.0,0.0,40.0470283333,-88.2306751667,0.0,0.0,0.0,0.0,0.0,0.0,0.0,0.0,0.0,0.0,0.0,0,0.0,0.0,0.0,0.0,84.0,90.0,69.0,95.74761199950001,89.25408935549999,109.6259231567,36.2999992371,16.4546871185,1.9099999666,0,2,25,1,43,61
54,1530213283181,84181, RC,0,39.9586422891,-88.4448908703,0,0.0,0.0,0.0,0.0,0.0,0.0,0.0,0.0,0.0,0.0,0.0,0.0,0.0,1500,1500,0.0,0.0,40.0470283333,-88.2306751667,0.0,0.0,0.0,0.0,0.0,0.0,0.0,0.0,0.0,0.0,0.0,0,0.0,0.0,0.0,0.0,84.0,90.0,69.0,95.74761199950001,89.25408935549999,109.6259231567,36.2999992371,16.4546871185,1.9099999666,0,2,25,1,49,62
55,1530213283231,84231, RC,0,39.9586422891,-88.4448908703,0,0.0,0.0,0.0,0.0,0.0,0.0,0.0,0.0,0.0,0.0,0.0,0.0,0.0,1500,1500,0.0,0.0,40.047029,-88.230675,0.0,0.0,0.0,0.0,0.0,0.0,0.0,0.0,0.0,0.0,0.0,0,0.0,0.0,0.0,0.0,84.0,90.0,69.0,95.74761199950001,89.25408935549999,109.6259231567,36.2999992371,16.4546871185,1.9099999666,0,2,25,1,48,63
56,1530213283282,84282, RC,0,39.9586422891,-88.4448908703,0,0.0,0.0,0.0,0.0,0.0,0.0,0.0,0.0,0.0,0.0,0.0,0.0,0.0,1500,1500,0.0,0.0,40.047029,-88.230675,0.0,0.0,0.0,0.0,0.0,0.0,0.0,0.0,0.0,0.0,0.0,0,0.0,0.0,0.0,0.0,84.0,90.0,67.0,95.74761199950001,89.25408935549999,109.6259231567,36.2999992371,16.4546871185,1.9099999666,0,2,25,1,48,63
57,1530213283333,84333, RC,0,39.9586422891,-88.4448908703,0,0.0,0.0,0.0,0.0,0.0,0.0,0.0,0.0,0.0,0.0,0.0,0.0,0.0,1500,1500,0.0,0.0,40.047029,-88.230675,0.0,0.0,0.0,0.0,0.0,0.0,0.0,0.0,0.0,0.0,0.0,0,0.0,0.0,0.0,0.0,84.0,90.0,67.0,95.74761199950001,89.25408935549999,111.917755127,36.2999992371,16.4546871185,1.9099999666,0,2,25,1,63,64
58,1530213283383,84383, RC,0,39.9586422891,-88.4448908703,0,0.0,0.0,0.0,0.0,0.0,0.0,0.0,0.0,0.0,0.0,0.0,0.0,0.0,1500,1500,0.0,0.0,40.047029,-88.230675,0.0,0.0,0.0,0.0,0.0,0.0,0.0,0.0,0.0,0.0,0.0,0,0.0,0.0,0.0,0.0,84.0,90.0,67.0,95.74761199950001,89.25408935549999,112.8090209961,36.2999992371,16.4546871185,1.9099999666,0,2,25,1,63,65
59,1530213283434,84434, RC,0,39.9586422891,-88.4448908703,0,0.0,0.0,0.0,0.0,0.0,0.0,0.0,0.0,0.0,0.0,0.0,0.0,0.0,1500,1500,0.0,0.0,40.047029,-88.230675,0.0,0.0,0.0,0.0,0.0,0.0,0.0,0.0,0.0,0.0,0.0,0,0.0,0.0,0.0,0.0,84.0,90.0,67.0,95.74761199950001,89.25408935549999,112.1087417603,36.2999992371,16.4546871185,1.9099999666,0,2,25,1,55,66
60,1530213283484,84484, RC,0,39.9586422891,-88.4448908703,0,0.0,0.0,0.0,0.0,0.0,0.0,0.0,0.0,0.0,0.0,0.0,0.0,0.0,1500,1500,0.0,0.0,40.047029,-88.230675,0.0,0.0,0.0,0.0,0.0,0.0,0.0,0.0,0.0,0.0,0.0,0,0.0,0.0,0.0,0.0,84.0,90.0,67.0,95.74761199950001,89.25408935549999,112.17240142819999,36.2999992371,16.4546871185,1.9099999666,0,2,25,1,58,67
61,1530213283535,84535, RC,0,39.9586422891,-88.4448908703,0,0.0,0.0,0.0,0.0,0.0,0.0,0.0,0.0,0.0,0.0,0.0,0.0,0.0,1500,1500,0.0,0.0,40.047029,-88.230675,0.0,0.0,0.0,0.0,0.0,0.0,0.0,0.0,0.0,0.0,0.0,0,0.0,0.0,0.0,0.0,84.0,90.0,67.0,95.74761199950001,89.25408935549999,112.17240142819999,36.2999992371,16.454498291,1.8600000143000002,0,2,25,1,56,68
62,1530213283586,84586, RC,0,39.9586422891,-88.4448908703,0,0.0,0.0,0.0,0.0,0.0,0.0,0.0,0.0,0.0,0.0,0.0,0.0,0.0,1500,1500,0.0,0.0,40.047029,-88.230675,0.0,0.0,0.0,0.0,0.0,0.0,0.0,0.0,0.0,0.0,0.0,0,0.0,0.0,0.0,0.0,84.0,90.0,67.0,95.74761199950001,89.25408935549999,112.17240142819999,36.2999992371,16.454498291,1.8600000143000002,0,2,25,1,59,69
63,1530213283636,84636, RC,0,39.9586422891,-88.4448908703,0,0.0,0.0,0.0,0.0,0.0,0.0,0.0,0.0,0.0,0.0,0.0,0.0,0.0,1500,1500,0.0,0.0,40.047029,-88.230675,0.0,0.0,0.0,0.0,0.0,0.0,0.0,0.0,0.0,0.0,0.0,0,0.0,0.0,0.0,0.0,84.0,90.0,67.0,95.74761199950001,89.25408935549999,112.17240142819999,36.2999992371,16.454498291,1.8600000143000002,0,2,25,1,61,70
64,1530213283687,84687, RC,0,39.9586422891,-88.4448908703,0,0.0,0.0,0.0,0.0,0.0,0.0,0.0,0.0,0.0,0.0,0.0,0.0,0.0,1500,1500,0.0,0.0,40.047029,-88.230675,0.0,0.0,0.0,0.0,0.0,0.0,0.0,0.0,0.0,0.0,0.0,0,0.0,0.0,0.0,0.0,84.0,90.0,64.0,95.74761199950001,89.25408935549999,112.17240142819999,36.2999992371,16.454498291,1.8600000143000002,0,2,25,1,61,70
65,1530213283737,84737, RC,0,39.9586422891,-88.4448908703,0,0.0,0.0,0.0,0.0,0.0,0.0,0.0,0.0,0.0,0.0,0.0,0.0,0.0,1500,1500,0.0,0.0,40.047029,-88.230675,0.0,0.0,0.0,0.0,0.0,0.0,0.0,0.0,0.0,0.0,0.0,0,0.0,0.0,0.0,0.0,84.0,90.0,64.0,95.74761199950001,89.25408935549999,112.74536132809999,36.2999992371,16.454498291,1.8600000143000002,0,2,25,1,55,71
66,1530213283788,84788, RC,0,39.9586422891,-88.4448908703,0,0.0,0.0,0.0,0.0,0.0,0.0,0.0,0.0,0.0,0.0,0.0,0.0,0.0,1500,1500,0.0,0.0,40.047029,-88.230675,0.0,0.0,0.0,0.0,0.0,0.0,0.0,0.0,0.0,0.0,0.0,0,0.0,0.0,0.0,0.0,84.0,90.0,64.0,95.74761199950001,89.25408935549999,115.67381286620001,36.2999992371,16.454498291,1.8600000143000002,0,2,25,1,48,72
67,1530213283839,84839, RC,0,39.9586422891,-88.4448908703,0,0.0,0.0,0.0,0.0,0.0,0.0,0.0,0.0,0.0,0.0,0.0,0.0,0.0,1500,1500,0.0,0.0,40.047029,-88.230675,0.0,0.0,0.0,0.0,0.0,0.0,0.0,0.0,0.0,0.0,0.0,0,0.0,0.0,0.0,0.0,84.0,90.0,64.0,95.74761199950001,89.25408935549999,115.86479949950001,36.2999992371,16.454498291,1.8600000143000002,0,2,25,1,49,74
68,1530213283889,84889, RC,0,39.9586422891,-88.4448908703,0,0.0,0.0,0.0,0.0,0.0,0.0,0.0,0.0,0.0,0.0,0.0,0.0,0.0,1500,1500,0.0,0.0,40.047029,-88.230675,0.0,0.0,0.0,0.0,0.0,0.0,0.0,0.0,0.0,0.0,0.0,0,0.0,0.0,0.0,0.0,84.0,90.0,63.0,95.74761199950001,89.25408935549999,114.8461990356,36.2999992371,16.454498291,1.8600000143000002,0,2,25,1,38,75
69,1530213283940,84940, RC,0,39.9586422891,-88.4448908703,0,0.0,0.0,0.0,0.0,0.0,0.0,0.0,0.0,0.0,0.0,0.0,0.0,0.0,1500,1500,0.0,0.0,40.047029,-88.230675,0.0,0.0,0.0,0.0,0.0,0.0,0.0,0.0,0.0,0.0,0.0,0,0.0,0.0,0.0,0.0,84.0,90.0,63.0,95.74761199950001,89.25408935549999,115.7374725342,36.2999992371,16.454498291,1.8600000143000002,0,2,25,1,45,76
70,1530213283990,84990, RC,0,39.9586422891,-88.4448908703,0,0.0,0.0,0.0,0.0,0.0,0.0,0.0,0.0,0.0,0.0,0.0,0.0,0.0,1500,1500,0.0,0.0,40.047029,-88.230675,0.0,0.0,0.0,0.0,0.0,0.0,0.0,0.0,0.0,0.0,0.0,0,0.0,0.0,0.0,0.0,84.0,90.0,63.0,95.74761199950001,89.25408935549999,115.9921188354,36.2999992371,16.454498291,1.8600000143000002,0,2,25,1,48,77
71,1530213284041,85041, RC,0,39.9586422891,-88.4448908703,0,0.0,0.0,0.0,0.0,0.0,0.0,0.0,0.0,0.0,0.0,0.0,0.0,0.0,1500,1500,0.0,0.0,40.047029,-88.230675,0.0,0.0,0.0,0.0,0.0,0.0,0.0,0.0,0.0,0.0,0.0,0,0.0,0.0,0.0,0.0,84.0,90.0,63.0,95.74761199950001,89.25408935549999,116.565071106,36.2999992371,16.454498291,1.8600000143000002,0,2,25,1,38,78
72,1530213284092,85092, RC,0,39.9586422891,-88.4448908703,0,0.0,0.0,0.0,0.0,0.0,0.0,0.0,0.0,0.0,0.0,0.0,0.0,0.0,1500,1500,0.0,0.0,40.047029,-88.230675,0.0,0.0,0.0,0.0,0.0,0.0,0.0,0.0,0.0,0.0,0.0,0,0.0,0.0,0.0,0.0,84.0,90.0,63.0,95.74761199950001,89.25408935549999,116.5014190674,36.2999992371,16.454498291,1.8600000143000002,0,2,25,1,44,79
73,1530213284142,85142, RC,0,39.9586422891,-88.4448908703,0,0.0,0.0,0.0,0.0,0.0,0.0,0.0,0.0,0.0,0.0,0.0,0.0,0.0,1500,1500,0.0,0.0,40.047029,-88.230675,0.0,0.0,0.0,0.0,0.0,0.0,0.0,0.0,0.0,0.0,0.0,0,0.0,0.0,0.0,0.0,84.0,90.0,63.0,95.74761199950001,89.25408935549999,116.5014190674,36.2999992371,16.454498291,1.8600000143000002,0,2,25,1,50,80
74,1530213284193,85193, RC,0,39.9586422891,-88.4448908703,0,0.0,0.0,0.0,0.0,0.0,0.0,0.0,0.0,0.0,0.0,0.0,0.0,0.0,1500,1500,0.0,0.0,40.047029,-88.230675,0.0,0.0,0.0,0.0,0.0,0.0,0.0,0.0,0.0,0.0,0.0,0,0.0,0.0,0.0,0.0,84.0,90.0,63.0,95.74761199950001,89.25408935549999,116.5014190674,36.2999992371,16.454498291,1.8600000143000002,0,2,25,1,49,82
75,1530213284243,85243, RC,0,39.9586422891,-88.4448908703,0,0.0,0.0,0.0,0.0,0.0,0.0,0.0,0.0,0.0,0.0,0.0,0.0,0.0,1500,1500,0.0,0.0,40.0470296667,-88.2306765,0.0,0.0,0.0,0.0,0.0,0.0,0.0,0.0,0.0,0.0,0.0,0,0.0,0.0,0.0,0.0,84.0,90.0,63.0,95.74761199950001,89.25408935549999,116.5014190674,36.2999992371,16.454498291,1.8600000143000002,0,2,25,1,48,83
76,1530213284294,85294, RC,0,39.9586422891,-88.4448908703,0,0.0,0.0,0.0,0.0,0.0,0.0,0.0,0.0,0.0,0.0,0.0,0.0,0.0,1500,1500,0.0,0.0,40.0470296667,-88.2306765,0.0,0.0,0.0,0.0,0.0,0.0,0.0,0.0,0.0,0.0,0.0,0,0.0,0.0,0.0,0.0,84.0,90.0,63.0,95.74761199950001,89.25408935549999,116.5014190674,36.2999992371,16.454498291,1.8600000143000002,0,2,25,1,43,85
77,1530213284344,85344, RC,0,39.9586422891,-88.4448908703,0,0.0,0.0,0.0,0.0,0.0,0.0,0.0,0.0,0.0,0.0,0.0,0.0,0.0,1500,1500,0.0,0.0,40.0470296667,-88.2306765,0.0,0.0,0.0,0.0,0.0,0.0,0.0,0.0,0.0,0.0,0.0,0,0.0,0.0,0.0,0.0,84.0,90.0,63.0,95.74761199950001,89.25408935549999,116.5014190674,36.2999992371,16.454498291,1.8600000143000002,0,2,25,1,43,86
78,1530213284395,85395, RC,0,39.9586422891,-88.4448908703,0,0.0,0.0,0.0,0.0,0.0,0.0,0.0,0.0,0.0,0.0,0.0,0.0,0.0,1500,1500,0.0,0.0,40.0470296667,-88.2306765,0.0,0.0,0.0,0.0,0.0,0.0,0.0,0.0,0.0,0.0,0.0,0,0.0,0.0,0.0,0.0,84.0,90.0,63.0,95.74761199950001,89.25408935549999,116.5014190674,36.2999992371,16.454498291,1.8600000143000002,0,2,25,1,42,88
79,1530213284445,85445, RC,0,39.9586422891,-88.4448908703,0,0.0,0.0,0.0,0.0,0.0,0.0,0.0,0.0,0.0,0.0,0.0,0.0,0.0,1500,1500,0.0,0.0,40.0470296667,-88.2306765,0.0,0.0,0.0,0.0,0.0,0.0,0.0,0.0,0.0,0.0,0.0,0,0.0,0.0,0.0,0.0,84.0,90.0,63.0,95.74761199950001,89.25408935549999,116.5014190674,36.2999992371,16.454498291,1.8600000143000002,0,2,25,1,42,88
80,1530213284496,85496, RC,0,39.9586422891,-88.4448908703,0,0.0,0.0,0.0,0.0,0.0,0.0,0.0,0.0,0.0,0.0,0.0,0.0,0.0,1500,1500,0.0,0.0,40.0470296667,-88.2306765,0.0,0.0,0.0,0.0,0.0,0.0,0.0,0.0,0.0,0.0,0.0,0,0.0,0.0,0.0,0.0,84.0,90.0,61.0,95.74761199950001,89.25408935549999,116.565071106,36.2999992371,16.454498291,1.8600000143000002,0,2,25,1,45,90
81,1530213284547,85547, RC,0,39.9586422891,-88.4448908703,0,0.0,0.0,0.0,0.0,0.0,0.0,0.0,0.0,0.0,0.0,0.0,0.0,0.0,1500,1500,0.0,0.0,40.0470296667,-88.2306765,0.0,0.0,0.0,0.0,0.0,0.0,0.0,0.0,0.0,0.0,0.0,0,0.0,0.0,0.0,0.0,84.0,90.0,61.0,95.74761199950001,89.25408935549999,117.4563446045,36.2999992371,16.454441070599998,1.75,0,2,25,1,44,92
82,1530213284597,85597, RC,0,39.9586422891,-88.4448908703,0,0.0,0.0,0.0,0.0,0.0,0.0,0.0,0.0,0.0,0.0,0.0,0.0,0.0,1500,1500,0.0,0.0,40.0470296667,-88.2306765,0.0,0.0,0.0,0.0,0.0,0.0,0.0,0.0,0.0,0.0,0.0,0,0.0,0.0,0.0,0.0,84.0,90.0,61.0,95.74761199950001,89.25408935549999,118.34761810299999,36.2999992371,16.454441070599998,1.75,0,2,25,1,38,93
83,1530213284648,85648, RC,0,39.9586422891,-88.4448908703,0,0.0,0.0,0.0,0.0,0.0,0.0,0.0,0.0,0.0,0.0,0.0,0.0,0.0,1500,1500,0.0,0.0,40.0470296667,-88.2306765,0.0,0.0,0.0,0.0,0.0,0.0,0.0,0.0,0.0,0.0,0.0,0,0.0,0.0,0.0,0.0,84.0,90.0,61.0,95.74761199950001,89.25408935549999,118.34761810299999,36.2999992371,16.454441070599998,1.75,0,2,25,1,37,95
84,1530213284698,85698, RC,0,39.9586422891,-88.4448908703,0,0.0,0.0,0.0,0.0,0.0,0.0,0.0,0.0,0.0,0.0,0.0,0.0,0.0,1500,1500,0.0,0.0,40.0470296667,-88.2306765,0.0,0.0,0.0,0.0,0.0,0.0,0.0,0.0,0.0,0.0,0.0,0,0.0,0.0,0.0,0.0,84.0,90.0,61.0,95.74761199950001,89.25408935549999,118.34761810299999,36.2999992371,16.454441070599998,1.75,0,2,25,1,37,96
85,1530213284749,85749, RC,0,39.9586422891,-88.4448908703,0,0.0,0.0,0.0,0.0,0.0,0.0,0.0,0.0,0.0,0.0,0.0,0.0,0.0,1500,1500,0.0,0.0,40.0470296667,-88.2306765,0.0,0.0,0.0,0.0,0.0,0.0,0.0,0.0,0.0,0.0,0.0,0,0.0,0.0,0.0,0.0,84.0,90.0,61.0,95.74761199950001,89.25408935549999,118.34761810299999,36.2999992371,16.454441070599998,1.75,0,2,25,1,39,97
86,1530213284799,85799, RC,0,39.9586422891,-88.4448908703,0,0.0,0.0,0.0,0.0,0.0,0.0,0.0,0.0,0.0,0.0,0.0,0.0,0.0,1500,1500,0.0,0.0,40.0470296667,-88.2306765,0.0,0.0,0.0,0.0,0.0,0.0,0.0,0.0,0.0,0.0,0.0,0,0.0,0.0,0.0,0.0,84.0,90.0,61.0,95.74761199950001,89.25408935549999,118.34761810299999,36.2999992371,16.454441070599998,1.75,0,2,25,1,39,98
87,1530213284850,85850, RC,0,39.9586422891,-88.4448908703,0,0.0,0.0,0.0,0.0,0.0,0.0,0.0,0.0,0.0,0.0,0.0,0.0,0.0,1500,1500,0.0,0.0,40.0470296667,-88.2306765,0.0,0.0,0.0,0.0,0.0,0.0,0.0,0.0,0.0,0.0,0.0,0,0.0,0.0,0.0,0.0,84.0,90.0,61.0,95.74761199950001,89.25408935549999,118.34761810299999,36.2999992371,16.454441070599998,1.75,0,2,25,1,47,99
88,1530213284901,85901, RC,0,39.9586422891,-88.4448908703,0,0.0,0.0,0.0,0.0,0.0,0.0,0.0,0.0,0.0,0.0,0.0,0.0,0.0,1500,1500,0.0,0.0,40.0470296667,-88.2306765,0.0,0.0,0.0,0.0,0.0,0.0,0.0,0.0,0.0,0.0,0.0,0,0.0,0.0,0.0,0.0,84.0,90.0,60.0,95.74761199950001,89.25408935549999,118.34761810299999,36.2999992371,16.454441070599998,1.75,0,2,25,1,44,100
89,1530213284951,85951, RC,0,39.9586422891,-88.4448908703,0,0.0,0.0,0.0,0.0,0.0,0.0,0.0,0.0,0.0,0.0,0.0,0.0,0.0,1500,1500,0.0,0.0,40.0470296667,-88.2306765,0.0,0.0,0.0,0.0,0.0,0.0,0.0,0.0,0.0,0.0,0.0,0,0.0,0.0,0.0,0.0,84.0,90.0,60.0,95.74761199950001,89.25408935549999,119.3025436401,36.2999992371,16.454441070599998,1.75,0,2,25,1,36,102
90,1530213285002,86002, RC,0,39.9586422891,-88.4448908703,0,0.0,0.0,0.0,0.0,0.0,0.0,0.0,0.0,0.0,0.0,0.0,0.0,0.0,1500,1500,0.0,0.0,40.0470296667,-88.2306765,0.0,0.0,0.0,0.0,0.0,0.0,0.0,0.0,0.0,0.0,0.0,0,0.0,0.0,0.0,0.0,84.0,90.0,60.0,95.74761199950001,89.25408935549999,119.81184387209998,36.2999992371,16.454441070599998,1.75,0,2,25,1,40,103
91,1530213285052,86052, RC,0,39.9586422891,-88.4448908703,0,0.0,0.0,0.0,0.0,0.0,0.0,0.0,0.0,0.0,0.0,0.0,0.0,0.0,1500,1500,0.0,0.0,40.0470296667,-88.2306765,0.0,0.0,0.0,0.0,0.0,0.0,0.0,0.0,0.0,0.0,0.0,0,0.0,0.0,0.0,0.0,84.0,90.0,60.0,95.74761199950001,89.25408935549999,119.81184387209998,36.2999992371,16.454441070599998,1.75,0,2,25,1,39,104
92,1530213285103,86103, RC,0,39.9586422891,-88.4448908703,0,0.0,0.0,0.0,0.0,0.0,0.0,0.0,0.0,0.0,0.0,0.0,0.0,0.0,1500,1500,0.0,0.0,40.0470296667,-88.2306765,0.0,0.0,0.0,0.0,0.0,0.0,0.0,0.0,0.0,0.0,0.0,0,0.0,0.0,0.0,0.0,84.0,90.0,60.0,95.74761199950001,89.25408935549999,119.81184387209998,36.2999992371,16.454441070599998,1.75,0,2,25,1,30,105
93,1530213285153,86153, RC,0,39.9586422891,-88.4448908703,0,0.0,0.0,0.0,0.0,0.0,0.0,0.0,0.0,0.0,0.0,0.0,0.0,0.0,1500,1500,0.0,0.0,40.0470296667,-88.2306765,0.0,0.0,0.0,0.0,0.0,0.0,0.0,0.0,0.0,0.0,0.0,0,0.0,0.0,0.0,0.0,84.0,90.0,60.0,95.74761199950001,89.25408935549999,119.81184387209998,36.2999992371,16.454441070599998,1.75,0,2,25,1,27,106
94,1530213285204,86204, RC,0,39.9586422891,-88.4448908703,0,0.0,0.0,0.0,0.0,0.0,0.0,0.0,0.0,0.0,0.0,0.0,0.0,0.0,1500,1500,0.0,0.0,40.047021,-88.2306696667,0.0,0.0,0.0,0.0,0.0,0.0,0.0,0.0,0.0,0.0,0.0,0,0.0,0.0,0.0,0.0,84.0,90.0,60.0,95.74761199950001,89.25408935549999,119.81184387209998,36.2999992371,16.454441070599998,1.75,0,2,25,1,32,107
95,1530213285255,86255, RC,0,39.9586422891,-88.4448908703,0,0.0,0.0,0.0,0.0,0.0,0.0,0.0,0.0,0.0,0.0,0.0,0.0,0.0,1500,1500,0.0,0.0,40.047021,-88.2306696667,0.0,0.0,0.0,0.0,0.0,0.0,0.0,0.0,0.0,0.0,0.0,0,0.0,0.0,0.0,0.0,84.0,90.0,60.0,95.74761199950001,89.25408935549999,119.81184387209998,36.2999992371,16.454441070599998,1.75,0,2,25,1,34,108
96,1530213285305,86305, RC,0,39.9586422891,-88.4448908703,0,0.0,0.0,0.0,0.0,0.0,0.0,0.0,0.0,0.0,0.0,0.0,0.0,0.0,1500,1500,0.0,0.0,40.047021,-88.2306696667,0.0,0.0,0.0,0.0,0.0,0.0,0.0,0.0,0.0,0.0,0.0,0,0.0,0.0,0.0,0.0,84.0,90.0,60.0,95.74761199950001,89.25408935549999,119.81184387209998,36.2999992371,16.454441070599998,1.75,0,2,25,1,36,109
97,1530213285356,86356, RC,0,39.9586422891,-88.4448908703,0,0.0,0.0,0.0,0.0,0.0,0.0,0.0,0.0,0.0,0.0,0.0,0.0,0.0,1500,1500,0.0,0.0,40.047021,-88.2306696667,0.0,0.0,0.0,0.0,0.0,0.0,0.0,0.0,0.0,0.0,0.0,0,0.0,0.0,0.0,0.0,84.0,90.0,60.0,95.74761199950001,89.25408935549999,119.81184387209998,36.2999992371,16.454441070599998,1.75,0,2,25,1,34,110
98,1530213285406,86406, RC,0,39.9586422891,-88.4448908703,0,0.0,0.0,0.0,0.0,0.0,0.0,0.0,0.0,0.0,0.0,0.0,0.0,0.0,1500,1500,0.0,0.0,40.047021,-88.2306696667,0.0,0.0,0.0,0.0,0.0,0.0,0.0,0.0,0.0,0.0,0.0,0,0.0,0.0,0.0,0.0,84.0,90.0,60.0,95.74761199950001,89.25408935549999,119.81184387209998,36.2999992371,16.454441070599998,1.75,0,2,25,1,34,111
99,1530213285457,86457, RC,0,39.9586422891,-88.4448908703,0,0.0,0.0,0.0,0.0,0.0,0.0,0.0,0.0,0.0,0.0,0.0,0.0,0.0,1500,1500,0.0,0.0,40.047021,-88.2306696667,0.0,0.0,0.0,0.0,0.0,0.0,0.0,0.0,0.0,0.0,0.0,0,0.0,0.0,0.0,0.0,84.0,90.0,60.0,95.74761199950001,89.25408935549999,119.81184387209998,36.2999992371,16.454441070599998,1.75,0,2,25,1,40,112
100,1530213285508,86508, RC,0,39.9586422891,-88.4448908703,0,0.0,0.0,0.0,0.0,0.0,0.0,0.0,0.0,0.0,0.0,0.0,0.0,0.0,1500,1500,0.0,0.0,40.047021,-88.2306696667,0.0,0.0,0.0,0.0,0.0,0.0,0.0,0.0,0.0,0.0,0.0,0,0.0,0.0,0.0,0.0,84.0,90.0,60.0,95.74761199950001,89.25408935549999,119.81184387209998,36.2999992371,16.4546203613,2.5199999809,0,2,25,1,36,113
101,1530213285558,86558, RC,0,39.9586422891,-88.4448908703,0,0.0,0.0,0.0,0.0,0.0,0.0,0.0,0.0,0.0,0.0,0.0,0.0,0.0,1500,1500,0.0,0.0,40.047021,-88.2306696667,0.0,0.0,0.0,0.0,0.0,0.0,0.0,0.0,0.0,0.0,0.0,0,0.0,0.0,0.0,0.0,84.0,90.0,60.0,95.74761199950001,89.25408935549999,119.81184387209998,36.2999992371,16.4546203613,2.5199999809,0,2,25,1,39,114
102,1530213285609,86609, RC,0,39.9586422891,-88.4448908703,0,0.0,0.0,0.0,0.0,0.0,0.0,0.0,0.0,0.0,0.0,0.0,0.0,0.0,1500,1500,0.0,0.0,40.047021,-88.2306696667,0.0,0.0,0.0,0.0,0.0,0.0,0.0,0.0,0.0,0.0,0.0,0,0.0,0.0,0.0,0.0,84.0,90.0,60.0,95.74761199950001,89.25408935549999,119.81184387209998,36.2999992371,16.4546203613,2.5199999809,0,2,25,1,37,115
103,1530213285659,86659, RC,0,39.9586422891,-88.4448908703,0,0.0,0.0,0.0,0.0,0.0,0.0,0.0,0.0,0.0,0.0,0.0,0.0,0.0,1500,1500,0.0,0.0,40.047021,-88.2306696667,0.0,0.0,0.0,0.0,0.0,0.0,0.0,0.0,0.0,0.0,0.0,0,0.0,0.0,0.0,0.0,84.0,90.0,60.0,95.74761199950001,89.25408935549999,119.81184387209998,36.2999992371,16.4546203613,2.5199999809,0,2,25,1,35,116
104,1530213285710,86710, RC,0,39.9586422891,-88.4448908703,0,0.0,0.0,0.0,0.0,0.0,0.0,0.0,0.0,0.0,0.0,0.0,0.0,0.0,1500,1500,0.0,0.0,40.047021,-88.2306696667,0.0,0.0,0.0,0.0,0.0,0.0,0.0,0.0,0.0,0.0,0.0,0,0.0,0.0,0.0,0.0,84.0,90.0,60.0,95.74761199950001,89.25408935549999,119.81184387209998,36.2999992371,16.4546203613,2.5199999809,0,2,25,1,37,117
105,1530213285761,86761, RC,0,39.9586422891,-88.4448908703,0,0.0,0.0,0.0,0.0,0.0,0.0,0.0,0.0,0.0,0.0,0.0,0.0,0.0,1500,1500,0.0,0.0,40.047021,-88.2306696667,0.0,0.0,0.0,0.0,0.0,0.0,0.0,0.0,0.0,0.0,0.0,0,0.0,0.0,0.0,0.0,84.0,90.0,60.0,95.74761199950001,89.25408935549999,119.81184387209998,36.2999992371,16.4546203613,2.5199999809,0,2,25,1,34,118
106,1530213285811,86811, RC,0,39.9586422891,-88.4448908703,0,0.0,0.0,0.0,0.0,0.0,0.0,0.0,0.0,0.0,0.0,0.0,0.0,0.0,1500,1500,0.0,0.0,40.047021,-88.2306696667,0.0,0.0,0.0,0.0,0.0,0.0,0.0,0.0,0.0,0.0,0.0,0,0.0,0.0,0.0,0.0,84.0,90.0,60.0,95.74761199950001,89.25408935549999,119.81184387209998,36.2999992371,16.4546203613,2.5199999809,0,2,25,1,36,120
107,1530213285862,86862, RC,0,39.9586422891,-88.4448908703,0,0.0,0.0,0.0,0.0,0.0,0.0,0.0,0.0,0.0,0.0,0.0,0.0,0.0,1500,1500,0.0,0.0,40.047021,-88.2306696667,0.0,0.0,0.0,0.0,0.0,0.0,0.0,0.0,0.0,0.0,0.0,0,0.0,0.0,0.0,0.0,84.0,90.0,60.0,95.74761199950001,89.25408935549999,119.81184387209998,36.2999992371,16.4546203613,2.5199999809,0,2,25,1,29,121
108,1530213285912,86912, RC,0,39.9586422891,-88.4448908703,0,0.0,0.0,0.0,0.0,0.0,0.0,0.0,0.0,0.0,0.0,0.0,0.0,0.0,1500,1500,0.0,0.0,40.047021,-88.2306696667,0.0,0.0,0.0,0.0,0.0,0.0,0.0,0.0,0.0,0.0,0.0,0,0.0,0.0,0.0,0.0,84.0,90.0,60.0,95.74761199950001,89.25408935549999,119.81184387209998,36.2999992371,16.4546203613,2.5199999809,0,2,25,1,37,122
109,1530213285963,86963, RC,0,39.9586422891,-88.4448908703,0,0.0,0.0,0.0,0.0,0.0,0.0,0.0,0.0,0.0,0.0,0.0,0.0,0.0,1500,1500,0.0,0.0,40.047021,-88.2306696667,0.0,0.0,0.0,0.0,0.0,0.0,0.0,0.0,0.0,0.0,0.0,0,0.0,0.0,0.0,0.0,84.0,90.0,60.0,95.74761199950001,89.25408935549999,119.81184387209998,36.2999992371,16.4546203613,2.5199999809,0,2,25,1,35,123
110,1530213286014,87014, RC,0,39.9586422891,-88.4448908703,0,0.0,0.0,0.0,0.0,0.0,0.0,0.0,0.0,0.0,0.0,0.0,0.0,0.0,1500,1500,0.0,0.0,40.047021,-88.2306696667,0.0,0.0,0.0,0.0,0.0,0.0,0.0,0.0,0.0,0.0,0.0,0,0.0,0.0,0.0,0.0,84.0,90.0,60.0,95.74761199950001,89.25408935549999,119.81184387209998,36.2999992371,16.4546203613,2.5199999809,0,2,25,1,40,125
111,1530213286064,87064, RC,0,39.9586422891,-88.4448908703,0,0.0,0.0,0.0,0.0,0.0,0.0,0.0,0.0,0.0,0.0,0.0,0.0,0.0,1500,1500,0.0,0.0,40.047021,-88.2306696667,0.0,0.0,0.0,0.0,0.0,0.0,0.0,0.0,0.0,0.0,0.0,0,0.0,0.0,0.0,0.0,84.0,90.0,60.0,95.74761199950001,89.25408935549999,119.81184387209998,36.2999992371,16.4546203613,2.5199999809,0,2,25,1,41,126
112,1530213286115,87115, RC,0,39.9586422891,-88.4448908703,0,0.0,0.0,0.0,0.0,0.0,0.0,0.0,0.0,0.0,0.0,0.0,0.0,0.0,1500,1500,0.0,0.0,40.047021,-88.2306696667,0.0,0.0,0.0,0.0,0.0,0.0,0.0,0.0,0.0,0.0,0.0,0,0.0,0.0,0.0,0.0,84.0,90.0,60.0,95.74761199950001,89.25408935549999,119.81184387209998,36.2999992371,16.4546203613,2.5199999809,0,2,25,1,34,127
113,1530213286165,87165, RC,0,39.9586422891,-88.4448908703,0,0.0,0.0,0.0,0.0,0.0,0.0,0.0,0.0,0.0,0.0,0.0,0.0,0.0,1500,1500,0.0,0.0,40.047021,-88.2306696667,0.0,0.0,0.0,0.0,0.0,0.0,0.0,0.0,0.0,0.0,0.0,0,0.0,0.0,0.0,0.0,84.0,90.0,60.0,95.74761199950001,89.25408935549999,119.81184387209998,36.2999992371,16.4546203613,2.5199999809,0,2,25,1,31,128
114,1530213286216,87216, RC,0,39.9586422891,-88.4448908703,0,0.0,0.0,0.0,0.0,0.0,0.0,0.0,0.0,0.0,0.0,0.0,0.0,0.0,1500,1500,0.0,0.0,40.0470195,-88.230672,0.0,0.0,0.0,0.0,0.0,0.0,0.0,0.0,0.0,0.0,0.0,0,0.0,0.0,0.0,0.0,84.0,79.0,60.0,95.74761199950001,89.5724029541,119.81184387209998,36.2999992371,16.4546203613,2.5199999809,0,2,25,1,36,129
115,1530213286266,87266, RC,0,39.9586422891,-88.4448908703,0,0.0,0.0,0.0,0.0,0.0,0.0,0.0,0.0,0.0,0.0,0.0,0.0,0.0,1500,1500,0.0,0.0,40.0470195,-88.230672,0.0,0.0,0.0,0.0,0.0,0.0,0.0,0.0,0.0,0.0,0.0,0,0.0,0.0,0.0,0.0,84.0,79.0,60.0,95.74761199950001,97.72113800049999,119.81184387209998,36.2999992371,16.4546203613,2.5199999809,0,2,25,1,38,130
116,1530213286317,87317, RC,0,39.9586422891,-88.4448908703,0,0.0,0.0,0.0,0.0,0.0,0.0,0.0,0.0,0.0,0.0,0.0,0.0,0.0,1500,1500,0.0,0.0,40.0470195,-88.230672,0.0,0.0,0.0,0.0,0.0,0.0,0.0,0.0,0.0,0.0,0.0,0,0.0,0.0,0.0,0.0,84.0,79.0,60.0,95.74761199950001,100.77690887450001,119.81184387209998,36.2999992371,16.4546203613,2.5199999809,0,2,25,1,40,132
117,1530213286368,87368, RC,0,39.9586422891,-88.4448908703,0,0.0,0.0,0.0,0.0,0.0,0.0,0.0,0.0,0.0,0.0,0.0,0.0,0.0,1500,1500,0.0,0.0,40.0470195,-88.230672,0.0,0.0,0.0,0.0,0.0,0.0,0.0,0.0,0.0,0.0,0.0,0,0.0,0.0,0.0,0.0,84.0,75.0,60.0,95.74761199950001,99.9493103027,119.81184387209998,36.2999992371,16.4546203613,2.5199999809,0,2,25,1,39,133
118,1530213286418,87418, RC,0,39.9586422891,-88.4448908703,0,0.0,0.0,0.0,0.0,0.0,0.0,0.0,0.0,0.0,0.0,0.0,0.0,0.0,1500,1500,0.0,0.0,40.0470195,-88.230672,0.0,0.0,0.0,0.0,0.0,0.0,0.0,0.0,0.0,0.0,0.0,0,0.0,0.0,0.0,0.0,84.0,75.0,60.0,95.74761199950001,99.9493103027,119.81184387209998,36.2999992371,16.4546203613,2.5199999809,0,2,25,1,36,134
119,1530213286469,87469, RC,0,39.9586422891,-88.4448908703,0,0.0,0.0,0.0,0.0,0.0,0.0,0.0,0.0,0.0,0.0,0.0,0.0,0.0,1500,1500,0.0,0.0,40.0470195,-88.230672,0.0,0.0,0.0,0.0,0.0,0.0,0.0,0.0,0.0,0.0,0.0,0,0.0,0.0,0.0,0.0,84.0,72.0,60.0,95.74761199950001,102.7504272461,119.81184387209998,36.2999992371,16.4546203613,2.5199999809,0,2,25,1,36,135
120,1530213286519,87519, RC,0,39.9586422891,-88.4448908703,0,0.0,0.0,0.0,0.0,0.0,0.0,0.0,0.0,0.0,0.0,0.0,0.0,0.0,1500,1500,0.0,0.0,40.0470195,-88.230672,0.0,0.0,0.0,0.0,0.0,0.0,0.0,0.0,0.0,0.0,0.0,0,0.0,0.0,0.0,0.0,84.0,72.0,60.0,95.74761199950001,105.0422668457,119.81184387209998,36.2999992371,16.4546604156,2.0199999809,0,2,25,1,33,137
121,1530213286570,87570, RC,0,39.9586422891,-88.4448908703,0,0.0,0.0,0.0,0.0,0.0,0.0,0.0,0.0,0.0,0.0,0.0,0.0,0.0,1500,1500,0.0,0.0,40.0470195,-88.230672,0.0,0.0,0.0,0.0,0.0,0.0,0.0,0.0,0.0,0.0,0.0,0,0.0,0.0,0.0,0.0,84.0,72.0,60.0,95.74761199950001,106.57015228270001,119.81184387209998,36.2999992371,16.4546604156,2.0199999809,0,2,25,1,33,137
122,1530213286621,87621, RC,0,39.9586422891,-88.4448908703,0,0.0,0.0,0.0,0.0,0.0,0.0,0.0,0.0,0.0,0.0,0.0,0.0,0.0,1500,1500,0.0,0.0,40.0470195,-88.230672,0.0,0.0,0.0,0.0,0.0,0.0,0.0,0.0,0.0,0.0,0.0,0,0.0,0.0,0.0,0.0,84.0,72.0,60.0,95.74761199950001,107.33409118649999,119.81184387209998,36.2999992371,16.4546604156,2.0199999809,0,2,25,1,30,139
123,1530213286671,87671, RC,0,39.9586422891,-88.4448908703,0,0.0,0.0,0.0,0.0,0.0,0.0,0.0,0.0,0.0,0.0,0.0,0.0,0.0,1500,1500,0.0,0.0,40.0470195,-88.230672,0.0,0.0,0.0,0.0,0.0,0.0,0.0,0.0,0.0,0.0,0.0,0,0.0,0.0,0.0,0.0,84.0,70.0,60.0,95.74761199950001,107.39775848389999,119.81184387209998,36.2999992371,16.4546604156,2.0199999809,0,2,25,1,34,141
124,1530213286722,87722, RC,0,39.9586422891,-88.4448908703,0,0.0,0.0,0.0,0.0,0.0,0.0,0.0,0.0,0.0,0.0,0.0,0.0,0.0,1500,1500,0.0,0.0,40.0470195,-88.230672,0.0,0.0,0.0,0.0,0.0,0.0,0.0,0.0,0.0,0.0,0.0,0,0.0,0.0,0.0,0.0,84.0,70.0,60.0,95.74761199950001,107.4614181519,119.81184387209998,36.2999992371,16.4546604156,2.0199999809,0,2,25,1,35,142
125,1530213286772,87772, RC,0,39.9586422891,-88.4448908703,0,0.0,0.0,0.0,0.0,0.0,0.0,0.0,0.0,0.0,0.0,0.0,0.0,0.0,1500,1500,0.0,0.0,40.0470195,-88.230672,0.0,0.0,0.0,0.0,0.0,0.0,0.0,0.0,0.0,0.0,0.0,0,0.0,0.0,0.0,0.0,84.0,70.0,60.0,95.74761199950001,108.0343704224,119.81184387209998,36.2999992371,16.4546604156,2.0199999809,0,2,25,1,31,143
126,1530213286823,87823, RC,0,39.9586422891,-88.4448908703,0,0.0,0.0,0.0,0.0,0.0,0.0,0.0,0.0,0.0,0.0,0.0,0.0,0.0,1500,1500,0.0,0.0,40.0470195,-88.230672,0.0,0.0,0.0,0.0,0.0,0.0,0.0,0.0,0.0,0.0,0.0,0,0.0,0.0,0.0,0.0,84.0,70.0,60.0,95.74761199950001,109.81690979,119.81184387209998,36.2999992371,16.4546604156,2.0199999809,0,2,25,1,32,144
127,1530213286873,87873, RC,0,39.9586422891,-88.4448908703,0,0.0,0.0,0.0,0.0,0.0,0.0,0.0,0.0,0.0,0.0,0.0,0.0,0.0,1500,1500,0.0,0.0,40.0470195,-88.230672,0.0,0.0,0.0,0.0,0.0,0.0,0.0,0.0,0.0,0.0,0.0,0,0.0,0.0,0.0,0.0,84.0,70.0,60.0,95.74761199950001,110.0715560913,119.81184387209998,36.2999992371,16.4546604156,2.0199999809,0,2,25,1,33,146
128,1530213286924,87924, RC,0,39.9586422891,-88.4448908703,0,0.0,0.0,0.0,0.0,0.0,0.0,0.0,0.0,0.0,0.0,0.0,0.0,0.0,1500,1500,0.0,0.0,40.0470195,-88.230672,0.0,0.0,0.0,0.0,0.0,0.0,0.0,0.0,0.0,0.0,0.0,0,0.0,0.0,0.0,0.0,84.0,70.0,60.0,95.74761199950001,109.81690979,119.81184387209998,36.2999992371,16.4546604156,2.0199999809,0,2,25,1,32,147
129,1530213286975,87975, RC,0,39.9586422891,-88.4448908703,0,0.0,0.0,0.0,0.0,0.0,0.0,0.0,0.0,0.0,0.0,0.0,0.0,0.0,1500,1500,0.0,0.0,40.0470195,-88.230672,0.0,0.0,0.0,0.0,0.0,0.0,0.0,0.0,0.0,0.0,0.0,0,0.0,0.0,0.0,0.0,84.0,64.0,60.0,95.74761199950001,109.81690979,119.81184387209998,36.2999992371,16.4546604156,2.0199999809,0,2,25,1,30,148
130,1530213287025,88025, RC,0,39.9586422891,-88.4448908703,0,0.0,0.0,0.0,0.0,0.0,0.0,0.0,0.0,0.0,0.0,0.0,0.0,0.0,1500,1500,0.0,0.0,40.0470195,-88.230672,0.0,0.0,0.0,0.0,0.0,0.0,0.0,0.0,0.0,0.0,0.0,0,0.0,0.0,0.0,0.0,84.0,64.0,60.0,95.74761199950001,110.0078964233,119.81184387209998,36.2999992371,16.4546604156,2.0199999809,0,2,25,1,36,150
131,1530213287076,88076, RC,0,39.9586422891,-88.4448908703,0,0.0,0.0,0.0,0.0,0.0,0.0,0.0,0.0,0.0,0.0,0.0,0.0,0.0,1500,1500,0.0,0.0,40.0470195,-88.230672,0.0,0.0,0.0,0.0,0.0,0.0,0.0,0.0,0.0,0.0,0.0,0,0.0,0.0,0.0,0.0,84.0,63.0,60.0,95.74761199950001,116.43775939940001,119.81184387209998,36.2999992371,16.4546604156,2.0199999809,0,2,25,1,40,151
132,1530213287126,88126, RC,0,39.9586422891,-88.4448908703,0,0.0,0.0,0.0,0.0,0.0,0.0,0.0,0.0,0.0,0.0,0.0,0.0,0.0,1500,1500,0.0,0.0,40.0470195,-88.230672,0.0,0.0,0.0,0.0,0.0,0.0,0.0,0.0,0.0,0.0,0.0,0,0.0,0.0,0.0,0.0,84.0,63.0,60.0,95.74761199950001,116.81973266600001,119.81184387209998,36.2999992371,16.4546604156,2.0199999809,0,2,25,1,32,152
133,1530213287177,88177, RC,0,39.9586422891,-88.4448908703,0,0.0,0.0,0.0,0.0,0.0,0.0,0.0,0.0,0.0,0.0,0.0,0.0,0.0,1500,1500,0.0,0.0,40.0470195,-88.230672,0.0,0.0,0.0,0.0,0.0,0.0,0.0,0.0,0.0,0.0,0.0,0,0.0,0.0,0.0,0.0,84.0,61.0,60.0,95.74761199950001,116.1194458008,119.81184387209998,36.2999992371,16.4546604156,2.0199999809,0,2,25,1,32,152
134,1530213287227,88227, RC,0,39.9586422891,-88.4448908703,0,0.0,0.0,0.0,0.0,0.0,0.0,0.0,0.0,0.0,0.0,0.0,0.0,0.0,1500,1500,0.0,0.0,40.0470226667,-88.2306795,0.0,0.0,0.0,0.0,0.0,0.0,0.0,0.0,0.0,0.0,0.0,0,0.0,0.0,0.0,0.0,84.0,61.0,60.0,95.74761199950001,116.24677276610001,119.81184387209998,36.2999992371,16.4546604156,2.0199999809,0,2,25,1,28,153
135,1530213287278,88278, RC,0,39.9586422891,-88.4448908703,0,0.0,0.0,0.0,0.0,0.0,0.0,0.0,0.0,0.0,0.0,0.0,0.0,0.0,1500,1500,0.0,0.0,40.0470226667,-88.2306795,0.0,0.0,0.0,0.0,0.0,0.0,0.0,0.0,0.0,0.0,0.0,0,0.0,0.0,0.0,0.0,84.0,60.0,60.0,95.74761199950001,117.13804626459999,119.81184387209998,36.2999992371,16.4546604156,2.0199999809,0,2,25,1,33,154
136,1530213287329,88329, RC,0,39.9586422891,-88.4448908703,0,0.0,0.0,0.0,0.0,0.0,0.0,0.0,0.0,0.0,0.0,0.0,0.0,0.0,1500,1500,0.0,0.0,40.0470226667,-88.2306795,0.0,0.0,0.0,0.0,0.0,0.0,0.0,0.0,0.0,0.0,0.0,0,0.0,0.0,0.0,0.0,84.0,60.0,60.0,95.74761199950001,119.3025436401,119.81184387209998,36.2999992371,16.4546604156,2.0199999809,0,2,25,1,35,155
137,1530213287379,88379, RC,0,39.9586422891,-88.4448908703,0,0.0,0.0,0.0,0.0,0.0,0.0,0.0,0.0,0.0,0.0,0.0,0.0,0.0,1500,1500,0.0,0.0,40.0470226667,-88.2306795,0.0,0.0,0.0,0.0,0.0,0.0,0.0,0.0,0.0,0.0,0.0,0,0.0,0.0,0.0,0.0,84.0,60.0,60.0,95.74761199950001,119.3025436401,119.81184387209998,36.2999992371,16.4546604156,2.0199999809,0,2,25,1,33,157
138,1530213287430,88430, RC,0,39.9586422891,-88.4448908703,0,0.0,0.0,0.0,0.0,0.0,0.0,0.0,0.0,0.0,0.0,0.0,0.0,0.0,1500,1500,0.0,0.0,40.0470226667,-88.2306795,0.0,0.0,0.0,0.0,0.0,0.0,0.0,0.0,0.0,0.0,0.0,0,0.0,0.0,0.0,0.0,84.0,60.0,60.0,95.74761199950001,119.3025436401,119.81184387209998,36.2999992371,16.4546604156,2.0199999809,0,2,25,1,34,158
139,1530213287480,88480, RC,0,39.9586422891,-88.4448908703,0,0.0,0.0,0.0,0.0,0.0,0.0,0.0,0.0,0.0,0.0,0.0,0.0,0.0,1500,1500,0.0,0.0,40.0470226667,-88.2306795,0.0,0.0,0.0,0.0,0.0,0.0,0.0,0.0,0.0,0.0,0.0,0,0.0,0.0,0.0,0.0,84.0,58.0,60.0,95.74761199950001,119.3025436401,119.81184387209998,36.8380012512,16.4546604156,2.0199999809,0,2,25,1,37,160
140,1530213287531,88531, RC,0,39.9586422891,-88.4448908703,0,0.0,0.0,0.0,0.0,0.0,0.0,0.0,0.0,0.0,0.0,0.0,0.0,0.0,1500,1500,0.0,0.0,40.0470226667,-88.2306795,0.0,0.0,0.0,0.0,0.0,0.0,0.0,0.0,0.0,0.0,0.0,0,0.0,0.0,0.0,0.0,84.0,58.0,60.0,95.74761199950001,119.3025436401,119.81184387209998,36.8380012512,16.4546718597,1.9100000858000001,0,2,25,1,38,161
141,1530213287582,88582, RC,0,39.9586422891,-88.4448908703,0,0.0,0.0,0.0,0.0,0.0,0.0,0.0,0.0,0.0,0.0,0.0,0.0,0.0,1500,1500,0.0,0.0,40.0470226667,-88.2306795,0.0,0.0,0.0,0.0,0.0,0.0,0.0,0.0,0.0,0.0,0.0,0,0.0,0.0,0.0,0.0,84.0,55.0,60.0,95.74761199950001,121.0214157104,119.81184387209998,36.8380012512,16.4546718597,1.9100000858000001,0,2,25,1,33,163
142,1530213287632,88632, RC,0,39.9586422891,-88.4448908703,0,0.0,0.0,0.0,0.0,0.0,0.0,0.0,0.0,0.0,0.0,0.0,0.0,0.0,1500,1500,0.0,0.0,40.0470226667,-88.2306795,0.0,0.0,0.0,0.0,0.0,0.0,0.0,0.0,0.0,0.0,0.0,0,0.0,0.0,0.0,0.0,84.0,55.0,60.0,95.74761199950001,121.7217025757,119.81184387209998,36.8380012512,16.4546718597,1.9100000858000001,0,2,25,1,34,164
143,1530213287683,88683, RC,0,39.9586422891,-88.4448908703,0,0.0,0.0,0.0,0.0,0.0,0.0,0.0,0.0,0.0,0.0,0.0,0.0,0.0,1500,1500,0.0,0.0,40.0470226667,-88.2306795,0.0,0.0,0.0,0.0,0.0,0.0,0.0,0.0,0.0,0.0,0.0,0,0.0,0.0,0.0,0.0,84.0,55.0,60.0,95.74761199950001,124.0135345459,119.81184387209998,36.8380012512,16.4546718597,1.9100000858000001,0,2,25,1,33,165
144,1530213287733,88733, RC,0,39.9586422891,-88.4448908703,0,0.0,0.0,0.0,0.0,0.0,0.0,0.0,0.0,0.0,0.0,0.0,0.0,0.0,1500,1500,0.0,0.0,40.0470226667,-88.2306795,0.0,0.0,0.0,0.0,0.0,0.0,0.0,0.0,0.0,0.0,0.0,0,0.0,0.0,0.0,0.0,84.0,55.0,60.0,95.74761199950001,124.7138137817,119.81184387209998,36.8380012512,16.4546718597,1.9100000858000001,0,2,25,1,30,166
145,1530213287784,88784, RC,0,39.9586422891,-88.4448908703,0,0.0,0.0,0.0,0.0,0.0,0.0,0.0,0.0,0.0,0.0,0.0,0.0,0.0,1500,1500,0.0,0.0,40.0470226667,-88.2306795,0.0,0.0,0.0,0.0,0.0,0.0,0.0,0.0,0.0,0.0,0.0,0,0.0,0.0,0.0,0.0,84.0,55.0,60.0,95.74761199950001,124.7774734497,119.81184387209998,36.8380012512,16.4546718597,1.9100000858000001,0,2,25,1,33,168
146,1530213287834,88834, RC,0,39.9586422891,-88.4448908703,0,0.0,0.0,0.0,0.0,0.0,0.0,0.0,0.0,0.0,0.0,0.0,0.0,0.0,1500,1500,0.0,0.0,40.0470226667,-88.2306795,0.0,0.0,0.0,0.0,0.0,0.0,0.0,0.0,0.0,0.0,0.0,0,0.0,0.0,0.0,0.0,84.0,55.0,60.0,95.74761199950001,124.7774734497,119.81184387209998,36.8380012512,16.4546718597,1.9100000858000001,0,2,25,1,33,168
147,1530213287885,88885, RC,0,39.9586422891,-88.4448908703,0,0.0,0.0,0.0,0.0,0.0,0.0,0.0,0.0,0.0,0.0,0.0,0.0,0.0,1500,1500,0.0,0.0,40.0470226667,-88.2306795,0.0,0.0,0.0,0.0,0.0,0.0,0.0,0.0,0.0,0.0,0.0,0,0.0,0.0,0.0,0.0,84.0,54.0,60.0,95.74761199950001,124.7774734497,119.81184387209998,36.8380012512,16.4546718597,1.9100000858000001,0,2,25,1,41,170
148,1530213287936,88936, RC,0,39.9586422891,-88.4448908703,0,0.0,0.0,0.0,0.0,0.0,0.0,0.0,0.0,0.0,0.0,0.0,0.0,0.0,1500,1500,0.0,0.0,40.0470226667,-88.2306795,0.0,0.0,0.0,0.0,0.0,0.0,0.0,0.0,0.0,0.0,0.0,0,0.0,0.0,0.0,0.0,84.0,54.0,60.0,95.74761199950001,124.7774734497,119.81184387209998,36.8380012512,16.4546718597,1.9100000858000001,0,2,25,1,37,171
149,1530213287986,88986, RC,0,39.9586422891,-88.4448908703,0,0.0,0.0,0.0,0.0,0.0,0.0,0.0,0.0,0.0,0.0,0.0,0.0,0.0,1500,1500,0.0,0.0,40.0470226667,-88.2306795,0.0,0.0,0.0,0.0,0.0,0.0,0.0,0.0,0.0,0.0,0.0,0,0.0,0.0,0.0,0.0,84.0,54.0,60.0,95.74761199950001,124.7774734497,119.81184387209998,36.8380012512,16.4546718597,1.9100000858000001,0,2,25,1,34,172
150,1530213288037,89037, RC,0,39.9586422891,-88.4448908703,0,0.0,0.0,0.0,0.0,0.0,0.0,0.0,0.0,0.0,0.0,0.0,0.0,0.0,1500,1500,0.0,0.0,40.0470226667,-88.2306795,0.0,0.0,0.0,0.0,0.0,0.0,0.0,0.0,0.0,0.0,0.0,0,0.0,0.0,0.0,0.0,84.0,54.0,60.0,95.74761199950001,124.7774734497,119.81184387209998,36.8380012512,16.4546718597,1.9100000858000001,0,2,25,1,41,173
151,1530213288087,89087, RC,0,39.9586422891,-88.4448908703,0,0.0,0.0,0.0,0.0,0.0,0.0,0.0,0.0,0.0,0.0,0.0,0.0,0.0,1500,1500,0.0,0.0,40.0470226667,-88.2306795,0.0,0.0,0.0,0.0,0.0,0.0,0.0,0.0,0.0,0.0,0.0,0,0.0,0.0,0.0,0.0,84.0,54.0,60.0,95.74761199950001,125.03211975100001,119.81184387209998,36.8380012512,16.4546718597,1.9100000858000001,0,2,25,1,35,175
152,1530213288138,89138, RC,0,39.9586422891,-88.4448908703,0,0.0,0.0,0.0,0.0,0.0,0.0,0.0,0.0,0.0,0.0,0.0,0.0,0.0,1500,1500,0.0,0.0,40.0470226667,-88.2306795,0.0,0.0,0.0,0.0,0.0,0.0,0.0,0.0,0.0,0.0,0.0,0,0.0,0.0,0.0,0.0,84.0,54.0,60.0,95.74761199950001,125.0957870483,119.81184387209998,36.8380012512,16.4546718597,1.9100000858000001,0,2,25,1,35,175
153,1530213288188,89188, RC,0,39.9586422891,-88.4448908703,0,0.0,0.0,0.0,0.0,0.0,0.0,0.0,0.0,0.0,0.0,0.0,0.0,0.0,1500,1500,0.0,0.0,40.0470235,-88.2306796667,0.0,0.0,0.0,0.0,0.0,0.0,0.0,0.0,0.0,0.0,0.0,0,0.0,0.0,0.0,0.0,84.0,57.0,60.0,95.74761199950001,125.4140930176,119.81184387209998,36.8380012512,16.4546718597,1.9100000858000001,0,2,25,1,36,176
154,1530213288239,89239, RC,0,39.9586422891,-88.4448908703,0,0.0,0.0,0.0,0.0,0.0,0.0,0.0,0.0,0.0,0.0,0.0,0.0,0.0,1500,1500,0.0,0.0,40.0470235,-88.2306796667,0.0,0.0,0.0,0.0,0.0,0.0,0.0,0.0,0.0,0.0,0.0,0,0.0,0.0,0.0,0.0,84.0,57.0,60.0,95.74761199950001,125.0957870483,119.81184387209998,36.8380012512,16.4546718597,1.9100000858000001,0,2,25,1,39,177
155,1530213288290,89290, RC,0,39.9586422891,-88.4448908703,0,0.0,0.0,0.0,0.0,0.0,0.0,0.0,0.0,0.0,0.0,0.0,0.0,0.0,1500,1500,0.0,0.0,40.0470235,-88.2306796667,0.0,0.0,0.0,0.0,0.0,0.0,0.0,0.0,0.0,0.0,0.0,0,0.0,0.0,0.0,0.0,84.0,58.0,60.0,95.74761199950001,123.75888824459999,119.81184387209998,36.8380012512,16.4546718597,1.9100000858000001,0,2,25,1,41,179
156,1530213288340,89340, RC,0,39.9586422891,-88.4448908703,0,0.0,0.0,0.0,0.0,0.0,0.0,0.0,0.0,0.0,0.0,0.0,0.0,0.0,1500,1500,0.0,0.0,40.0470235,-88.2306796667,0.0,0.0,0.0,0.0,0.0,0.0,0.0,0.0,0.0,0.0,0.0,0,0.0,0.0,0.0,0.0,84.0,58.0,60.0,95.74761199950001,123.1222610474,119.81184387209998,36.8380012512,16.4546718597,1.9100000858000001,0,2,25,1,33,180
157,1530213288391,89391, RC,0,39.9586422891,-88.4448908703,0,0.0,0.0,0.0,0.0,0.0,0.0,0.0,0.0,0.0,0.0,0.0,0.0,0.0,1500,1500,0.0,0.0,40.0470235,-88.2306796667,0.0,0.0,0.0,0.0,0.0,0.0,0.0,0.0,0.0,0.0,0.0,0,0.0,0.0,0.0,0.0,84.0,58.0,60.0,95.74761199950001,122.1673278809,119.81184387209998,36.8380012512,16.4546718597,1.9100000858000001,0,2,25,1,30,181
158,1530213288441,89441, RC,0,39.9586422891,-88.4448908703,0,0.0,0.0,0.0,0.0,0.0,0.0,0.0,0.0,0.0,0.0,0.0,0.0,0.0,1500,1500,0.0,0.0,40.0470235,-88.2306796667,0.0,0.0,0.0,0.0,0.0,0.0,0.0,0.0,0.0,0.0,0.0,0,0.0,0.0,0.0,0.0,84.0,58.0,60.0,95.74761199950001,121.1487426758,119.81184387209998,36.8380012512,16.4546718597,1.9100000858000001,0,2,25,1,42,183
159,1530213288492,89492, RC,0,39.9586422891,-88.4448908703,0,0.0,0.0,0.0,0.0,0.0,0.0,0.0,0.0,0.0,0.0,0.0,0.0,0.0,1500,1500,0.0,0.0,40.0470235,-88.2306796667,0.0,0.0,0.0,0.0,0.0,0.0,0.0,0.0,0.0,0.0,0.0,0,0.0,0.0,0.0,0.0,84.0,60.0,60.0,95.74761199950001,121.0850753784,119.81184387209998,36.8380012512,16.4546718597,1.9100000858000001,0,2,25,1,39,184
160,1530213288542,89542, RC,0,39.9586422891,-88.4448908703,0,0.0,0.0,0.0,0.0,0.0,0.0,0.0,0.0,0.0,0.0,0.0,0.0,0.0,1500,1500,0.0,0.0,40.0470235,-88.2306796667,0.0,0.0,0.0,0.0,0.0,0.0,0.0,0.0,0.0,0.0,0.0,0,0.0,0.0,0.0,0.0,84.0,60.0,60.0,95.74761199950001,121.0214157104,119.81184387209998,36.8380012512,16.4549751282,2.5799999237,0,2,25,1,37,185
161,1530213288593,89593, RC,0,39.9586422891,-88.4448908703,0,0.0,0.0,0.0,0.0,0.0,0.0,0.0,0.0,0.0,0.0,0.0,0.0,0.0,1500,1500,0.0,0.0,40.0470235,-88.2306796667,0.0,0.0,0.0,0.0,0.0,0.0,0.0,0.0,0.0,0.0,0.0,0,0.0,0.0,0.0,0.0,84.0,60.0,60.0,95.74761199950001,119.5571899414,119.81184387209998,36.8380012512,16.4549751282,2.5799999237,0,2,25,1,36,186
162,1530213288644,89644, RC,0,39.9586422891,-88.4448908703,0,0.0,0.0,0.0,0.0,0.0,0.0,0.0,0.0,0.0,0.0,0.0,0.0,0.0,1500,1500,0.0,0.0,40.0470235,-88.2306796667,0.0,0.0,0.0,0.0,0.0,0.0,0.0,0.0,0.0,0.0,0.0,0,0.0,0.0,0.0,0.0,84.0,60.0,60.0,95.74761199950001,119.1752166748,119.81184387209998,36.8380012512,16.4549751282,2.5799999237,0,2,25,1,36,187
163,1530213288694,89694, RC,0,39.9586422891,-88.4448908703,0,0.0,0.0,0.0,0.0,0.0,0.0,0.0,0.0,0.0,0.0,0.0,0.0,0.0,1500,1500,0.0,0.0,40.0470235,-88.2306796667,0.0,0.0,0.0,0.0,0.0,0.0,0.0,0.0,0.0,0.0,0.0,0,0.0,0.0,0.0,0.0,84.0,61.0,60.0,95.74761199950001,119.3025436401,119.81184387209998,36.8380012512,16.4549751282,2.5799999237,0,2,25,1,44,188
164,1530213288745,89745, RC,0,39.9586422891,-88.4448908703,0,0.0,0.0,0.0,0.0,0.0,0.0,0.0,0.0,0.0,0.0,0.0,0.0,0.0,1500,1500,0.0,0.0,40.0470235,-88.2306796667,0.0,0.0,0.0,0.0,0.0,0.0,0.0,0.0,0.0,0.0,0.0,0,0.0,0.0,0.0,0.0,84.0,61.0,60.0,95.74761199950001,119.3025436401,119.81184387209998,36.8380012512,16.4549751282,2.5799999237,0,2,25,1,37,190
165,1530213288795,89795, RC,0,39.9586422891,-88.4448908703,0,0.0,0.0,0.0,0.0,0.0,0.0,0.0,0.0,0.0,0.0,0.0,0.0,0.0,1500,1500,0.0,0.0,40.0470235,-88.2306796667,0.0,0.0,0.0,0.0,0.0,0.0,0.0,0.0,0.0,0.0,0.0,0,0.0,0.0,0.0,0.0,84.0,61.0,60.0,95.74761199950001,119.1115570068,119.81184387209998,36.8380012512,16.4549751282,2.5799999237,0,2,25,1,38,191
166,1530213288846,89846, RC,0,39.9586422891,-88.4448908703,0,0.0,0.0,0.0,0.0,0.0,0.0,0.0,0.0,0.0,0.0,0.0,0.0,0.0,1500,1500,0.0,0.0,40.0470235,-88.2306796667,0.0,0.0,0.0,0.0,0.0,0.0,0.0,0.0,0.0,0.0,0.0,0,0.0,0.0,0.0,0.0,84.0,61.0,60.0,95.74761199950001,118.7932434082,119.81184387209998,36.8380012512,16.4549751282,2.5799999237,0,2,25,1,44,192
167,1530213288896,89896, RC,0,39.9586422891,-88.4448908703,0,0.0,0.0,0.0,0.0,0.0,0.0,0.0,0.0,0.0,0.0,0.0,0.0,0.0,1500,1500,0.0,0.0,40.0470235,-88.2306796667,0.0,0.0,0.0,0.0,0.0,0.0,0.0,0.0,0.0,0.0,0.0,0,0.0,0.0,0.0,0.0,84.0,61.0,60.0,95.74761199950001,118.2202911377,119.81184387209998,36.8380012512,16.4549751282,2.5799999237,0,2,25,1,36,193
168,1530213288947,89947, RC,0,39.9586422891,-88.4448908703,0,0.0,0.0,0.0,0.0,0.0,0.0,0.0,0.0,0.0,0.0,0.0,0.0,0.0,1500,1500,0.0,0.0,40.0470235,-88.2306796667,0.0,0.0,0.0,0.0,0.0,0.0,0.0,0.0,0.0,0.0,0.0,0,0.0,0.0,0.0,0.0,84.0,61.0,60.0,95.74761199950001,118.15663146969999,119.81184387209998,36.8380012512,16.4549751282,2.5799999237,0,2,25,1,37,194
