,(0)linux time (ms),    (1)uptime  (ms),      (2)drive mode,(3)mpc step counter,(4)mpc origin latitude  (deg),(5)mpc origin longitude  (deg),(6)closest trajectory point index to robot,(7)mpc error x (W;E)  (m),(8)mpc error y (W;E)  (m),(9)abs mpc error (m),(10)input [x] for mhe (m),(11)input [y] for mhe (m),(12)input [speed] for mhe (m/s),(13)input [vyaw] for mhe (rad/s),(14)mhe output x  (m),(15)mhe output y  (m),(16)mhe output speed  (m/s),(17)mhe output yaw  (rad),(18)mpc reference heading (rad),(19)mpc turn rate command (rad/s),(20)turn rate command as PWM,(21)throttle command as PWM,(22)primary gps latitude (deg),(23)primary gps longitude (deg),(24)secondary gps latitude  (deg),(25)secondary gps longitude (deg),(26)accelerometer x (m/s^2),(27)accelerometer y (m/s^2),(28)accelerometer z (m/s^2),(29)gyro yaw rate (rad/s),(30)gyro pitch rate   (rad/s),(31)gyro roll rate (rad/s),      (32)yaw (rad),  (33)pitch   (rad),     (34)roll (rad),(35)sonar1 measurement (m),(36)ultrasonic sensor measurement (m),(37)primary gps time (s),(38)normalized turn rate command,(39)normalized throttle command,(40)speed calculation from encoder left (m/s),(41)speed calculation from encoder right (m/s),(42)front gimbal target angle (degrees from straight down),(43)left gimbal target angle  (degrees from straight down),(44)right gimbal target angle  (degrees from straight down),(45)front gimbal measured angle  (degrees from straight down),(46)left gimbal measured angle    (degrees from straight down),(47)right gimbal measured angle  (degrees from straight down),(48)internal temperature (C),(49)battery voltage (V),(50)primary gps type,(51)secondary gps type,    (52)MPC R value, (53)MPC Q[0] value,Unnamed: 54,weed_num,start
0,1530214844742,1645742, RC,0,39.9586422891,-88.4448908703,0,0.0,0.0,0.0,0.0,0.0,0.0,0.0,0.0,0.0,0.0,0.0,0.0,0.0,1500,1500,0.0,0.0,40.0465695,-88.2308031667,0.0,0.0,0.0,0.0,0.0,0.0,0.0,0.0,0.0,0.0,0.0,0,0.0,0.0,0.0,0.0,90.0,90.0,90.0,90.01803588870001,90.01803588870001,89.6997299194,45.9840011597,7.4029417038,521.3099975586,0,2,25,1,176,0
1,1530214844793,1645793, RC,0,39.9586422891,-88.4448908703,0,0.0,0.0,0.0,0.0,0.0,0.0,0.0,0.0,0.0,0.0,0.0,0.0,0.0,1500,1500,0.0,0.0,40.0465695,-88.2308031667,0.0,0.0,0.0,0.0,0.0,0.0,0.0,0.0,0.0,0.0,0.0,0,0.0,0.0,0.0,0.0,90.0,90.0,90.0,90.01803588870001,90.01803588870001,89.6997299194,45.9840011597,7.4029417038,521.3099975586,0,2,25,1,176,0
2,1530214844843,1645843, RC,0,39.9586422891,-88.4448908703,0,0.0,0.0,0.0,0.0,0.0,0.0,0.0,0.0,0.0,0.0,0.0,0.0,0.0,1500,1500,0.0,0.0,40.0465695,-88.2308031667,0.0,0.0,0.0,0.0,0.0,0.0,0.0,0.0,0.0,0.0,0.0,0,0.0,0.0,0.0,0.0,90.0,90.0,90.0,90.01803588870001,90.01803588870001,89.6997299194,45.9840011597,7.4029417038,521.3099975586,0,2,25,1,176,0
3,1530214844893,1645893, RC,0,39.9586422891,-88.4448908703,0,0.0,0.0,0.0,0.0,0.0,0.0,0.0,0.0,0.0,0.0,0.0,0.0,0.0,1500,1500,0.0,0.0,40.0465695,-88.2308031667,0.0,0.0,0.0,0.0,0.0,0.0,0.0,0.0,0.0,0.0,0.0,0,0.0,0.0,0.0,0.0,90.0,90.0,90.0,90.01803588870001,90.01803588870001,89.6997299194,45.9840011597,7.4029417038,521.3099975586,0,2,25,1,176,0
4,1530214844944,1645944, RC,0,39.9586422891,-88.4448908703,0,0.0,0.0,0.0,0.0,0.0,0.0,0.0,0.0,0.0,0.0,0.0,0.0,0.0,1500,1500,0.0,0.0,40.0465695,-88.2308031667,0.0,0.0,0.0,0.0,0.0,0.0,0.0,0.0,0.0,0.0,0.0,0,0.0,0.0,0.0,0.0,90.0,90.0,90.0,90.01803588870001,90.01803588870001,89.6997299194,45.9840011597,7.4029417038,521.3099975586,0,2,25,1,176,0
5,1530214844994,1645994, RC,0,39.9586422891,-88.4448908703,0,0.0,0.0,0.0,0.0,0.0,0.0,0.0,0.0,0.0,0.0,0.0,0.0,0.0,1500,1500,0.0,0.0,40.0465695,-88.2308031667,0.0,0.0,0.0,0.0,0.0,0.0,0.0,0.0,0.0,0.0,0.0,0,0.0,0.0,0.0,0.0,90.0,90.0,90.0,90.01803588870001,90.01803588870001,89.6997299194,45.9840011597,7.4029417038,521.3099975586,0,2,25,1,176,0
6,1530214845044,1646044, RC,0,39.9586422891,-88.4448908703,0,0.0,0.0,0.0,0.0,0.0,0.0,0.0,0.0,0.0,0.0,0.0,0.0,0.0,1500,1500,0.0,0.0,40.0465695,-88.2308031667,0.0,0.0,0.0,0.0,0.0,0.0,0.0,0.0,0.0,0.0,0.0,0,0.0,0.0,0.0,0.0,90.0,90.0,90.0,90.01803588870001,90.01803588870001,89.6997299194,45.9840011597,7.4029417038,521.3099975586,0,2,25,1,176,0
7,1530214845095,1646095, RC,0,39.9586422891,-88.4448908703,0,0.0,0.0,0.0,0.0,0.0,0.0,0.0,0.0,0.0,0.0,0.0,0.0,0.0,1500,1500,0.0,0.0,40.0465695,-88.2308031667,0.0,0.0,0.0,0.0,0.0,0.0,0.0,0.0,0.0,0.0,0.0,0,0.0,0.0,0.0,0.0,90.0,90.0,90.0,90.01803588870001,90.01803588870001,89.6997299194,45.9840011597,7.4029417038,521.3099975586,0,2,25,1,176,0
8,1530214845145,1646145, RC,0,39.9586422891,-88.4448908703,0,0.0,0.0,0.0,0.0,0.0,0.0,0.0,0.0,0.0,0.0,0.0,0.0,0.0,1500,1500,0.0,0.0,40.0465695,-88.2308031667,0.0,0.0,0.0,0.0,0.0,0.0,0.0,0.0,0.0,0.0,0.0,0,0.0,0.0,0.0,0.0,90.0,90.0,90.0,90.01803588870001,90.01803588870001,89.6997299194,45.9840011597,7.4029417038,521.3099975586,0,2,25,1,148,1
9,1530214845195,1646195, RC,0,39.9586422891,-88.4448908703,0,0.0,0.0,0.0,0.0,0.0,0.0,0.0,0.0,0.0,0.0,0.0,0.0,0.0,1500,1500,0.0,0.0,40.0465713333,-88.230808,0.0,0.0,0.0,0.0,0.0,0.0,0.0,0.0,0.0,0.0,0.0,0,0.0,0.0,0.0,0.0,90.0,90.0,90.0,90.01803588870001,90.01803588870001,89.6997299194,45.9840011597,7.4029417038,521.3099975586,0,2,25,1,139,3
10,1530214845246,1646246, RC,0,39.9586422891,-88.4448908703,0,0.0,0.0,0.0,0.0,0.0,0.0,0.0,0.0,0.0,0.0,0.0,0.0,0.0,1500,1500,0.0,0.0,40.0465713333,-88.230808,0.0,0.0,0.0,0.0,0.0,0.0,0.0,0.0,0.0,0.0,0.0,0,0.0,0.0,0.0,0.0,90.0,90.0,90.0,90.01803588870001,89.9543762207,89.6997299194,45.9840011597,7.4029417038,521.3099975586,0,2,25,1,151,5
11,1530214845296,1646296, RC,0,39.9586422891,-88.4448908703,0,0.0,0.0,0.0,0.0,0.0,0.0,0.0,0.0,0.0,0.0,0.0,0.0,0.0,1500,1500,0.0,0.0,40.0465713333,-88.230808,0.0,0.0,0.0,0.0,0.0,0.0,0.0,0.0,0.0,0.0,0.0,0,0.0,0.0,0.0,0.0,90.0,90.0,90.0,90.01803588870001,89.9543762207,89.6997299194,45.9840011597,7.4029417038,521.3099975586,0,2,25,1,127,7
12,1530214845346,1646346, RC,0,39.9586422891,-88.4448908703,0,0.0,0.0,0.0,0.0,0.0,0.0,0.0,0.0,0.0,0.0,0.0,0.0,0.0,1500,1500,0.0,0.0,40.0465713333,-88.230808,0.0,0.0,0.0,0.0,0.0,0.0,0.0,0.0,0.0,0.0,0.0,0,0.0,0.0,0.0,0.0,90.0,90.0,90.0,90.01803588870001,89.9543762207,89.6997299194,45.9840011597,7.4029417038,521.3099975586,0,2,25,1,154,9
13,1530214845397,1646397, RC,0,39.9586422891,-88.4448908703,0,0.0,0.0,0.0,0.0,0.0,0.0,0.0,0.0,0.0,0.0,0.0,0.0,0.0,1500,1500,0.0,0.0,40.0465713333,-88.230808,0.0,0.0,0.0,0.0,0.0,0.0,0.0,0.0,0.0,0.0,0.0,0,0.0,0.0,0.0,0.0,90.0,90.0,90.0,90.01803588870001,90.01803588870001,89.6997299194,45.9840011597,7.4029417038,521.3099975586,0,2,25,1,148,10
14,1530214845447,1646447, RC,0,39.9586422891,-88.4448908703,0,0.0,0.0,0.0,0.0,0.0,0.0,0.0,0.0,0.0,0.0,0.0,0.0,0.0,1500,1500,0.0,0.0,40.0465713333,-88.230808,0.0,0.0,0.0,0.0,0.0,0.0,0.0,0.0,0.0,0.0,0.0,0,0.0,0.0,0.0,0.0,90.0,90.0,90.0,90.01803588870001,90.01803588870001,89.6997299194,45.9840011597,7.4029417038,521.3099975586,0,2,25,1,163,12
15,1530214845497,1646497, RC,0,39.9586422891,-88.4448908703,0,0.0,0.0,0.0,0.0,0.0,0.0,0.0,0.0,0.0,0.0,0.0,0.0,0.0,1500,1500,0.0,0.0,40.0465713333,-88.230808,0.0,0.0,0.0,0.0,0.0,0.0,0.0,0.0,0.0,0.0,0.0,0,0.0,0.0,0.0,0.0,90.0,90.0,90.0,90.01803588870001,90.01803588870001,89.6997299194,45.9840011597,7.4029417038,521.3099975586,0,2,25,1,174,13
16,1530214845548,1646548, RC,0,39.9586422891,-88.4448908703,0,0.0,0.0,0.0,0.0,0.0,0.0,0.0,0.0,0.0,0.0,0.0,0.0,0.0,1500,1500,0.0,0.0,40.0465713333,-88.230808,0.0,0.0,0.0,0.0,0.0,0.0,0.0,0.0,0.0,0.0,0.0,0,0.0,0.0,0.0,0.0,90.0,90.0,90.0,90.01803588870001,90.01803588870001,89.6997299194,45.9840011597,7.4029417038,521.3099975586,0,2,25,1,163,15
17,1530214845598,1646598, RC,0,39.9586422891,-88.4448908703,0,0.0,0.0,0.0,0.0,0.0,0.0,0.0,0.0,0.0,0.0,0.0,0.0,0.0,1500,1500,0.0,0.0,40.0465713333,-88.230808,0.0,0.0,0.0,0.0,0.0,0.0,0.0,0.0,0.0,0.0,0.0,0,0.0,0.0,0.0,0.0,90.0,90.0,90.0,90.0816955566,90.01803588870001,89.6997299194,45.9840011597,7.4029417038,521.3099975586,0,2,25,1,143,16
18,1530214845648,1646648, RC,0,39.9586422891,-88.4448908703,0,0.0,0.0,0.0,0.0,0.0,0.0,0.0,0.0,0.0,0.0,0.0,0.0,0.0,1500,1500,0.0,0.0,40.0465713333,-88.230808,0.0,0.0,0.0,0.0,0.0,0.0,0.0,0.0,0.0,0.0,0.0,0,0.0,0.0,0.0,0.0,90.0,90.0,90.0,90.01803588870001,90.01803588870001,89.6997299194,45.9840011597,7.4029417038,521.3099975586,0,2,25,1,168,18
19,1530214845699,1646699, RC,0,39.9586422891,-88.4448908703,0,0.0,0.0,0.0,0.0,0.0,0.0,0.0,0.0,0.0,0.0,0.0,0.0,0.0,1500,1500,0.0,0.0,40.0465713333,-88.230808,0.0,0.0,0.0,0.0,0.0,0.0,0.0,0.0,0.0,0.0,0.0,0,0.0,0.0,0.0,0.0,90.0,90.0,90.0,90.01803588870001,90.01803588870001,89.6997299194,45.9840011597,7.4029417038,521.3099975586,0,2,25,1,149,19
20,1530214845749,1646749, RC,0,39.9586422891,-88.4448908703,0,0.0,0.0,0.0,0.0,0.0,0.0,0.0,0.0,0.0,0.0,0.0,0.0,0.0,1500,1500,0.0,0.0,40.0465713333,-88.230808,0.0,0.0,0.0,0.0,0.0,0.0,0.0,0.0,0.0,0.0,0.0,0,0.0,0.0,0.0,0.0,90.0,90.0,90.0,90.01803588870001,90.01803588870001,89.6997299194,45.9840011597,7.403121948200001,521.200012207,0,2,25,1,118,21
21,1530214845799,1646799, RC,0,39.9586422891,-88.4448908703,0,0.0,0.0,0.0,0.0,0.0,0.0,0.0,0.0,0.0,0.0,0.0,0.0,0.0,1500,1500,0.0,0.0,40.0465713333,-88.230808,0.0,0.0,0.0,0.0,0.0,0.0,0.0,0.0,0.0,0.0,0.0,0,0.0,0.0,0.0,0.0,90.0,90.0,90.0,90.01803588870001,90.01803588870001,89.6997299194,45.9840011597,7.403121948200001,521.200012207,0,2,25,1,143,22
22,1530214845850,1646850, RC,0,39.9586422891,-88.4448908703,0,0.0,0.0,0.0,0.0,0.0,0.0,0.0,0.0,0.0,0.0,0.0,0.0,0.0,1500,1500,0.0,0.0,40.0465713333,-88.230808,0.0,0.0,0.0,0.0,0.0,0.0,0.0,0.0,0.0,0.0,0.0,0,0.0,0.0,0.0,0.0,90.0,90.0,90.0,90.01803588870001,90.0816955566,89.6997299194,45.9840011597,7.403121948200001,521.200012207,0,2,25,1,134,23
23,1530214845900,1646900, RC,0,39.9586422891,-88.4448908703,0,0.0,0.0,0.0,0.0,0.0,0.0,0.0,0.0,0.0,0.0,0.0,0.0,0.0,1500,1500,0.0,0.0,40.0465713333,-88.230808,0.0,0.0,0.0,0.0,0.0,0.0,0.0,0.0,0.0,0.0,0.0,0,0.0,0.0,0.0,0.0,90.0,90.0,90.0,90.01803588870001,90.0816955566,89.6997299194,45.9840011597,7.403121948200001,521.200012207,0,2,25,1,141,25
24,1530214845951,1646951, RC,0,39.9586422891,-88.4448908703,0,0.0,0.0,0.0,0.0,0.0,0.0,0.0,0.0,0.0,0.0,0.0,0.0,0.0,1500,1500,0.0,0.0,40.0465713333,-88.230808,0.0,0.0,0.0,0.0,0.0,0.0,0.0,0.0,0.0,0.0,0.0,0,0.0,0.0,0.0,0.0,90.0,90.0,90.0,90.01803588870001,90.0816955566,89.6997299194,45.9840011597,7.403121948200001,521.200012207,0,2,25,1,153,26
25,1530214846001,1647001, RC,0,39.9586422891,-88.4448908703,0,0.0,0.0,0.0,0.0,0.0,0.0,0.0,0.0,0.0,0.0,0.0,0.0,0.0,1500,1500,0.0,0.0,40.0465713333,-88.230808,0.0,0.0,0.0,0.0,0.0,0.0,0.0,0.0,0.0,0.0,0.0,0,0.0,0.0,0.0,0.0,90.0,90.0,90.0,90.01803588870001,90.0816955566,89.6997299194,45.9840011597,7.403121948200001,521.200012207,0,2,25,1,123,28
26,1530214846051,1647051, RC,0,39.9586422891,-88.4448908703,0,0.0,0.0,0.0,0.0,0.0,0.0,0.0,0.0,0.0,0.0,0.0,0.0,0.0,1500,1500,0.0,0.0,40.0465713333,-88.230808,0.0,0.0,0.0,0.0,0.0,0.0,0.0,0.0,0.0,0.0,0.0,0,0.0,0.0,0.0,0.0,90.0,90.0,90.0,90.01803588870001,90.0816955566,89.6997299194,45.9840011597,7.403121948200001,521.200012207,0,2,25,1,140,29
27,1530214846102,1647102, RC,0,39.9586422891,-88.4448908703,0,0.0,0.0,0.0,0.0,0.0,0.0,0.0,0.0,0.0,0.0,0.0,0.0,0.0,1500,1500,0.0,0.0,40.0465713333,-88.230808,0.0,0.0,0.0,0.0,0.0,0.0,0.0,0.0,0.0,0.0,0.0,0,0.0,0.0,0.0,0.0,90.0,90.0,90.0,90.01803588870001,90.0816955566,89.6997299194,45.9840011597,7.403121948200001,521.200012207,0,2,25,1,121,31
28,1530214846152,1647152, RC,0,39.9586422891,-88.4448908703,0,0.0,0.0,0.0,0.0,0.0,0.0,0.0,0.0,0.0,0.0,0.0,0.0,0.0,1500,1500,0.0,0.0,40.0465713333,-88.230808,0.0,0.0,0.0,0.0,0.0,0.0,0.0,0.0,0.0,0.0,0.0,0,0.0,0.0,0.0,0.0,90.0,90.0,90.0,90.01803588870001,90.0816955566,89.6997299194,45.9840011597,7.403121948200001,521.200012207,0,2,25,1,125,32
29,1530214846202,1647202, RC,0,39.9586422891,-88.4448908703,0,0.0,0.0,0.0,0.0,0.0,0.0,0.0,0.0,0.0,0.0,0.0,0.0,0.0,1500,1500,0.0,0.0,40.046579,-88.2308041667,0.0,0.0,0.0,0.0,0.0,0.0,0.0,0.0,0.0,0.0,0.0,0,0.0,0.0,0.0,0.0,90.0,90.0,90.0,90.01803588870001,90.0816955566,89.6997299194,45.9840011597,7.403121948200001,521.200012207,0,2,25,1,176,34
30,1530214846253,1647253, RC,0,39.9586422891,-88.4448908703,0,0.0,0.0,0.0,0.0,0.0,0.0,0.0,0.0,0.0,0.0,0.0,0.0,0.0,1500,1500,0.0,0.0,40.046579,-88.2308041667,0.0,0.0,0.0,0.0,0.0,0.0,0.0,0.0,0.0,0.0,0.0,0,0.0,0.0,0.0,0.0,90.0,90.0,90.0,90.01803588870001,90.0816955566,89.6997299194,45.9840011597,7.403121948200001,521.200012207,0,2,25,1,150,35
31,1530214846303,1647303, RC,0,39.9586422891,-88.4448908703,0,0.0,0.0,0.0,0.0,0.0,0.0,0.0,0.0,0.0,0.0,0.0,0.0,0.0,1500,1500,0.0,0.0,40.046579,-88.2308041667,0.0,0.0,0.0,0.0,0.0,0.0,0.0,0.0,0.0,0.0,0.0,0,0.0,0.0,0.0,0.0,90.0,90.0,90.0,90.01803588870001,90.0816955566,89.6997299194,45.9840011597,7.403121948200001,521.200012207,0,2,25,1,148,37
32,1530214846353,1647353, RC,0,39.9586422891,-88.4448908703,0,0.0,0.0,0.0,0.0,0.0,0.0,0.0,0.0,0.0,0.0,0.0,0.0,0.0,1500,1500,0.0,0.0,40.046579,-88.2308041667,0.0,0.0,0.0,0.0,0.0,0.0,0.0,0.0,0.0,0.0,0.0,0,0.0,0.0,0.0,0.0,90.0,90.0,90.0,90.20902252200001,89.8907089233,89.6997299194,45.9840011597,7.403121948200001,521.200012207,0,2,25,1,143,38
33,1530214846403,1647403, RC,0,39.9586422891,-88.4448908703,0,0.0,0.0,0.0,0.0,0.0,0.0,0.0,0.0,0.0,0.0,0.0,0.0,0.0,1500,1500,0.0,0.0,40.046579,-88.2308041667,0.0,0.0,0.0,0.0,0.0,0.0,0.0,0.0,0.0,0.0,0.0,0,0.0,0.0,0.0,0.0,90.0,90.0,90.0,90.20902252200001,89.8907089233,89.6997299194,45.9840011597,7.403121948200001,521.200012207,0,2,25,1,125,40
34,1530214846454,1647454, RC,0,39.9586422891,-88.4448908703,0,0.0,0.0,0.0,0.0,0.0,0.0,0.0,0.0,0.0,0.0,0.0,0.0,0.0,1500,1500,0.0,0.0,40.046579,-88.2308041667,0.0,0.0,0.0,0.0,0.0,0.0,0.0,0.0,0.0,0.0,0.0,0,0.0,0.0,0.0,0.0,90.0,90.0,90.0,90.20902252200001,89.9543762207,89.6997299194,45.9840011597,7.403121948200001,521.200012207,0,2,25,1,115,41
35,1530214846504,1647504, RC,0,39.9586422891,-88.4448908703,0,0.0,0.0,0.0,0.0,0.0,0.0,0.0,0.0,0.0,0.0,0.0,0.0,0.0,1500,1500,0.0,0.0,40.046579,-88.2308041667,0.0,0.0,0.0,0.0,0.0,0.0,0.0,0.0,0.0,0.0,0.0,0,0.0,0.0,0.0,0.0,90.0,90.0,90.0,90.20902252200001,89.9543762207,89.6997299194,45.9840011597,7.403121948200001,521.200012207,0,2,25,1,137,43
36,1530214846555,1647555, RC,0,39.9586422891,-88.4448908703,0,0.0,0.0,0.0,0.0,0.0,0.0,0.0,0.0,0.0,0.0,0.0,0.0,0.0,1500,1500,0.0,0.0,40.046579,-88.2308041667,0.0,0.0,0.0,0.0,0.0,0.0,0.0,0.0,0.0,0.0,0.0,0,0.0,0.0,0.0,0.0,90.0,90.0,90.0,90.20902252200001,89.9543762207,89.6997299194,45.9840011597,7.403121948200001,521.200012207,0,2,25,1,117,45
37,1530214846605,1647605, RC,0,39.9586422891,-88.4448908703,0,0.0,0.0,0.0,0.0,0.0,0.0,0.0,0.0,0.0,0.0,0.0,0.0,0.0,1500,1500,0.0,0.0,40.046579,-88.2308041667,0.0,0.0,0.0,0.0,0.0,0.0,0.0,0.0,0.0,0.0,0.0,0,0.0,0.0,0.0,0.0,90.0,90.0,90.0,90.20902252200001,89.8907089233,89.6997299194,45.9840011597,7.403121948200001,521.200012207,0,2,25,1,125,46
38,1530214846656,1647656, RC,0,39.9586422891,-88.4448908703,0,0.0,0.0,0.0,0.0,0.0,0.0,0.0,0.0,0.0,0.0,0.0,0.0,0.0,1500,1500,0.0,0.0,40.046579,-88.2308041667,0.0,0.0,0.0,0.0,0.0,0.0,0.0,0.0,0.0,0.0,0.0,0,0.0,0.0,0.0,0.0,90.0,90.0,90.0,90.20902252200001,90.0816955566,89.6997299194,45.9840011597,7.403121948200001,521.200012207,0,2,25,1,148,48
39,1530214846707,1647707, RC,0,39.9586422891,-88.4448908703,0,0.0,0.0,0.0,0.0,0.0,0.0,0.0,0.0,0.0,0.0,0.0,0.0,0.0,1500,1500,0.0,0.0,40.046579,-88.2308041667,0.0,0.0,0.0,0.0,0.0,0.0,0.0,0.0,0.0,0.0,0.0,0,0.0,0.0,0.0,0.0,90.0,90.0,90.0,90.20902252200001,90.0816955566,89.6997299194,45.9840011597,7.403121948200001,521.200012207,0,2,25,1,142,49
40,1530214846757,1647757, RC,0,39.9586422891,-88.4448908703,0,0.0,0.0,0.0,0.0,0.0,0.0,0.0,0.0,0.0,0.0,0.0,0.0,0.0,1500,1500,0.0,0.0,40.046579,-88.2308041667,0.0,0.0,0.0,0.0,0.0,0.0,0.0,0.0,0.0,0.0,0.0,0,0.0,0.0,0.0,0.0,90.0,90.0,90.0,90.20902252200001,90.0816955566,89.6997299194,45.9840011597,7.4028892517,520.0999755859,0,2,25,1,142,51
41,1530214846808,1647808, RC,0,39.9586422891,-88.4448908703,0,0.0,0.0,0.0,0.0,0.0,0.0,0.0,0.0,0.0,0.0,0.0,0.0,0.0,1500,1500,0.0,0.0,40.046579,-88.2308041667,0.0,0.0,0.0,0.0,0.0,0.0,0.0,0.0,0.0,0.0,0.0,0,0.0,0.0,0.0,0.0,90.0,90.0,90.0,90.20902252200001,90.0816955566,89.6997299194,45.9840011597,7.4028892517,520.0999755859,0,2,25,1,123,52
42,1530214846858,1647858, RC,0,39.9586422891,-88.4448908703,0,0.0,0.0,0.0,0.0,0.0,0.0,0.0,0.0,0.0,0.0,0.0,0.0,0.0,1500,1500,0.0,0.0,40.046579,-88.2308041667,0.0,0.0,0.0,0.0,0.0,0.0,0.0,0.0,0.0,0.0,0.0,0,0.0,0.0,0.0,0.0,90.0,90.0,90.0,90.20902252200001,90.0816955566,89.6997299194,45.9840011597,7.4028892517,520.0999755859,0,2,25,1,132,54
43,1530214846909,1647909, RC,0,39.9586422891,-88.4448908703,0,0.0,0.0,0.0,0.0,0.0,0.0,0.0,0.0,0.0,0.0,0.0,0.0,0.0,1500,1500,0.0,0.0,40.046579,-88.2308041667,0.0,0.0,0.0,0.0,0.0,0.0,0.0,0.0,0.0,0.0,0.0,0,0.0,0.0,0.0,0.0,90.0,90.0,90.0,90.20902252200001,90.0816955566,89.6997299194,45.9840011597,7.4028892517,520.0999755859,0,2,25,1,124,55
44,1530214846959,1647959, RC,0,39.9586422891,-88.4448908703,0,0.0,0.0,0.0,0.0,0.0,0.0,0.0,0.0,0.0,0.0,0.0,0.0,0.0,1500,1500,0.0,0.0,40.046579,-88.2308041667,0.0,0.0,0.0,0.0,0.0,0.0,0.0,0.0,0.0,0.0,0.0,0,0.0,0.0,0.0,0.0,90.0,90.0,90.0,90.20902252200001,90.0816955566,89.6997299194,45.9840011597,7.4028892517,520.0999755859,0,2,25,1,139,57
45,1530214847010,1648010, RC,0,39.9586422891,-88.4448908703,0,0.0,0.0,0.0,0.0,0.0,0.0,0.0,0.0,0.0,0.0,0.0,0.0,0.0,1500,1500,0.0,0.0,40.046579,-88.2308041667,0.0,0.0,0.0,0.0,0.0,0.0,0.0,0.0,0.0,0.0,0.0,0,0.0,0.0,0.0,0.0,90.0,90.0,90.0,90.20902252200001,90.0816955566,89.6997299194,45.9840011597,7.4028892517,520.0999755859,0,2,25,1,129,58
46,1530214847061,1648061, RC,0,39.9586422891,-88.4448908703,0,0.0,0.0,0.0,0.0,0.0,0.0,0.0,0.0,0.0,0.0,0.0,0.0,0.0,1500,1500,0.0,0.0,40.046579,-88.2308041667,0.0,0.0,0.0,0.0,0.0,0.0,0.0,0.0,0.0,0.0,0.0,0,0.0,0.0,0.0,0.0,90.0,90.0,90.0,90.20902252200001,90.0816955566,89.6997299194,45.9840011597,7.4028892517,520.0999755859,0,2,25,1,129,60
47,1530214847111,1648111, RC,0,39.9586422891,-88.4448908703,0,0.0,0.0,0.0,0.0,0.0,0.0,0.0,0.0,0.0,0.0,0.0,0.0,0.0,1500,1500,0.0,0.0,40.046579,-88.2308041667,0.0,0.0,0.0,0.0,0.0,0.0,0.0,0.0,0.0,0.0,0.0,0,0.0,0.0,0.0,0.0,90.0,90.0,90.0,90.20902252200001,90.0816955566,89.6997299194,45.9840011597,7.4028892517,520.0999755859,0,2,25,1,153,61
48,1530214847162,1648162, RC,0,39.9586422891,-88.4448908703,0,0.0,0.0,0.0,0.0,0.0,0.0,0.0,0.0,0.0,0.0,0.0,0.0,0.0,1500,1500,0.0,0.0,40.0465805,-88.230792,0.0,0.0,0.0,0.0,0.0,0.0,0.0,0.0,0.0,0.0,0.0,0,0.0,0.0,0.0,0.0,90.0,90.0,90.0,90.20902252200001,90.0816955566,89.6997299194,45.9840011597,7.4028892517,520.0999755859,0,2,25,1,138,63
49,1530214847212,1648212, RC,0,39.9586422891,-88.4448908703,0,0.0,0.0,0.0,0.0,0.0,0.0,0.0,0.0,0.0,0.0,0.0,0.0,0.0,1500,1500,0.0,0.0,40.0465805,-88.230792,0.0,0.0,0.0,0.0,0.0,0.0,0.0,0.0,0.0,0.0,0.0,0,0.0,0.0,0.0,0.0,90.0,90.0,90.0,90.20902252200001,90.0816955566,89.6997299194,45.9840011597,7.4028892517,520.0999755859,0,2,25,1,124,65
50,1530214847263,1648263, RC,0,39.9586422891,-88.4448908703,0,0.0,0.0,0.0,0.0,0.0,0.0,0.0,0.0,0.0,0.0,0.0,0.0,0.0,1500,1500,0.0,0.0,40.0465805,-88.230792,0.0,0.0,0.0,0.0,0.0,0.0,0.0,0.0,0.0,0.0,0.0,0,0.0,0.0,0.0,0.0,90.0,90.0,90.0,90.20902252200001,90.0816955566,89.6997299194,45.9840011597,7.4028892517,520.0999755859,0,2,25,1,141,66
51,1530214847313,1648313, RC,0,39.9586422891,-88.4448908703,0,0.0,0.0,0.0,0.0,0.0,0.0,0.0,0.0,0.0,0.0,0.0,0.0,0.0,1500,1500,0.0,0.0,40.0465805,-88.230792,0.0,0.0,0.0,0.0,0.0,0.0,0.0,0.0,0.0,0.0,0.0,0,0.0,0.0,0.0,0.0,90.0,90.0,90.0,90.20902252200001,90.0816955566,89.6997299194,45.9840011597,7.4028892517,520.0999755859,0,2,25,1,138,68
52,1530214847364,1648364, RC,0,39.9586422891,-88.4448908703,0,0.0,0.0,0.0,0.0,0.0,0.0,0.0,0.0,0.0,0.0,0.0,0.0,0.0,1500,1500,0.0,0.0,40.0465805,-88.230792,0.0,0.0,0.0,0.0,0.0,0.0,0.0,0.0,0.0,0.0,0.0,0,0.0,0.0,0.0,0.0,90.0,90.0,90.0,90.20902252200001,90.0816955566,89.6997299194,45.9840011597,7.4028892517,520.0999755859,0,2,25,1,136,69
53,1530214847414,1648414, RC,0,39.9586422891,-88.4448908703,0,0.0,0.0,0.0,0.0,0.0,0.0,0.0,0.0,0.0,0.0,0.0,0.0,0.0,1500,1500,0.0,0.0,40.0465805,-88.230792,0.0,0.0,0.0,0.0,0.0,0.0,0.0,0.0,0.0,0.0,0.0,0,0.0,0.0,0.0,0.0,90.0,90.0,90.0,90.20902252200001,90.0816955566,89.6997299194,45.9840011597,7.4028892517,520.0999755859,0,2,25,1,138,71
54,1530214847465,1648465, RC,0,39.9586422891,-88.4448908703,0,0.0,0.0,0.0,0.0,0.0,0.0,0.0,0.0,0.0,0.0,0.0,0.0,0.0,1500,1500,0.0,0.0,40.0465805,-88.230792,0.0,0.0,0.0,0.0,0.0,0.0,0.0,0.0,0.0,0.0,0.0,0,0.0,0.0,0.0,0.0,90.0,90.0,90.0,90.20902252200001,90.145362854,89.6997299194,45.9840011597,7.4028892517,520.0999755859,0,2,25,1,135,72
55,1530214847516,1648516, RC,0,39.9586422891,-88.4448908703,0,0.0,0.0,0.0,0.0,0.0,0.0,0.0,0.0,0.0,0.0,0.0,0.0,0.0,1500,1500,0.0,0.0,40.0465805,-88.230792,0.0,0.0,0.0,0.0,0.0,0.0,0.0,0.0,0.0,0.0,0.0,0,0.0,0.0,0.0,0.0,90.0,90.0,90.0,90.20902252200001,90.145362854,89.6997299194,45.9840011597,7.4028892517,520.0999755859,0,2,25,1,165,74
56,1530214847566,1648566, RC,0,39.9586422891,-88.4448908703,0,0.0,0.0,0.0,0.0,0.0,0.0,0.0,0.0,0.0,0.0,0.0,0.0,0.0,1500,1500,0.0,0.0,40.0465805,-88.230792,0.0,0.0,0.0,0.0,0.0,0.0,0.0,0.0,0.0,0.0,0.0,0,0.0,0.0,0.0,0.0,90.0,90.0,90.0,90.20902252200001,90.145362854,89.6997299194,45.9840011597,7.4028892517,520.0999755859,0,2,25,1,158,75
57,1530214847617,1648617, RC,0,39.9586422891,-88.4448908703,0,0.0,0.0,0.0,0.0,0.0,0.0,0.0,0.0,0.0,0.0,0.0,0.0,0.0,1500,1500,0.0,0.0,40.0465805,-88.230792,0.0,0.0,0.0,0.0,0.0,0.0,0.0,0.0,0.0,0.0,0.0,0,0.0,0.0,0.0,0.0,90.0,90.0,90.0,90.20902252200001,90.145362854,89.6997299194,45.9840011597,7.4028892517,520.0999755859,0,2,25,1,147,77
58,1530214847667,1648667, RC,0,39.9586422891,-88.4448908703,0,0.0,0.0,0.0,0.0,0.0,0.0,0.0,0.0,0.0,0.0,0.0,0.0,0.0,1500,1500,0.0,0.0,40.0465805,-88.230792,0.0,0.0,0.0,0.0,0.0,0.0,0.0,0.0,0.0,0.0,0.0,0,0.0,0.0,0.0,0.0,90.0,90.0,90.0,90.20902252200001,90.145362854,89.6997299194,45.9840011597,7.4028892517,520.0999755859,0,2,25,1,142,78
59,1530214847718,1648718, RC,0,39.9586422891,-88.4448908703,0,0.0,0.0,0.0,0.0,0.0,0.0,0.0,0.0,0.0,0.0,0.0,0.0,0.0,1500,1500,0.0,0.0,40.0465805,-88.230792,0.0,0.0,0.0,0.0,0.0,0.0,0.0,0.0,0.0,0.0,0.0,0,0.0,0.0,0.0,0.0,90.0,90.0,90.0,90.20902252200001,90.145362854,89.6997299194,45.9840011597,7.4028892517,520.0999755859,0,2,25,1,143,80
60,1530214847769,1648769, RC,0,39.9586422891,-88.4448908703,0,0.0,0.0,0.0,0.0,0.0,0.0,0.0,0.0,0.0,0.0,0.0,0.0,0.0,1500,1500,0.0,0.0,40.0465805,-88.230792,0.0,0.0,0.0,0.0,0.0,0.0,0.0,0.0,0.0,0.0,0.0,0,0.0,0.0,0.0,0.0,90.0,90.0,90.0,90.20902252200001,89.9543762207,89.6997299194,45.9840011597,7.4031767845,521.25,0,2,25,1,174,81
61,1530214847819,1648819, RC,0,39.9586422891,-88.4448908703,0,0.0,0.0,0.0,0.0,0.0,0.0,0.0,0.0,0.0,0.0,0.0,0.0,0.0,1500,1500,0.0,0.0,40.0465805,-88.230792,0.0,0.0,0.0,0.0,0.0,0.0,0.0,0.0,0.0,0.0,0.0,0,0.0,0.0,0.0,0.0,90.0,90.0,90.0,90.20902252200001,89.9543762207,89.6997299194,45.9840011597,7.4031767845,521.25,0,2,25,1,150,83
62,1530214847870,1648870, RC,0,39.9586422891,-88.4448908703,0,0.0,0.0,0.0,0.0,0.0,0.0,0.0,0.0,0.0,0.0,0.0,0.0,0.0,1500,1500,0.0,0.0,40.0465805,-88.230792,0.0,0.0,0.0,0.0,0.0,0.0,0.0,0.0,0.0,0.0,0.0,0,0.0,0.0,0.0,0.0,90.0,90.0,90.0,90.20902252200001,90.01803588870001,89.6997299194,45.9840011597,7.4031767845,521.25,0,2,25,1,146,84
63,1530214847920,1648920, RC,0,39.9586422891,-88.4448908703,0,0.0,0.0,0.0,0.0,0.0,0.0,0.0,0.0,0.0,0.0,0.0,0.0,0.0,1500,1500,0.0,0.0,40.0465805,-88.230792,0.0,0.0,0.0,0.0,0.0,0.0,0.0,0.0,0.0,0.0,0.0,0,0.0,0.0,0.0,0.0,90.0,90.0,90.0,90.20902252200001,90.01803588870001,89.6997299194,45.9840011597,7.4031767845,521.25,0,2,25,1,156,86
64,1530214847971,1648971, RC,0,39.9586422891,-88.4448908703,0,0.0,0.0,0.0,0.0,0.0,0.0,0.0,0.0,0.0,0.0,0.0,0.0,0.0,1500,1500,0.0,0.0,40.0465805,-88.230792,0.0,0.0,0.0,0.0,0.0,0.0,0.0,0.0,0.0,0.0,0.0,0,0.0,0.0,0.0,0.0,90.0,90.0,90.0,90.20902252200001,90.01803588870001,89.6997299194,45.9840011597,7.4031767845,521.25,0,2,25,1,144,87
65,1530214848021,1649021, RC,0,39.9586422891,-88.4448908703,0,0.0,0.0,0.0,0.0,0.0,0.0,0.0,0.0,0.0,0.0,0.0,0.0,0.0,1500,1500,0.0,0.0,40.0465805,-88.230792,0.0,0.0,0.0,0.0,0.0,0.0,0.0,0.0,0.0,0.0,0.0,0,0.0,0.0,0.0,0.0,90.0,90.0,90.0,90.20902252200001,90.01803588870001,89.6997299194,45.9840011597,7.4031767845,521.25,0,2,25,1,151,89
66,1530214848072,1649072, RC,0,39.9586422891,-88.4448908703,0,0.0,0.0,0.0,0.0,0.0,0.0,0.0,0.0,0.0,0.0,0.0,0.0,0.0,1500,1500,0.0,0.0,40.0465805,-88.230792,0.0,0.0,0.0,0.0,0.0,0.0,0.0,0.0,0.0,0.0,0.0,0,0.0,0.0,0.0,0.0,90.0,90.0,90.0,90.20902252200001,90.01803588870001,89.6997299194,45.9840011597,7.4031767845,521.25,0,2,25,1,156,90
67,1530214848123,1649123, RC,0,39.9586422891,-88.4448908703,0,0.0,0.0,0.0,0.0,0.0,0.0,0.0,0.0,0.0,0.0,0.0,0.0,0.0,1500,1500,0.0,0.0,40.0465805,-88.230792,0.0,0.0,0.0,0.0,0.0,0.0,0.0,0.0,0.0,0.0,0.0,0,0.0,0.0,0.0,0.0,90.0,90.0,90.0,90.20902252200001,89.9543762207,89.6997299194,45.9840011597,7.4031767845,521.25,0,2,25,1,157,92
68,1530214848173,1649173, RC,0,39.9586422891,-88.4448908703,0,0.0,0.0,0.0,0.0,0.0,0.0,0.0,0.0,0.0,0.0,0.0,0.0,0.0,1500,1500,0.0,0.0,40.0465725,-88.230784,0.0,0.0,0.0,0.0,0.0,0.0,0.0,0.0,0.0,0.0,0.0,0,0.0,0.0,0.0,0.0,90.0,90.0,90.0,90.20902252200001,89.9543762207,89.6997299194,45.9840011597,7.4031767845,521.25,0,2,25,1,167,93
69,1530214848224,1649224, RC,0,39.9586422891,-88.4448908703,0,0.0,0.0,0.0,0.0,0.0,0.0,0.0,0.0,0.0,0.0,0.0,0.0,0.0,1500,1500,0.0,0.0,40.0465725,-88.230784,0.0,0.0,0.0,0.0,0.0,0.0,0.0,0.0,0.0,0.0,0.0,0,0.0,0.0,0.0,0.0,90.0,90.0,90.0,90.20902252200001,90.01803588870001,89.6997299194,45.9840011597,7.4031767845,521.25,0,2,25,1,104,95
70,1530214848274,1649274, RC,0,39.9586422891,-88.4448908703,0,0.0,0.0,0.0,0.0,0.0,0.0,0.0,0.0,0.0,0.0,0.0,0.0,0.0,1500,1500,0.0,0.0,40.0465725,-88.230784,0.0,0.0,0.0,0.0,0.0,0.0,0.0,0.0,0.0,0.0,0.0,0,0.0,0.0,0.0,0.0,90.0,90.0,90.0,90.20902252200001,89.9543762207,89.6997299194,45.9840011597,7.4031767845,521.25,0,2,25,1,132,96
71,1530214848325,1649325, RC,0,39.9586422891,-88.4448908703,0,0.0,0.0,0.0,0.0,0.0,0.0,0.0,0.0,0.0,0.0,0.0,0.0,0.0,1500,1500,0.0,0.0,40.0465725,-88.230784,0.0,0.0,0.0,0.0,0.0,0.0,0.0,0.0,0.0,0.0,0.0,0,0.0,0.0,0.0,0.0,90.0,90.0,90.0,90.20902252200001,90.01803588870001,89.6997299194,45.9840011597,7.4031767845,521.25,0,2,25,1,122,98
72,1530214848375,1649375, RC,0,39.9586422891,-88.4448908703,0,0.0,0.0,0.0,0.0,0.0,0.0,0.0,0.0,0.0,0.0,0.0,0.0,0.0,1500,1500,0.0,0.0,40.0465725,-88.230784,0.0,0.0,0.0,0.0,0.0,0.0,0.0,0.0,0.0,0.0,0.0,0,0.0,0.0,0.0,0.0,90.0,90.0,90.0,90.20902252200001,90.01803588870001,89.6997299194,45.9840011597,7.4031767845,521.25,0,2,25,1,131,99
73,1530214848426,1649426, RC,0,39.9586422891,-88.4448908703,0,0.0,0.0,0.0,0.0,0.0,0.0,0.0,0.0,0.0,0.0,0.0,0.0,0.0,1500,1500,0.0,0.0,40.0465725,-88.230784,0.0,0.0,0.0,0.0,0.0,0.0,0.0,0.0,0.0,0.0,0.0,0,0.0,0.0,0.0,0.0,90.0,90.0,90.0,90.20902252200001,90.01803588870001,89.6997299194,45.9840011597,7.4031767845,521.25,0,2,25,1,159,101
74,1530214848477,1649477, RC,0,39.9586422891,-88.4448908703,0,0.0,0.0,0.0,0.0,0.0,0.0,0.0,0.0,0.0,0.0,0.0,0.0,0.0,1500,1500,0.0,0.0,40.0465725,-88.230784,0.0,0.0,0.0,0.0,0.0,0.0,0.0,0.0,0.0,0.0,0.0,0,0.0,0.0,0.0,0.0,90.0,90.0,90.0,90.20902252200001,90.01803588870001,89.6997299194,45.9840011597,7.4031767845,521.25,0,2,25,1,143,102
75,1530214848527,1649527, RC,0,39.9586422891,-88.4448908703,0,0.0,0.0,0.0,0.0,0.0,0.0,0.0,0.0,0.0,0.0,0.0,0.0,0.0,1500,1500,0.0,0.0,40.0465725,-88.230784,0.0,0.0,0.0,0.0,0.0,0.0,0.0,0.0,0.0,0.0,0.0,0,0.0,0.0,0.0,0.0,90.0,90.0,90.0,90.20902252200001,90.01803588870001,89.6997299194,45.9840011597,7.4031767845,521.25,0,2,25,1,125,104
76,1530214848578,1649578, RC,0,39.9586422891,-88.4448908703,0,0.0,0.0,0.0,0.0,0.0,0.0,0.0,0.0,0.0,0.0,0.0,0.0,0.0,1500,1500,0.0,0.0,40.0465725,-88.230784,0.0,0.0,0.0,0.0,0.0,0.0,0.0,0.0,0.0,0.0,0.0,0,0.0,0.0,0.0,0.0,90.0,90.0,90.0,90.20902252200001,90.01803588870001,89.6997299194,45.9840011597,7.4031767845,521.25,0,2,25,1,137,105
77,1530214848628,1649628, RC,0,39.9586422891,-88.4448908703,0,0.0,0.0,0.0,0.0,0.0,0.0,0.0,0.0,0.0,0.0,0.0,0.0,0.0,1500,1500,0.0,0.0,40.0465725,-88.230784,0.0,0.0,0.0,0.0,0.0,0.0,0.0,0.0,0.0,0.0,0.0,0,0.0,0.0,0.0,0.0,90.0,90.0,90.0,90.20902252200001,89.9543762207,89.6997299194,45.9840011597,7.4031767845,521.25,0,2,25,1,158,107
78,1530214848679,1649679, RC,0,39.9586422891,-88.4448908703,0,0.0,0.0,0.0,0.0,0.0,0.0,0.0,0.0,0.0,0.0,0.0,0.0,0.0,1500,1500,0.0,0.0,40.0465725,-88.230784,0.0,0.0,0.0,0.0,0.0,0.0,0.0,0.0,0.0,0.0,0.0,0,0.0,0.0,0.0,0.0,90.0,90.0,90.0,90.20902252200001,89.9543762207,89.6997299194,45.9840011597,7.4031767845,521.25,0,2,25,1,167,108
79,1530214848730,1649730, RC,0,39.9586422891,-88.4448908703,0,0.0,0.0,0.0,0.0,0.0,0.0,0.0,0.0,0.0,0.0,0.0,0.0,0.0,1500,1500,0.0,0.0,40.0465725,-88.230784,0.0,0.0,0.0,0.0,0.0,0.0,0.0,0.0,0.0,0.0,0.0,0,0.0,0.0,0.0,0.0,90.0,90.0,90.0,90.20902252200001,89.9543762207,89.6997299194,45.9840011597,7.4030976295,521.0399780273,0,2,25,1,148,110
80,1530214848780,1649780, RC,0,39.9586422891,-88.4448908703,0,0.0,0.0,0.0,0.0,0.0,0.0,0.0,0.0,0.0,0.0,0.0,0.0,0.0,1500,1500,0.0,0.0,40.0465725,-88.230784,0.0,0.0,0.0,0.0,0.0,0.0,0.0,0.0,0.0,0.0,0.0,0,0.0,0.0,0.0,0.0,90.0,90.0,90.0,90.20902252200001,90.01803588870001,89.6997299194,45.9840011597,7.4030976295,521.0399780273,0,2,25,1,134,111
81,1530214848831,1649831, RC,0,39.9586422891,-88.4448908703,0,0.0,0.0,0.0,0.0,0.0,0.0,0.0,0.0,0.0,0.0,0.0,0.0,0.0,1500,1500,0.0,0.0,40.0465725,-88.230784,0.0,0.0,0.0,0.0,0.0,0.0,0.0,0.0,0.0,0.0,0.0,0,0.0,0.0,0.0,0.0,90.0,90.0,90.0,90.20902252200001,90.01803588870001,89.6997299194,45.9840011597,7.4030976295,521.0399780273,0,2,25,1,132,113
82,1530214848881,1649881, RC,0,39.9586422891,-88.4448908703,0,0.0,0.0,0.0,0.0,0.0,0.0,0.0,0.0,0.0,0.0,0.0,0.0,0.0,1500,1500,0.0,0.0,40.0465725,-88.230784,0.0,0.0,0.0,0.0,0.0,0.0,0.0,0.0,0.0,0.0,0.0,0,0.0,0.0,0.0,0.0,90.0,90.0,90.0,90.20902252200001,90.01803588870001,89.6997299194,45.9840011597,7.4030976295,521.0399780273,0,2,25,1,152,114
83,1530214848932,1649932, RC,0,39.9586422891,-88.4448908703,0,0.0,0.0,0.0,0.0,0.0,0.0,0.0,0.0,0.0,0.0,0.0,0.0,0.0,1500,1500,0.0,0.0,40.0465725,-88.230784,0.0,0.0,0.0,0.0,0.0,0.0,0.0,0.0,0.0,0.0,0.0,0,0.0,0.0,0.0,0.0,90.0,90.0,90.0,90.20902252200001,90.01803588870001,89.6997299194,45.9840011597,7.4030976295,521.0399780273,0,2,25,1,171,116
84,1530214848982,1649982, RC,0,39.9586422891,-88.4448908703,0,0.0,0.0,0.0,0.0,0.0,0.0,0.0,0.0,0.0,0.0,0.0,0.0,0.0,1500,1500,0.0,0.0,40.0465725,-88.230784,0.0,0.0,0.0,0.0,0.0,0.0,0.0,0.0,0.0,0.0,0.0,0,0.0,0.0,0.0,0.0,90.0,90.0,90.0,90.20902252200001,90.01803588870001,89.6997299194,45.9840011597,7.4030976295,521.0399780273,0,2,25,1,155,117
85,1530214849033,1650033, RC,0,39.9586422891,-88.4448908703,0,0.0,0.0,0.0,0.0,0.0,0.0,0.0,0.0,0.0,0.0,0.0,0.0,0.0,1500,1500,0.0,0.0,40.0465725,-88.230784,0.0,0.0,0.0,0.0,0.0,0.0,0.0,0.0,0.0,0.0,0.0,0,0.0,0.0,0.0,0.0,90.0,90.0,90.0,90.20902252200001,90.01803588870001,89.6997299194,45.9840011597,7.4030976295,521.0399780273,0,2,25,1,130,119
86,1530214849084,1650084, RC,0,39.9586422891,-88.4448908703,0,0.0,0.0,0.0,0.0,0.0,0.0,0.0,0.0,0.0,0.0,0.0,0.0,0.0,1500,1500,0.0,0.0,40.0465725,-88.230784,0.0,0.0,0.0,0.0,0.0,0.0,0.0,0.0,0.0,0.0,0.0,0,0.0,0.0,0.0,0.0,90.0,90.0,90.0,90.20902252200001,90.01803588870001,89.6997299194,45.9840011597,7.4030976295,521.0399780273,0,2,25,1,157,121
87,1530214849134,1650134, RC,0,39.9586422891,-88.4448908703,0,0.0,0.0,0.0,0.0,0.0,0.0,0.0,0.0,0.0,0.0,0.0,0.0,0.0,1500,1500,0.0,0.0,40.0465725,-88.230784,0.0,0.0,0.0,0.0,0.0,0.0,0.0,0.0,0.0,0.0,0.0,0,0.0,0.0,0.0,0.0,90.0,90.0,90.0,90.20902252200001,90.01803588870001,89.6997299194,45.9840011597,7.4030976295,521.0399780273,0,2,25,1,137,123
88,1530214849185,1650185, RC,0,39.9586422891,-88.4448908703,0,0.0,0.0,0.0,0.0,0.0,0.0,0.0,0.0,0.0,0.0,0.0,0.0,0.0,1500,1500,0.0,0.0,40.046563,-88.2307696667,0.0,0.0,0.0,0.0,0.0,0.0,0.0,0.0,0.0,0.0,0.0,0,0.0,0.0,0.0,0.0,90.0,90.0,90.0,90.20902252200001,90.01803588870001,89.6997299194,45.9840011597,7.4030976295,521.0399780273,0,2,25,1,154,124
89,1530214849235,1650235, RC,0,39.9586422891,-88.4448908703,0,0.0,0.0,0.0,0.0,0.0,0.0,0.0,0.0,0.0,0.0,0.0,0.0,0.0,1500,1500,0.0,0.0,40.046563,-88.2307696667,0.0,0.0,0.0,0.0,0.0,0.0,0.0,0.0,0.0,0.0,0.0,0,0.0,0.0,0.0,0.0,90.0,90.0,90.0,90.20902252200001,90.01803588870001,89.6997299194,45.9840011597,7.4030976295,521.0399780273,0,2,25,1,159,125
90,1530214849286,1650286, RC,0,39.9586422891,-88.4448908703,0,0.0,0.0,0.0,0.0,0.0,0.0,0.0,0.0,0.0,0.0,0.0,0.0,0.0,1500,1500,0.0,0.0,40.046563,-88.2307696667,0.0,0.0,0.0,0.0,0.0,0.0,0.0,0.0,0.0,0.0,0.0,0,0.0,0.0,0.0,0.0,90.0,90.0,90.0,90.20902252200001,90.01803588870001,89.6997299194,45.9840011597,7.4030976295,521.0399780273,0,2,25,1,163,127
91,1530214849337,1650337, RC,0,39.9586422891,-88.4448908703,0,0.0,0.0,0.0,0.0,0.0,0.0,0.0,0.0,0.0,0.0,0.0,0.0,0.0,1500,1500,0.0,0.0,40.046563,-88.2307696667,0.0,0.0,0.0,0.0,0.0,0.0,0.0,0.0,0.0,0.0,0.0,0,0.0,0.0,0.0,0.0,90.0,90.0,90.0,90.20902252200001,90.01803588870001,89.6997299194,45.9840011597,7.4030976295,521.0399780273,0,2,25,1,149,128
92,1530214849387,1650387, RC,0,39.9586422891,-88.4448908703,0,0.0,0.0,0.0,0.0,0.0,0.0,0.0,0.0,0.0,0.0,0.0,0.0,0.0,1500,1500,0.0,0.0,40.046563,-88.2307696667,0.0,0.0,0.0,0.0,0.0,0.0,0.0,0.0,0.0,0.0,0.0,0,0.0,0.0,0.0,0.0,90.0,90.0,90.0,90.20902252200001,90.0816955566,89.6997299194,45.9840011597,7.4030976295,521.0399780273,0,2,25,1,123,129
93,1530214849438,1650438, RC,0,39.9586422891,-88.4448908703,0,0.0,0.0,0.0,0.0,0.0,0.0,0.0,0.0,0.0,0.0,0.0,0.0,0.0,1500,1500,0.0,0.0,40.046563,-88.2307696667,0.0,0.0,0.0,0.0,0.0,0.0,0.0,0.0,0.0,0.0,0.0,0,0.0,0.0,0.0,0.0,90.0,90.0,90.0,90.20902252200001,90.01803588870001,89.6997299194,45.9840011597,7.4030976295,521.0399780273,0,2,25,1,123,130
94,1530214849488,1650488, RC,0,39.9586422891,-88.4448908703,0,0.0,0.0,0.0,0.0,0.0,0.0,0.0,0.0,0.0,0.0,0.0,0.0,0.0,1500,1500,0.0,0.0,40.046563,-88.2307696667,0.0,0.0,0.0,0.0,0.0,0.0,0.0,0.0,0.0,0.0,0.0,0,0.0,0.0,0.0,0.0,90.0,90.0,90.0,90.20902252200001,90.01803588870001,89.6997299194,45.9840011597,7.4030976295,521.0399780273,0,2,25,1,153,131
95,1530214849539,1650539, RC,0,39.9586422891,-88.4448908703,0,0.0,0.0,0.0,0.0,0.0,0.0,0.0,0.0,0.0,0.0,0.0,0.0,0.0,1500,1500,0.0,0.0,40.046563,-88.2307696667,0.0,0.0,0.0,0.0,0.0,0.0,0.0,0.0,0.0,0.0,0.0,0,0.0,0.0,0.0,0.0,90.0,90.0,90.0,90.20902252200001,90.01803588870001,89.6997299194,45.9840011597,7.4030976295,521.0399780273,0,2,25,1,157,132
96,1530214849589,1650589, RC,0,39.9586422891,-88.4448908703,0,0.0,0.0,0.0,0.0,0.0,0.0,0.0,0.0,0.0,0.0,0.0,0.0,0.0,1500,1500,0.0,0.0,40.046563,-88.2307696667,0.0,0.0,0.0,0.0,0.0,0.0,0.0,0.0,0.0,0.0,0.0,0,0.0,0.0,0.0,0.0,90.0,90.0,90.0,90.20902252200001,90.01803588870001,89.6997299194,45.9840011597,7.4030976295,521.0399780273,0,2,25,1,150,133
97,1530214849640,1650640, RC,0,39.9586422891,-88.4448908703,0,0.0,0.0,0.0,0.0,0.0,0.0,0.0,0.0,0.0,0.0,0.0,0.0,0.0,1500,1500,0.0,0.0,40.046563,-88.2307696667,0.0,0.0,0.0,0.0,0.0,0.0,0.0,0.0,0.0,0.0,0.0,0,0.0,0.0,0.0,0.0,90.0,90.0,90.0,90.20902252200001,90.01803588870001,89.6997299194,45.9840011597,7.4030976295,521.0399780273,0,2,25,1,154,134
98,1530214849691,1650691, RC,0,39.9586422891,-88.4448908703,0,0.0,0.0,0.0,0.0,0.0,0.0,0.0,0.0,0.0,0.0,0.0,0.0,0.0,1500,1500,0.0,0.0,40.046563,-88.2307696667,0.0,0.0,0.0,0.0,0.0,0.0,0.0,0.0,0.0,0.0,0.0,0,0.0,0.0,0.0,0.0,90.0,90.0,90.0,90.20902252200001,90.01803588870001,89.6997299194,45.9840011597,7.4030976295,521.0399780273,0,2,25,1,170,136
99,1530214849741,1650741, RC,0,39.9586422891,-88.4448908703,0,0.0,0.0,0.0,0.0,0.0,0.0,0.0,0.0,0.0,0.0,0.0,0.0,0.0,1500,1500,0.0,0.0,40.046563,-88.2307696667,0.0,0.0,0.0,0.0,0.0,0.0,0.0,0.0,0.0,0.0,0.0,0,0.0,0.0,0.0,0.0,90.0,90.0,90.0,90.20902252200001,90.0816955566,89.6997299194,45.9840011597,7.402999877899999,521.0300292969,0,2,25,1,120,138
100,1530214849792,1650792, RC,0,39.9586422891,-88.4448908703,0,0.0,0.0,0.0,0.0,0.0,0.0,0.0,0.0,0.0,0.0,0.0,0.0,0.0,1500,1500,0.0,0.0,40.046563,-88.2307696667,0.0,0.0,0.0,0.0,0.0,0.0,0.0,0.0,0.0,0.0,0.0,0,0.0,0.0,0.0,0.0,90.0,90.0,90.0,90.20902252200001,90.0816955566,89.6997299194,45.9840011597,7.402999877899999,521.0300292969,0,2,25,1,126,139
101,1530214849843,1650843, RC,0,39.9586422891,-88.4448908703,0,0.0,0.0,0.0,0.0,0.0,0.0,0.0,0.0,0.0,0.0,0.0,0.0,0.0,1500,1500,0.0,0.0,40.046563,-88.2307696667,0.0,0.0,0.0,0.0,0.0,0.0,0.0,0.0,0.0,0.0,0.0,0,0.0,0.0,0.0,0.0,90.0,90.0,90.0,90.20902252200001,90.0816955566,89.6997299194,45.9840011597,7.402999877899999,521.0300292969,0,2,25,1,165,141
102,1530214849893,1650893, RC,0,39.9586422891,-88.4448908703,0,0.0,0.0,0.0,0.0,0.0,0.0,0.0,0.0,0.0,0.0,0.0,0.0,0.0,1500,1500,0.0,0.0,40.046563,-88.2307696667,0.0,0.0,0.0,0.0,0.0,0.0,0.0,0.0,0.0,0.0,0.0,0,0.0,0.0,0.0,0.0,90.0,90.0,90.0,90.20902252200001,90.0816955566,89.6997299194,45.9840011597,7.402999877899999,521.0300292969,0,2,25,1,154,142
103,1530214849944,1650944, RC,0,39.9586422891,-88.4448908703,0,0.0,0.0,0.0,0.0,0.0,0.0,0.0,0.0,0.0,0.0,0.0,0.0,0.0,1500,1500,0.0,0.0,40.046563,-88.2307696667,0.0,0.0,0.0,0.0,0.0,0.0,0.0,0.0,0.0,0.0,0.0,0,0.0,0.0,0.0,0.0,90.0,90.0,90.0,90.20902252200001,90.0816955566,89.6997299194,45.9840011597,7.402999877899999,521.0300292969,0,2,25,1,147,144
104,1530214849994,1650994, RC,0,39.9586422891,-88.4448908703,0,0.0,0.0,0.0,0.0,0.0,0.0,0.0,0.0,0.0,0.0,0.0,0.0,0.0,1500,1500,0.0,0.0,40.046563,-88.2307696667,0.0,0.0,0.0,0.0,0.0,0.0,0.0,0.0,0.0,0.0,0.0,0,0.0,0.0,0.0,0.0,90.0,90.0,90.0,90.20902252200001,90.0816955566,89.6997299194,45.9840011597,7.402999877899999,521.0300292969,0,2,25,1,146,145
105,1530214850045,1651045, RC,0,39.9586422891,-88.4448908703,0,0.0,0.0,0.0,0.0,0.0,0.0,0.0,0.0,0.0,0.0,0.0,0.0,0.0,1500,1500,0.0,0.0,40.046563,-88.2307696667,0.0,0.0,0.0,0.0,0.0,0.0,0.0,0.0,0.0,0.0,0.0,0,0.0,0.0,0.0,0.0,90.0,90.0,90.0,90.20902252200001,90.0816955566,89.6997299194,45.9840011597,7.402999877899999,521.0300292969,0,2,25,1,179,146
106,1530214850096,1651096, RC,0,39.9586422891,-88.4448908703,0,0.0,0.0,0.0,0.0,0.0,0.0,0.0,0.0,0.0,0.0,0.0,0.0,0.0,1500,1500,0.0,0.0,40.046563,-88.2307696667,0.0,0.0,0.0,0.0,0.0,0.0,0.0,0.0,0.0,0.0,0.0,0,0.0,0.0,0.0,0.0,90.0,90.0,90.0,90.20902252200001,90.0816955566,89.6997299194,45.9840011597,7.402999877899999,521.0300292969,0,2,25,1,158,147
107,1530214850146,1651146, RC,0,39.9586422891,-88.4448908703,0,0.0,0.0,0.0,0.0,0.0,0.0,0.0,0.0,0.0,0.0,0.0,0.0,0.0,1500,1500,0.0,0.0,40.0465641667,-88.2307651667,0.0,0.0,0.0,0.0,0.0,0.0,0.0,0.0,0.0,0.0,0.0,0,0.0,0.0,0.0,0.0,90.0,90.0,90.0,90.20902252200001,90.0816955566,89.6997299194,45.9840011597,7.402999877899999,521.0300292969,0,2,25,1,147,148
108,1530214850197,1651197, RC,0,39.9586422891,-88.4448908703,0,0.0,0.0,0.0,0.0,0.0,0.0,0.0,0.0,0.0,0.0,0.0,0.0,0.0,1500,1500,0.0,0.0,40.0465641667,-88.2307651667,0.0,0.0,0.0,0.0,0.0,0.0,0.0,0.0,0.0,0.0,0.0,0,0.0,0.0,0.0,0.0,90.0,90.0,90.0,90.20902252200001,90.0816955566,89.6997299194,45.9840011597,7.402999877899999,521.0300292969,0,2,25,1,173,149
109,1530214850247,1651247, RC,0,39.9586422891,-88.4448908703,0,0.0,0.0,0.0,0.0,0.0,0.0,0.0,0.0,0.0,0.0,0.0,0.0,0.0,1500,1500,0.0,0.0,40.0465641667,-88.2307651667,0.0,0.0,0.0,0.0,0.0,0.0,0.0,0.0,0.0,0.0,0.0,0,0.0,0.0,0.0,0.0,90.0,90.0,90.0,90.20902252200001,90.0816955566,89.6997299194,45.9840011597,7.402999877899999,521.0300292969,0,2,25,1,159,150
110,1530214850298,1651298, RC,0,39.9586422891,-88.4448908703,0,0.0,0.0,0.0,0.0,0.0,0.0,0.0,0.0,0.0,0.0,0.0,0.0,0.0,1500,1500,0.0,0.0,40.0465641667,-88.2307651667,0.0,0.0,0.0,0.0,0.0,0.0,0.0,0.0,0.0,0.0,0.0,0,0.0,0.0,0.0,0.0,90.0,90.0,90.0,90.20902252200001,90.0816955566,89.6997299194,45.9840011597,7.402999877899999,521.0300292969,0,2,25,1,151,151
111,1530214850348,1651348, RC,0,39.9586422891,-88.4448908703,0,0.0,0.0,0.0,0.0,0.0,0.0,0.0,0.0,0.0,0.0,0.0,0.0,0.0,1500,1500,0.0,0.0,40.0465641667,-88.2307651667,0.0,0.0,0.0,0.0,0.0,0.0,0.0,0.0,0.0,0.0,0.0,0,0.0,0.0,0.0,0.0,90.0,90.0,90.0,90.20902252200001,90.0816955566,89.6997299194,45.9840011597,7.402999877899999,521.0300292969,0,2,25,1,143,152
112,1530214850399,1651399, RC,0,39.9586422891,-88.4448908703,0,0.0,0.0,0.0,0.0,0.0,0.0,0.0,0.0,0.0,0.0,0.0,0.0,0.0,1500,1500,0.0,0.0,40.0465641667,-88.2307651667,0.0,0.0,0.0,0.0,0.0,0.0,0.0,0.0,0.0,0.0,0.0,0,0.0,0.0,0.0,0.0,90.0,90.0,90.0,90.20902252200001,90.0816955566,89.6997299194,45.9840011597,7.402999877899999,521.0300292969,0,2,25,1,175,153
113,1530214850450,1651450, RC,0,39.9586422891,-88.4448908703,0,0.0,0.0,0.0,0.0,0.0,0.0,0.0,0.0,0.0,0.0,0.0,0.0,0.0,1500,1500,0.0,0.0,40.0465641667,-88.2307651667,0.0,0.0,0.0,0.0,0.0,0.0,0.0,0.0,0.0,0.0,0.0,0,0.0,0.0,0.0,0.0,90.0,90.0,90.0,90.20902252200001,90.0816955566,89.6997299194,45.9840011597,7.402999877899999,521.0300292969,0,2,25,1,171,154
114,1530214850500,1651500, RC,0,39.9586422891,-88.4448908703,0,0.0,0.0,0.0,0.0,0.0,0.0,0.0,0.0,0.0,0.0,0.0,0.0,0.0,1500,1500,0.0,0.0,40.0465641667,-88.2307651667,0.0,0.0,0.0,0.0,0.0,0.0,0.0,0.0,0.0,0.0,0.0,0,0.0,0.0,0.0,0.0,90.0,90.0,90.0,90.20902252200001,90.0816955566,89.6997299194,45.9840011597,7.402999877899999,521.0300292969,0,2,25,1,139,155
115,1530214850551,1651551, RC,0,39.9586422891,-88.4448908703,0,0.0,0.0,0.0,0.0,0.0,0.0,0.0,0.0,0.0,0.0,0.0,0.0,0.0,1500,1500,0.0,0.0,40.0465641667,-88.2307651667,0.0,0.0,0.0,0.0,0.0,0.0,0.0,0.0,0.0,0.0,0.0,0,0.0,0.0,0.0,0.0,90.0,90.0,90.0,90.20902252200001,90.0816955566,89.6997299194,45.9840011597,7.402999877899999,521.0300292969,0,2,25,1,131,156
116,1530214850601,1651601, RC,0,39.9586422891,-88.4448908703,0,0.0,0.0,0.0,0.0,0.0,0.0,0.0,0.0,0.0,0.0,0.0,0.0,0.0,1500,1500,0.0,0.0,40.0465641667,-88.2307651667,0.0,0.0,0.0,0.0,0.0,0.0,0.0,0.0,0.0,0.0,0.0,0,0.0,0.0,0.0,0.0,90.0,90.0,90.0,90.20902252200001,90.0816955566,89.6997299194,45.9840011597,7.402999877899999,521.0300292969,0,2,25,1,116,157
117,1530214850652,1651652, RC,0,39.9586422891,-88.4448908703,0,0.0,0.0,0.0,0.0,0.0,0.0,0.0,0.0,0.0,0.0,0.0,0.0,0.0,1500,1500,0.0,0.0,40.0465641667,-88.2307651667,0.0,0.0,0.0,0.0,0.0,0.0,0.0,0.0,0.0,0.0,0.0,0,0.0,0.0,0.0,0.0,90.0,90.0,90.0,90.20902252200001,90.0816955566,89.6997299194,45.9840011597,7.402999877899999,521.0300292969,0,2,25,1,144,159
118,1530214850702,1651702, RC,0,39.9586422891,-88.4448908703,0,0.0,0.0,0.0,0.0,0.0,0.0,0.0,0.0,0.0,0.0,0.0,0.0,0.0,1500,1500,0.0,0.0,40.0465641667,-88.2307651667,0.0,0.0,0.0,0.0,0.0,0.0,0.0,0.0,0.0,0.0,0.0,0,0.0,0.0,0.0,0.0,90.0,90.0,90.0,90.20902252200001,90.0816955566,89.6997299194,45.9840011597,7.402999877899999,521.0300292969,0,2,25,1,152,160
119,1530214850753,1651753, RC,0,39.9586422891,-88.4448908703,0,0.0,0.0,0.0,0.0,0.0,0.0,0.0,0.0,0.0,0.0,0.0,0.0,0.0,1500,1500,0.0,0.0,40.0465641667,-88.2307651667,0.0,0.0,0.0,0.0,0.0,0.0,0.0,0.0,0.0,0.0,0.0,0,0.0,0.0,0.0,0.0,90.0,90.0,90.0,90.20902252200001,90.0816955566,89.6997299194,45.9840011597,7.4032044411,520.9799804688,0,2,25,1,147,161
120,1530214850804,1651804, RC,0,39.9586422891,-88.4448908703,0,0.0,0.0,0.0,0.0,0.0,0.0,0.0,0.0,0.0,0.0,0.0,0.0,0.0,1500,1500,0.0,0.0,40.0465641667,-88.2307651667,0.0,0.0,0.0,0.0,0.0,0.0,0.0,0.0,0.0,0.0,0.0,0,0.0,0.0,0.0,0.0,90.0,90.0,90.0,90.145362854,90.0816955566,89.6997299194,45.9840011597,7.4032044411,520.9799804688,0,2,25,1,152,162
121,1530214850854,1651854, RC,0,39.9586422891,-88.4448908703,0,0.0,0.0,0.0,0.0,0.0,0.0,0.0,0.0,0.0,0.0,0.0,0.0,0.0,1500,1500,0.0,0.0,40.0465641667,-88.2307651667,0.0,0.0,0.0,0.0,0.0,0.0,0.0,0.0,0.0,0.0,0.0,0,0.0,0.0,0.0,0.0,90.0,90.0,90.0,90.145362854,90.0816955566,89.6997299194,45.9840011597,7.4032044411,520.9799804688,0,2,25,1,150,163
122,1530214850905,1651905, RC,0,39.9586422891,-88.4448908703,0,0.0,0.0,0.0,0.0,0.0,0.0,0.0,0.0,0.0,0.0,0.0,0.0,0.0,1500,1500,0.0,0.0,40.0465641667,-88.2307651667,0.0,0.0,0.0,0.0,0.0,0.0,0.0,0.0,0.0,0.0,0.0,0,0.0,0.0,0.0,0.0,90.0,90.0,90.0,90.145362854,90.0816955566,89.6997299194,45.9840011597,7.4032044411,520.9799804688,0,2,25,1,149,164
123,1530214850956,1651956, RC,0,39.9586422891,-88.4448908703,0,0.0,0.0,0.0,0.0,0.0,0.0,0.0,0.0,0.0,0.0,0.0,0.0,0.0,1500,1500,0.0,0.0,40.0465641667,-88.2307651667,0.0,0.0,0.0,0.0,0.0,0.0,0.0,0.0,0.0,0.0,0.0,0,0.0,0.0,0.0,0.0,90.0,90.0,90.0,90.0816955566,90.0816955566,89.6997299194,45.9840011597,7.4032044411,520.9799804688,0,2,25,1,163,165
124,1530214851006,1652006, RC,0,39.9586422891,-88.4448908703,0,0.0,0.0,0.0,0.0,0.0,0.0,0.0,0.0,0.0,0.0,0.0,0.0,0.0,1500,1500,0.0,0.0,40.0465641667,-88.2307651667,0.0,0.0,0.0,0.0,0.0,0.0,0.0,0.0,0.0,0.0,0.0,0,0.0,0.0,0.0,0.0,90.0,90.0,90.0,90.0816955566,90.0816955566,89.6997299194,45.9840011597,7.4032044411,520.9799804688,0,2,25,1,175,167
125,1530214851057,1652057, RC,0,39.9586422891,-88.4448908703,0,0.0,0.0,0.0,0.0,0.0,0.0,0.0,0.0,0.0,0.0,0.0,0.0,0.0,1500,1500,0.0,0.0,40.0465641667,-88.2307651667,0.0,0.0,0.0,0.0,0.0,0.0,0.0,0.0,0.0,0.0,0.0,0,0.0,0.0,0.0,0.0,90.0,90.0,90.0,90.0816955566,90.0816955566,89.6997299194,45.9840011597,7.4032044411,520.9799804688,0,2,25,1,153,168
126,1530214851107,1652107, RC,0,39.9586422891,-88.4448908703,0,0.0,0.0,0.0,0.0,0.0,0.0,0.0,0.0,0.0,0.0,0.0,0.0,0.0,1500,1500,0.0,0.0,40.0465641667,-88.2307651667,0.0,0.0,0.0,0.0,0.0,0.0,0.0,0.0,0.0,0.0,0.0,0,0.0,0.0,0.0,0.0,90.0,90.0,90.0,90.0816955566,90.0816955566,89.6997299194,45.9840011597,7.4032044411,520.9799804688,0,2,25,1,144,170
127,1530214851158,1652158, RC,0,39.9586422891,-88.4448908703,0,0.0,0.0,0.0,0.0,0.0,0.0,0.0,0.0,0.0,0.0,0.0,0.0,0.0,1500,1500,0.0,0.0,40.0465641667,-88.2307651667,0.0,0.0,0.0,0.0,0.0,0.0,0.0,0.0,0.0,0.0,0.0,0,0.0,0.0,0.0,0.0,90.0,90.0,90.0,90.0816955566,90.0816955566,89.6997299194,45.9840011597,7.4032044411,520.9799804688,0,2,25,1,147,171
128,1530214851209,1652209, RC,0,39.9586422891,-88.4448908703,0,0.0,0.0,0.0,0.0,0.0,0.0,0.0,0.0,0.0,0.0,0.0,0.0,0.0,1500,1500,0.0,0.0,40.046559,-88.2307616667,0.0,0.0,0.0,0.0,0.0,0.0,0.0,0.0,0.0,0.0,0.0,0,0.0,0.0,0.0,0.0,90.0,90.0,90.0,90.0816955566,90.0816955566,89.6997299194,45.9840011597,7.4032044411,520.9799804688,0,2,25,1,145,173
129,1530214851259,1652259, RC,0,39.9586422891,-88.4448908703,0,0.0,0.0,0.0,0.0,0.0,0.0,0.0,0.0,0.0,0.0,0.0,0.0,0.0,1500,1500,0.0,0.0,40.046559,-88.2307616667,0.0,0.0,0.0,0.0,0.0,0.0,0.0,0.0,0.0,0.0,0.0,0,0.0,0.0,0.0,0.0,90.0,90.0,90.0,90.0816955566,90.145362854,89.6997299194,45.9840011597,7.4032044411,520.9799804688,0,2,25,1,141,174
130,1530214851310,1652310, RC,0,39.9586422891,-88.4448908703,0,0.0,0.0,0.0,0.0,0.0,0.0,0.0,0.0,0.0,0.0,0.0,0.0,0.0,1500,1500,0.0,0.0,40.046559,-88.2307616667,0.0,0.0,0.0,0.0,0.0,0.0,0.0,0.0,0.0,0.0,0.0,0,0.0,0.0,0.0,0.0,90.0,90.0,90.0,90.0816955566,90.145362854,89.6997299194,45.9840011597,7.4032044411,520.9799804688,0,2,25,1,131,176
131,1530214851360,1652360, RC,0,39.9586422891,-88.4448908703,0,0.0,0.0,0.0,0.0,0.0,0.0,0.0,0.0,0.0,0.0,0.0,0.0,0.0,1500,1500,0.0,0.0,40.046559,-88.2307616667,0.0,0.0,0.0,0.0,0.0,0.0,0.0,0.0,0.0,0.0,0.0,0,0.0,0.0,0.0,0.0,90.0,90.0,90.0,90.0816955566,90.145362854,89.6997299194,45.9840011597,7.4032044411,520.9799804688,0,2,25,1,152,177
132,1530214851411,1652411, RC,0,39.9586422891,-88.4448908703,0,0.0,0.0,0.0,0.0,0.0,0.0,0.0,0.0,0.0,0.0,0.0,0.0,0.0,1500,1500,0.0,0.0,40.046559,-88.2307616667,0.0,0.0,0.0,0.0,0.0,0.0,0.0,0.0,0.0,0.0,0.0,0,0.0,0.0,0.0,0.0,90.0,90.0,90.0,90.0816955566,90.145362854,89.6997299194,45.9840011597,7.4032044411,520.9799804688,0,2,25,1,155,179
133,1530214851461,1652461, RC,0,39.9586422891,-88.4448908703,0,0.0,0.0,0.0,0.0,0.0,0.0,0.0,0.0,0.0,0.0,0.0,0.0,0.0,1500,1500,0.0,0.0,40.046559,-88.2307616667,0.0,0.0,0.0,0.0,0.0,0.0,0.0,0.0,0.0,0.0,0.0,0,0.0,0.0,0.0,0.0,90.0,90.0,90.0,90.0816955566,90.145362854,89.6997299194,45.9840011597,7.4032044411,520.9799804688,0,2,25,1,143,181
134,1530214851512,1652512, RC,0,39.9586422891,-88.4448908703,0,0.0,0.0,0.0,0.0,0.0,0.0,0.0,0.0,0.0,0.0,0.0,0.0,0.0,1500,1500,0.0,0.0,40.046559,-88.2307616667,0.0,0.0,0.0,0.0,0.0,0.0,0.0,0.0,0.0,0.0,0.0,0,0.0,0.0,0.0,0.0,90.0,90.0,90.0,90.0816955566,90.0816955566,89.6997299194,45.9840011597,7.4032044411,520.9799804688,0,2,25,1,135,182
135,1530214851563,1652563, RC,0,39.9586422891,-88.4448908703,0,0.0,0.0,0.0,0.0,0.0,0.0,0.0,0.0,0.0,0.0,0.0,0.0,0.0,1500,1500,0.0,0.0,40.046559,-88.2307616667,0.0,0.0,0.0,0.0,0.0,0.0,0.0,0.0,0.0,0.0,0.0,0,0.0,0.0,0.0,0.0,90.0,90.0,90.0,90.0816955566,90.0816955566,89.6997299194,45.9840011597,7.4032044411,520.9799804688,0,2,25,1,148,183
136,1530214851613,1652613, RC,0,39.9586422891,-88.4448908703,0,0.0,0.0,0.0,0.0,0.0,0.0,0.0,0.0,0.0,0.0,0.0,0.0,0.0,1500,1500,0.0,0.0,40.046559,-88.2307616667,0.0,0.0,0.0,0.0,0.0,0.0,0.0,0.0,0.0,0.0,0.0,0,0.0,0.0,0.0,0.0,90.0,90.0,90.0,90.0816955566,90.0816955566,89.6997299194,45.9840011597,7.4032044411,520.9799804688,0,2,25,1,124,185
137,1530214851664,1652664, RC,0,39.9586422891,-88.4448908703,0,0.0,0.0,0.0,0.0,0.0,0.0,0.0,0.0,0.0,0.0,0.0,0.0,0.0,1500,1500,0.0,0.0,40.046559,-88.2307616667,0.0,0.0,0.0,0.0,0.0,0.0,0.0,0.0,0.0,0.0,0.0,0,0.0,0.0,0.0,0.0,90.0,90.0,90.0,90.0816955566,90.0816955566,89.6997299194,45.9840011597,7.4032044411,520.9799804688,0,2,25,1,129,186
138,1530214851714,1652714, RC,0,39.9586422891,-88.4448908703,0,0.0,0.0,0.0,0.0,0.0,0.0,0.0,0.0,0.0,0.0,0.0,0.0,0.0,1500,1500,0.0,0.0,40.046559,-88.2307616667,0.0,0.0,0.0,0.0,0.0,0.0,0.0,0.0,0.0,0.0,0.0,0,0.0,0.0,0.0,0.0,90.0,90.0,90.0,90.0816955566,90.145362854,89.6997299194,45.9840011597,7.4032044411,520.9799804688,0,2,25,1,162,188
139,1530214851765,1652765, RC,0,39.9586422891,-88.4448908703,0,0.0,0.0,0.0,0.0,0.0,0.0,0.0,0.0,0.0,0.0,0.0,0.0,0.0,1500,1500,0.0,0.0,40.046559,-88.2307616667,0.0,0.0,0.0,0.0,0.0,0.0,0.0,0.0,0.0,0.0,0.0,0,0.0,0.0,0.0,0.0,90.0,90.0,90.0,90.0816955566,90.145362854,89.6997299194,45.9840011597,7.4032325745000005,520.6500244141,0,2,25,1,139,190
140,1530214851815,1652815, RC,0,39.9586422891,-88.4448908703,0,0.0,0.0,0.0,0.0,0.0,0.0,0.0,0.0,0.0,0.0,0.0,0.0,0.0,1500,1500,0.0,0.0,40.046559,-88.2307616667,0.0,0.0,0.0,0.0,0.0,0.0,0.0,0.0,0.0,0.0,0.0,0,0.0,0.0,0.0,0.0,90.0,90.0,90.0,90.0816955566,90.145362854,89.6997299194,45.9840011597,7.4032325745000005,520.6500244141,0,2,25,1,127,191
141,1530214851866,1652866, RC,0,39.9586422891,-88.4448908703,0,0.0,0.0,0.0,0.0,0.0,0.0,0.0,0.0,0.0,0.0,0.0,0.0,0.0,1500,1500,0.0,0.0,40.046559,-88.2307616667,0.0,0.0,0.0,0.0,0.0,0.0,0.0,0.0,0.0,0.0,0.0,0,0.0,0.0,0.0,0.0,90.0,90.0,90.0,90.0816955566,90.145362854,89.6997299194,45.9840011597,7.4032325745000005,520.6500244141,0,2,25,1,142,192
142,1530214851916,1652916, RC,0,39.9586422891,-88.4448908703,0,0.0,0.0,0.0,0.0,0.0,0.0,0.0,0.0,0.0,0.0,0.0,0.0,0.0,1500,1500,0.0,0.0,40.046559,-88.2307616667,0.0,0.0,0.0,0.0,0.0,0.0,0.0,0.0,0.0,0.0,0.0,0,0.0,0.0,0.0,0.0,90.0,90.0,90.0,90.0816955566,90.145362854,89.6997299194,45.9840011597,7.4032325745000005,520.6500244141,0,2,25,1,174,194
143,1530214851967,1652967, RC,0,39.9586422891,-88.4448908703,0,0.0,0.0,0.0,0.0,0.0,0.0,0.0,0.0,0.0,0.0,0.0,0.0,0.0,1500,1500,0.0,0.0,40.046559,-88.2307616667,0.0,0.0,0.0,0.0,0.0,0.0,0.0,0.0,0.0,0.0,0.0,0,0.0,0.0,0.0,0.0,90.0,90.0,90.0,90.0816955566,90.145362854,89.6997299194,45.9840011597,7.4032325745000005,520.6500244141,0,2,25,1,125,196
144,1530214852018,1653018, RC,0,39.9586422891,-88.4448908703,0,0.0,0.0,0.0,0.0,0.0,0.0,0.0,0.0,0.0,0.0,0.0,0.0,0.0,1500,1500,0.0,0.0,40.046559,-88.2307616667,0.0,0.0,0.0,0.0,0.0,0.0,0.0,0.0,0.0,0.0,0.0,0,0.0,0.0,0.0,0.0,90.0,90.0,90.0,90.0816955566,90.145362854,89.6997299194,45.9840011597,7.4032325745000005,520.6500244141,0,2,25,1,132,197
145,1530214852068,1653068, RC,0,39.9586422891,-88.4448908703,0,0.0,0.0,0.0,0.0,0.0,0.0,0.0,0.0,0.0,0.0,0.0,0.0,0.0,1500,1500,0.0,0.0,40.046559,-88.2307616667,0.0,0.0,0.0,0.0,0.0,0.0,0.0,0.0,0.0,0.0,0.0,0,0.0,0.0,0.0,0.0,90.0,90.0,90.0,90.0816955566,90.145362854,89.6997299194,45.9840011597,7.4032325745000005,520.6500244141,0,2,25,1,136,199
146,1530214852119,1653119, RC,0,39.9586422891,-88.4448908703,0,0.0,0.0,0.0,0.0,0.0,0.0,0.0,0.0,0.0,0.0,0.0,0.0,0.0,1500,1500,0.0,0.0,40.046559,-88.2307616667,0.0,0.0,0.0,0.0,0.0,0.0,0.0,0.0,0.0,0.0,0.0,0,0.0,0.0,0.0,0.0,90.0,90.0,90.0,90.0816955566,90.145362854,89.6997299194,45.9840011597,7.4032325745000005,520.6500244141,0,2,25,1,131,200
147,1530214852169,1653169, RC,0,39.9586422891,-88.4448908703,0,0.0,0.0,0.0,0.0,0.0,0.0,0.0,0.0,0.0,0.0,0.0,0.0,0.0,1500,1500,0.0,0.0,40.0465623333,-88.2307541667,0.0,0.0,0.0,0.0,0.0,0.0,0.0,0.0,0.0,0.0,0.0,0,0.0,0.0,0.0,0.0,90.0,90.0,90.0,90.0816955566,90.145362854,89.6997299194,45.9840011597,7.4032325745000005,520.6500244141,0,2,25,1,165,202
148,1530214852220,1653220, RC,0,39.9586422891,-88.4448908703,0,0.0,0.0,0.0,0.0,0.0,0.0,0.0,0.0,0.0,0.0,0.0,0.0,0.0,1500,1500,0.0,0.0,40.0465623333,-88.2307541667,0.0,0.0,0.0,0.0,0.0,0.0,0.0,0.0,0.0,0.0,0.0,0,0.0,0.0,0.0,0.0,90.0,90.0,90.0,90.0816955566,90.145362854,89.6997299194,45.9840011597,7.4032325745000005,520.6500244141,0,2,25,1,161,203
149,1530214852271,1653271, RC,0,39.9586422891,-88.4448908703,0,0.0,0.0,0.0,0.0,0.0,0.0,0.0,0.0,0.0,0.0,0.0,0.0,0.0,1500,1500,0.0,0.0,40.0465623333,-88.2307541667,0.0,0.0,0.0,0.0,0.0,0.0,0.0,0.0,0.0,0.0,0.0,0,0.0,0.0,0.0,0.0,90.0,90.0,90.0,90.0816955566,90.145362854,89.6997299194,45.9840011597,7.4032325745000005,520.6500244141,0,2,25,1,152,205
150,1530214852321,1653321, RC,0,39.9586422891,-88.4448908703,0,0.0,0.0,0.0,0.0,0.0,0.0,0.0,0.0,0.0,0.0,0.0,0.0,0.0,1500,1500,0.0,0.0,40.0465623333,-88.2307541667,0.0,0.0,0.0,0.0,0.0,0.0,0.0,0.0,0.0,0.0,0.0,0,0.0,0.0,0.0,0.0,90.0,90.0,90.0,90.0816955566,90.145362854,89.6997299194,45.9840011597,7.4032325745000005,520.6500244141,0,2,25,1,143,206
151,1530214852372,1653372, RC,0,39.9586422891,-88.4448908703,0,0.0,0.0,0.0,0.0,0.0,0.0,0.0,0.0,0.0,0.0,0.0,0.0,0.0,1500,1500,0.0,0.0,40.0465623333,-88.2307541667,0.0,0.0,0.0,0.0,0.0,0.0,0.0,0.0,0.0,0.0,0.0,0,0.0,0.0,0.0,0.0,90.0,90.0,90.0,90.0816955566,90.145362854,89.6997299194,45.9840011597,7.4032325745000005,520.6500244141,0,2,25,1,136,207
152,1530214852422,1653422, RC,0,39.9586422891,-88.4448908703,0,0.0,0.0,0.0,0.0,0.0,0.0,0.0,0.0,0.0,0.0,0.0,0.0,0.0,1500,1500,0.0,0.0,40.0465623333,-88.2307541667,0.0,0.0,0.0,0.0,0.0,0.0,0.0,0.0,0.0,0.0,0.0,0,0.0,0.0,0.0,0.0,90.0,90.0,90.0,90.0816955566,90.145362854,89.6997299194,45.9840011597,7.4032325745000005,520.6500244141,0,2,25,1,138,208
153,1530214852473,1653473, RC,0,39.9586422891,-88.4448908703,0,0.0,0.0,0.0,0.0,0.0,0.0,0.0,0.0,0.0,0.0,0.0,0.0,0.0,1500,1500,0.0,0.0,40.0465623333,-88.2307541667,0.0,0.0,0.0,0.0,0.0,0.0,0.0,0.0,0.0,0.0,0.0,0,0.0,0.0,0.0,0.0,90.0,90.0,90.0,90.0816955566,90.145362854,89.6997299194,45.9840011597,7.4032325745000005,520.6500244141,0,2,25,1,161,209
154,1530214852523,1653523, RC,0,39.9586422891,-88.4448908703,0,0.0,0.0,0.0,0.0,0.0,0.0,0.0,0.0,0.0,0.0,0.0,0.0,0.0,1500,1500,0.0,0.0,40.0465623333,-88.2307541667,0.0,0.0,0.0,0.0,0.0,0.0,0.0,0.0,0.0,0.0,0.0,0,0.0,0.0,0.0,0.0,90.0,90.0,90.0,90.0816955566,90.145362854,89.6997299194,45.9840011597,7.4032325745000005,520.6500244141,0,2,25,1,172,211
155,1530214852574,1653574, RC,0,39.9586422891,-88.4448908703,0,0.0,0.0,0.0,0.0,0.0,0.0,0.0,0.0,0.0,0.0,0.0,0.0,0.0,1500,1500,0.0,0.0,40.0465623333,-88.2307541667,0.0,0.0,0.0,0.0,0.0,0.0,0.0,0.0,0.0,0.0,0.0,0,0.0,0.0,0.0,0.0,90.0,90.0,90.0,90.0816955566,90.20902252200001,89.6997299194,45.9840011597,7.4032325745000005,520.6500244141,0,2,25,1,167,212
156,1530214852625,1653625, RC,0,39.9586422891,-88.4448908703,0,0.0,0.0,0.0,0.0,0.0,0.0,0.0,0.0,0.0,0.0,0.0,0.0,0.0,1500,1500,0.0,0.0,40.0465623333,-88.2307541667,0.0,0.0,0.0,0.0,0.0,0.0,0.0,0.0,0.0,0.0,0.0,0,0.0,0.0,0.0,0.0,90.0,90.0,90.0,90.0816955566,90.20902252200001,89.6997299194,45.9840011597,7.4032325745000005,520.6500244141,0,2,25,1,148,213
157,1530214852675,1653675, RC,0,39.9586422891,-88.4448908703,0,0.0,0.0,0.0,0.0,0.0,0.0,0.0,0.0,0.0,0.0,0.0,0.0,0.0,1500,1500,0.0,0.0,40.0465623333,-88.2307541667,0.0,0.0,0.0,0.0,0.0,0.0,0.0,0.0,0.0,0.0,0.0,0,0.0,0.0,0.0,0.0,90.0,90.0,90.0,90.0816955566,90.20902252200001,89.6997299194,45.9840011597,7.4032325745000005,520.6500244141,0,2,25,1,166,214
158,1530214852726,1653726, RC,0,39.9586422891,-88.4448908703,0,0.0,0.0,0.0,0.0,0.0,0.0,0.0,0.0,0.0,0.0,0.0,0.0,0.0,1500,1500,0.0,0.0,40.0465623333,-88.2307541667,0.0,0.0,0.0,0.0,0.0,0.0,0.0,0.0,0.0,0.0,0.0,0,0.0,0.0,0.0,0.0,90.0,90.0,90.0,90.0816955566,90.20902252200001,89.6997299194,45.9840011597,7.4032325745000005,520.6500244141,0,2,25,1,163,215
159,1530214852777,1653777, RC,0,39.9586422891,-88.4448908703,0,0.0,0.0,0.0,0.0,0.0,0.0,0.0,0.0,0.0,0.0,0.0,0.0,0.0,1500,1500,0.0,0.0,40.0465623333,-88.2307541667,0.0,0.0,0.0,0.0,0.0,0.0,0.0,0.0,0.0,0.0,0.0,0,0.0,0.0,0.0,0.0,90.0,90.0,90.0,90.0816955566,90.20902252200001,89.6997299194,45.9840011597,7.4035620688999995,521.200012207,0,2,25,1,131,217
160,1530214852827,1653827, RC,0,39.9586422891,-88.4448908703,0,0.0,0.0,0.0,0.0,0.0,0.0,0.0,0.0,0.0,0.0,0.0,0.0,0.0,1500,1500,0.0,0.0,40.0465623333,-88.2307541667,0.0,0.0,0.0,0.0,0.0,0.0,0.0,0.0,0.0,0.0,0.0,0,0.0,0.0,0.0,0.0,90.0,90.0,90.0,90.0816955566,90.20902252200001,89.6997299194,45.9840011597,7.4035620688999995,521.200012207,0,2,25,1,156,218
161,1530214852877,1653877, RC,0,39.9586422891,-88.4448908703,0,0.0,0.0,0.0,0.0,0.0,0.0,0.0,0.0,0.0,0.0,0.0,0.0,0.0,1500,1500,0.0,0.0,40.0465623333,-88.2307541667,0.0,0.0,0.0,0.0,0.0,0.0,0.0,0.0,0.0,0.0,0.0,0,0.0,0.0,0.0,0.0,90.0,90.0,90.0,90.0816955566,90.20902252200001,89.6997299194,45.9840011597,7.4035620688999995,521.200012207,0,2,25,1,144,220
162,1530214852928,1653928, RC,0,39.9586422891,-88.4448908703,0,0.0,0.0,0.0,0.0,0.0,0.0,0.0,0.0,0.0,0.0,0.0,0.0,0.0,1500,1500,0.0,0.0,40.0465623333,-88.2307541667,0.0,0.0,0.0,0.0,0.0,0.0,0.0,0.0,0.0,0.0,0.0,0,0.0,0.0,0.0,0.0,90.0,90.0,90.0,90.0816955566,90.20902252200001,89.6997299194,45.9840011597,7.4035620688999995,521.200012207,0,2,25,1,190,222
163,1530214852978,1653978, RC,0,39.9586422891,-88.4448908703,0,0.0,0.0,0.0,0.0,0.0,0.0,0.0,0.0,0.0,0.0,0.0,0.0,0.0,1500,1500,0.0,0.0,40.0465623333,-88.2307541667,0.0,0.0,0.0,0.0,0.0,0.0,0.0,0.0,0.0,0.0,0.0,0,0.0,0.0,0.0,0.0,90.0,90.0,90.0,90.0816955566,90.20902252200001,89.6997299194,45.9840011597,7.4035620688999995,521.200012207,0,2,25,1,164,223
164,1530214853028,1654028, RC,0,39.9586422891,-88.4448908703,0,0.0,0.0,0.0,0.0,0.0,0.0,0.0,0.0,0.0,0.0,0.0,0.0,0.0,1500,1500,0.0,0.0,40.0465623333,-88.2307541667,0.0,0.0,0.0,0.0,0.0,0.0,0.0,0.0,0.0,0.0,0.0,0,0.0,0.0,0.0,0.0,90.0,90.0,90.0,90.0816955566,90.20902252200001,89.6997299194,45.9840011597,7.4035620688999995,521.200012207,0,2,25,1,160,225
165,1530214853079,1654079, RC,0,39.9586422891,-88.4448908703,0,0.0,0.0,0.0,0.0,0.0,0.0,0.0,0.0,0.0,0.0,0.0,0.0,0.0,1500,1500,0.0,0.0,40.0465623333,-88.2307541667,0.0,0.0,0.0,0.0,0.0,0.0,0.0,0.0,0.0,0.0,0.0,0,0.0,0.0,0.0,0.0,90.0,90.0,90.0,90.0816955566,90.20902252200001,89.6997299194,45.9840011597,7.4035620688999995,521.200012207,0,2,25,1,134,226
166,1530214853129,1654129, RC,0,39.9586422891,-88.4448908703,0,0.0,0.0,0.0,0.0,0.0,0.0,0.0,0.0,0.0,0.0,0.0,0.0,0.0,1500,1500,0.0,0.0,40.0465623333,-88.2307541667,0.0,0.0,0.0,0.0,0.0,0.0,0.0,0.0,0.0,0.0,0.0,0,0.0,0.0,0.0,0.0,90.0,90.0,90.0,90.0816955566,90.20902252200001,89.6997299194,45.9840011597,7.4035620688999995,521.200012207,0,2,25,1,162,228
167,1530214853180,1654180, RC,0,39.9586422891,-88.4448908703,0,0.0,0.0,0.0,0.0,0.0,0.0,0.0,0.0,0.0,0.0,0.0,0.0,0.0,1500,1500,0.0,0.0,40.0465608333,-88.2307478333,0.0,0.0,0.0,0.0,0.0,0.0,0.0,0.0,0.0,0.0,0.0,0,0.0,0.0,0.0,0.0,90.0,90.0,90.0,90.0816955566,90.20902252200001,89.6997299194,45.9840011597,7.4035620688999995,521.200012207,0,2,25,1,147,229
168,1530214853230,1654230, RC,0,39.9586422891,-88.4448908703,0,0.0,0.0,0.0,0.0,0.0,0.0,0.0,0.0,0.0,0.0,0.0,0.0,0.0,1500,1500,0.0,0.0,40.0465608333,-88.2307478333,0.0,0.0,0.0,0.0,0.0,0.0,0.0,0.0,0.0,0.0,0.0,0,0.0,0.0,0.0,0.0,90.0,90.0,90.0,90.0816955566,90.20902252200001,89.6997299194,45.9840011597,7.4035620688999995,521.200012207,0,2,25,1,134,231
169,1530214853280,1654280, RC,0,39.9586422891,-88.4448908703,0,0.0,0.0,0.0,0.0,0.0,0.0,0.0,0.0,0.0,0.0,0.0,0.0,0.0,1500,1500,0.0,0.0,40.0465608333,-88.2307478333,0.0,0.0,0.0,0.0,0.0,0.0,0.0,0.0,0.0,0.0,0.0,0,0.0,0.0,0.0,0.0,90.0,90.0,90.0,90.0816955566,90.20902252200001,89.6997299194,45.9840011597,7.4035620688999995,521.200012207,0,2,25,1,139,232
170,1530214853331,1654331, RC,0,39.9586422891,-88.4448908703,0,0.0,0.0,0.0,0.0,0.0,0.0,0.0,0.0,0.0,0.0,0.0,0.0,0.0,1500,1500,0.0,0.0,40.0465608333,-88.2307478333,0.0,0.0,0.0,0.0,0.0,0.0,0.0,0.0,0.0,0.0,0.0,0,0.0,0.0,0.0,0.0,90.0,90.0,90.0,90.0816955566,90.20902252200001,89.6997299194,45.9840011597,7.4035620688999995,521.200012207,0,2,25,1,137,233
