,(0)linux time (ms),    (1)uptime  (ms),      (2)drive mode,(3)mpc step counter,(4)mpc origin latitude  (deg),(5)mpc origin longitude  (deg),(6)closest trajectory point index to robot,(7)mpc error x (W;E)  (m),(8)mpc error y (W;E)  (m),(9)abs mpc error (m),(10)input [x] for mhe (m),(11)input [y] for mhe (m),(12)input [speed] for mhe (m/s),(13)input [vyaw] for mhe (rad/s),(14)mhe output x  (m),(15)mhe output y  (m),(16)mhe output speed  (m/s),(17)mhe output yaw  (rad),(18)mpc reference heading (rad),(19)mpc turn rate command (rad/s),(20)turn rate command as PWM,(21)throttle command as PWM,(22)primary gps latitude (deg),(23)primary gps longitude (deg),(24)secondary gps latitude  (deg),(25)secondary gps longitude (deg),(26)accelerometer x (m/s^2),(27)accelerometer y (m/s^2),(28)accelerometer z (m/s^2),(29)gyro yaw rate (rad/s),(30)gyro pitch rate   (rad/s),(31)gyro roll rate (rad/s),      (32)yaw (rad),  (33)pitch   (rad),     (34)roll (rad),(35)sonar1 measurement (m),(36)ultrasonic sensor measurement (m),(37)primary gps time (s),(38)normalized turn rate command,(39)normalized throttle command,(40)speed calculation from encoder left (m/s),(41)speed calculation from encoder right (m/s),(42)front gimbal target angle (degrees from straight down),(43)left gimbal target angle  (degrees from straight down),(44)right gimbal target angle  (degrees from straight down),(45)front gimbal measured angle  (degrees from straight down),(46)left gimbal measured angle    (degrees from straight down),(47)right gimbal measured angle  (degrees from straight down),(48)internal temperature (C),(49)battery voltage (V),(50)primary gps type,(51)secondary gps type,    (52)MPC R value, (53)MPC Q[0] value,Unnamed: 54,weed_num,start
0,1530212312909,68909, RC,0,39.9586422891,-88.4448908703,0,0.0,0.0,0.0,0.0,0.0,0.0,0.0,0.0,0.0,0.0,0.0,0.0,0.0,1500,1500,0.0,0.0,40.0469996667,-88.2306926667,0.0,0.0,0.0,0.0,0.0,0.0,0.0,0.0,0.0,0.0,0.0,0,0.0,0.0,0.0,0.0,90.0,90.0,90.0,89.12677001950001,89.44507598879999,88.55381011959999,21.7739982605,15.515749931300002,0.4299999774,0,2,25,1,46,6
1,1530212312960,68960, RC,0,39.9586422891,-88.4448908703,0,0.0,0.0,0.0,0.0,0.0,0.0,0.0,0.0,0.0,0.0,0.0,0.0,0.0,1500,1500,0.0,0.0,40.0469996667,-88.2306926667,0.0,0.0,0.0,0.0,0.0,0.0,0.0,0.0,0.0,0.0,0.0,0,0.0,0.0,0.0,0.0,90.0,90.0,90.0,89.12677001950001,89.44507598879999,88.55381011959999,21.7739982605,15.515749931300002,0.4299999774,0,2,25,1,39,7
2,1530212313010,69010, RC,0,39.9586422891,-88.4448908703,0,0.0,0.0,0.0,0.0,0.0,0.0,0.0,0.0,0.0,0.0,0.0,0.0,0.0,1500,1500,0.0,0.0,40.0469996667,-88.2306926667,0.0,0.0,0.0,0.0,0.0,0.0,0.0,0.0,0.0,0.0,0.0,0,0.0,0.0,0.0,0.0,90.0,90.0,90.0,89.25408935549999,89.44507598879999,88.55381011959999,21.7739982605,15.515749931300002,0.4299999774,0,2,25,1,38,9
3,1530212313061,69061, RC,0,39.9586422891,-88.4448908703,0,0.0,0.0,0.0,0.0,0.0,0.0,0.0,0.0,0.0,0.0,0.0,0.0,0.0,1500,1500,0.0,0.0,40.0469996667,-88.2306926667,0.0,0.0,0.0,0.0,0.0,0.0,0.0,0.0,0.0,0.0,0.0,0,0.0,0.0,0.0,0.0,90.0,90.0,90.0,89.25408935549999,89.44507598879999,88.55381011959999,21.7739982605,15.515749931300002,0.4299999774,0,2,25,1,39,10
4,1530212313112,69112, RC,0,39.9586422891,-88.4448908703,0,0.0,0.0,0.0,0.0,0.0,0.0,0.0,0.0,0.0,0.0,0.0,0.0,0.0,1500,1500,0.0,0.0,40.0469996667,-88.2306926667,0.0,0.0,0.0,0.0,0.0,0.0,0.0,0.0,0.0,0.0,0.0,0,0.0,0.0,0.0,0.0,90.0,90.0,90.0,89.25408935549999,89.44507598879999,88.55381011959999,21.7739982605,15.515749931300002,0.4299999774,0,2,25,1,44,12
5,1530212313162,69162, RC,0,39.9586422891,-88.4448908703,0,0.0,0.0,0.0,0.0,0.0,0.0,0.0,0.0,0.0,0.0,0.0,0.0,0.0,1500,1500,0.0,0.0,40.0469996667,-88.2306926667,0.0,0.0,0.0,0.0,0.0,0.0,0.0,0.0,0.0,0.0,0.0,0,0.0,0.0,0.0,0.0,90.0,90.0,90.0,89.25408935549999,89.44507598879999,88.4901504517,21.7739982605,15.515749931300002,0.4299999774,0,2,25,1,42,13
6,1530212313213,69213, RC,0,39.9586422891,-88.4448908703,0,0.0,0.0,0.0,0.0,0.0,0.0,0.0,0.0,0.0,0.0,0.0,0.0,0.0,1500,1500,0.0,0.0,40.0469996667,-88.2306926667,0.0,0.0,0.0,0.0,0.0,0.0,0.0,0.0,0.0,0.0,0.0,0,0.0,0.0,0.0,0.0,90.0,90.0,90.0,89.25408935549999,89.44507598879999,88.4901504517,21.7739982605,15.515749931300002,0.4299999774,0,2,25,1,48,15
7,1530212313263,69263, RC,0,39.9586422891,-88.4448908703,0,0.0,0.0,0.0,0.0,0.0,0.0,0.0,0.0,0.0,0.0,0.0,0.0,0.0,1500,1500,0.0,0.0,40.0469996667,-88.2306926667,0.0,0.0,0.0,0.0,0.0,0.0,0.0,0.0,0.0,0.0,0.0,0,0.0,0.0,0.0,0.0,90.0,90.0,90.0,89.25408935549999,89.5087432861,88.4901504517,21.7739982605,15.515749931300002,0.4299999774,0,2,25,1,52,16
8,1530212313314,69314, RC,0,39.9586422891,-88.4448908703,0,0.0,0.0,0.0,0.0,0.0,0.0,0.0,0.0,0.0,0.0,0.0,0.0,0.0,1500,1500,0.0,0.0,40.0469996667,-88.2306926667,0.0,0.0,0.0,0.0,0.0,0.0,0.0,0.0,0.0,0.0,0.0,0,0.0,0.0,0.0,0.0,90.0,90.0,90.0,89.25408935549999,89.5087432861,88.4901504517,21.7739982605,15.515749931300002,0.4299999774,0,2,25,1,39,18
9,1530212313364,69364, RC,0,39.9586422891,-88.4448908703,0,0.0,0.0,0.0,0.0,0.0,0.0,0.0,0.0,0.0,0.0,0.0,0.0,0.0,1500,1500,0.0,0.0,40.046998333299996,-88.2306928333,0.0,0.0,0.0,0.0,0.0,0.0,0.0,0.0,0.0,0.0,0.0,0,0.0,0.0,0.0,0.0,90.0,90.0,90.0,89.25408935549999,89.5087432861,88.4901504517,21.7739982605,15.515749931300002,0.4299999774,0,2,25,1,39,19
10,1530212313415,69415, RC,0,39.9586422891,-88.4448908703,0,0.0,0.0,0.0,0.0,0.0,0.0,0.0,0.0,0.0,0.0,0.0,0.0,0.0,1500,1500,0.0,0.0,40.046998333299996,-88.2306928333,0.0,0.0,0.0,0.0,0.0,0.0,0.0,0.0,0.0,0.0,0.0,0,0.0,0.0,0.0,0.0,90.0,90.0,90.0,89.25408935549999,89.5087432861,88.4901504517,21.7739982605,15.515749931300002,0.4299999774,0,2,25,1,43,21
11,1530212313466,69466, RC,0,39.9586422891,-88.4448908703,0,0.0,0.0,0.0,0.0,0.0,0.0,0.0,0.0,0.0,0.0,0.0,0.0,0.0,1500,1500,0.0,0.0,40.046998333299996,-88.2306928333,0.0,0.0,0.0,0.0,0.0,0.0,0.0,0.0,0.0,0.0,0.0,0,0.0,0.0,0.0,0.0,90.0,90.0,90.0,89.25408935549999,89.5087432861,88.4901504517,21.7739982605,15.515749931300002,0.4299999774,0,2,25,1,40,23
12,1530212313516,69516, RC,0,39.9586422891,-88.4448908703,0,0.0,0.0,0.0,0.0,0.0,0.0,0.0,0.0,0.0,0.0,0.0,0.0,0.0,1500,1500,0.0,0.0,40.046998333299996,-88.2306928333,0.0,0.0,0.0,0.0,0.0,0.0,0.0,0.0,0.0,0.0,0.0,0,0.0,0.0,0.0,0.0,90.0,90.0,90.0,89.25408935549999,89.5087432861,88.4901504517,21.7739982605,15.515954971300001,1.0899999142,0,2,25,1,39,24
13,1530212313567,69567, RC,0,39.9586422891,-88.4448908703,0,0.0,0.0,0.0,0.0,0.0,0.0,0.0,0.0,0.0,0.0,0.0,0.0,0.0,1500,1500,0.0,0.0,40.046998333299996,-88.2306928333,0.0,0.0,0.0,0.0,0.0,0.0,0.0,0.0,0.0,0.0,0.0,0,0.0,0.0,0.0,0.0,90.0,90.0,90.0,89.25408935549999,89.5087432861,88.4901504517,21.7739982605,15.515954971300001,1.0899999142,0,2,25,1,43,26
14,1530212313617,69617, RC,0,39.9586422891,-88.4448908703,0,0.0,0.0,0.0,0.0,0.0,0.0,0.0,0.0,0.0,0.0,0.0,0.0,0.0,1500,1500,0.0,0.0,40.046998333299996,-88.2306928333,0.0,0.0,0.0,0.0,0.0,0.0,0.0,0.0,0.0,0.0,0.0,0,0.0,0.0,0.0,0.0,90.0,90.0,90.0,89.25408935549999,89.44507598879999,88.4901504517,21.7739982605,15.515954971300001,1.0899999142,0,2,25,1,43,27
15,1530212313668,69668, RC,0,39.9586422891,-88.4448908703,0,0.0,0.0,0.0,0.0,0.0,0.0,0.0,0.0,0.0,0.0,0.0,0.0,0.0,1500,1500,0.0,0.0,40.046998333299996,-88.2306928333,0.0,0.0,0.0,0.0,0.0,0.0,0.0,0.0,0.0,0.0,0.0,0,0.0,0.0,0.0,0.0,90.0,90.0,90.0,89.25408935549999,89.5087432861,88.4901504517,21.7739982605,15.515954971300001,1.0899999142,0,2,25,1,39,29
16,1530212313718,69718, RC,0,39.9586422891,-88.4448908703,0,0.0,0.0,0.0,0.0,0.0,0.0,0.0,0.0,0.0,0.0,0.0,0.0,0.0,1500,1500,0.0,0.0,40.046998333299996,-88.2306928333,0.0,0.0,0.0,0.0,0.0,0.0,0.0,0.0,0.0,0.0,0.0,0,0.0,0.0,0.0,0.0,90.0,90.0,90.0,89.25408935549999,89.5087432861,88.4901504517,21.7739982605,15.515954971300001,1.0899999142,0,2,25,1,39,30
17,1530212313769,69769, RC,0,39.9586422891,-88.4448908703,0,0.0,0.0,0.0,0.0,0.0,0.0,0.0,0.0,0.0,0.0,0.0,0.0,0.0,1500,1500,0.0,0.0,40.046998333299996,-88.2306928333,0.0,0.0,0.0,0.0,0.0,0.0,0.0,0.0,0.0,0.0,0.0,0,0.0,0.0,0.0,0.0,90.0,90.0,90.0,89.25408935549999,89.5087432861,88.4264831543,21.7739982605,15.515954971300001,1.0899999142,0,2,25,1,42,32
18,1530212313820,69820, RC,0,39.9586422891,-88.4448908703,0,0.0,0.0,0.0,0.0,0.0,0.0,0.0,0.0,0.0,0.0,0.0,0.0,0.0,1500,1500,0.0,0.0,40.046998333299996,-88.2306928333,0.0,0.0,0.0,0.0,0.0,0.0,0.0,0.0,0.0,0.0,0.0,0,0.0,0.0,0.0,0.0,90.0,90.0,90.0,89.25408935549999,89.5087432861,88.6174697876,21.7739982605,15.515954971300001,1.0899999142,0,2,25,1,46,33
19,1530212313870,69870, RC,0,39.9586422891,-88.4448908703,0,0.0,0.0,0.0,0.0,0.0,0.0,0.0,0.0,0.0,0.0,0.0,0.0,0.0,1500,1500,0.0,0.0,40.046998333299996,-88.2306928333,0.0,0.0,0.0,0.0,0.0,0.0,0.0,0.0,0.0,0.0,0.0,0,0.0,0.0,0.0,0.0,90.0,90.0,90.0,89.25408935549999,89.5087432861,88.681137085,21.7739982605,15.515954971300001,1.0899999142,0,2,25,1,43,35
20,1530212313921,69921, RC,0,39.9586422891,-88.4448908703,0,0.0,0.0,0.0,0.0,0.0,0.0,0.0,0.0,0.0,0.0,0.0,0.0,0.0,1500,1500,0.0,0.0,40.046998333299996,-88.2306928333,0.0,0.0,0.0,0.0,0.0,0.0,0.0,0.0,0.0,0.0,0.0,0,0.0,0.0,0.0,0.0,90.0,90.0,90.0,89.25408935549999,89.5087432861,88.681137085,21.7739982605,15.515954971300001,1.0899999142,0,2,25,1,41,36
21,1530212313971,69971, RC,0,39.9586422891,-88.4448908703,0,0.0,0.0,0.0,0.0,0.0,0.0,0.0,0.0,0.0,0.0,0.0,0.0,0.0,1500,1500,0.0,0.0,40.046998333299996,-88.2306928333,0.0,0.0,0.0,0.0,0.0,0.0,0.0,0.0,0.0,0.0,0.0,0,0.0,0.0,0.0,0.0,90.0,90.0,90.0,89.25408935549999,89.5087432861,88.681137085,21.7739982605,15.515954971300001,1.0899999142,0,2,25,1,43,38
22,1530212314022,70022, RC,0,39.9586422891,-88.4448908703,0,0.0,0.0,0.0,0.0,0.0,0.0,0.0,0.0,0.0,0.0,0.0,0.0,0.0,1500,1500,0.0,0.0,40.046998333299996,-88.2306928333,0.0,0.0,0.0,0.0,0.0,0.0,0.0,0.0,0.0,0.0,0.0,0,0.0,0.0,0.0,0.0,90.0,90.0,90.0,89.25408935549999,89.5087432861,88.681137085,21.7739982605,15.515954971300001,1.0899999142,0,2,25,1,46,39
23,1530212314072,70072, RC,0,39.9586422891,-88.4448908703,0,0.0,0.0,0.0,0.0,0.0,0.0,0.0,0.0,0.0,0.0,0.0,0.0,0.0,1500,1500,0.0,0.0,40.046998333299996,-88.2306928333,0.0,0.0,0.0,0.0,0.0,0.0,0.0,0.0,0.0,0.0,0.0,0,0.0,0.0,0.0,0.0,90.0,90.0,90.0,89.25408935549999,89.5087432861,88.681137085,21.7739982605,15.515954971300001,1.0899999142,0,2,25,1,47,41
24,1530212314123,70123, RC,0,39.9586422891,-88.4448908703,0,0.0,0.0,0.0,0.0,0.0,0.0,0.0,0.0,0.0,0.0,0.0,0.0,0.0,1500,1500,0.0,0.0,40.046998333299996,-88.2306928333,0.0,0.0,0.0,0.0,0.0,0.0,0.0,0.0,0.0,0.0,0.0,0,0.0,0.0,0.0,0.0,90.0,90.0,90.0,89.25408935549999,89.5087432861,88.681137085,21.7739982605,15.515954971300001,1.0899999142,0,2,25,1,44,43
25,1530212314174,70174, RC,0,39.9586422891,-88.4448908703,0,0.0,0.0,0.0,0.0,0.0,0.0,0.0,0.0,0.0,0.0,0.0,0.0,0.0,1500,1500,0.0,0.0,40.046998333299996,-88.2306928333,0.0,0.0,0.0,0.0,0.0,0.0,0.0,0.0,0.0,0.0,0.0,0,0.0,0.0,0.0,0.0,90.0,90.0,90.0,89.25408935549999,89.5087432861,88.681137085,21.7739982605,15.515954971300001,1.0899999142,0,2,25,1,44,45
26,1530212314224,70224, RC,0,39.9586422891,-88.4448908703,0,0.0,0.0,0.0,0.0,0.0,0.0,0.0,0.0,0.0,0.0,0.0,0.0,0.0,1500,1500,0.0,0.0,40.046998333299996,-88.2306928333,0.0,0.0,0.0,0.0,0.0,0.0,0.0,0.0,0.0,0.0,0.0,0,0.0,0.0,0.0,0.0,90.0,90.0,90.0,89.25408935549999,89.5087432861,88.681137085,21.7739982605,15.515954971300001,1.0899999142,0,2,25,1,43,46
27,1530212314275,70275, RC,0,39.9586422891,-88.4448908703,0,0.0,0.0,0.0,0.0,0.0,0.0,0.0,0.0,0.0,0.0,0.0,0.0,0.0,1500,1500,0.0,0.0,40.046998333299996,-88.2306928333,0.0,0.0,0.0,0.0,0.0,0.0,0.0,0.0,0.0,0.0,0.0,0,0.0,0.0,0.0,0.0,90.0,90.0,90.0,89.25408935549999,89.5087432861,88.681137085,21.7739982605,15.515954971300001,1.0899999142,0,2,25,1,45,48
28,1530212314325,70325, RC,0,39.9586422891,-88.4448908703,0,0.0,0.0,0.0,0.0,0.0,0.0,0.0,0.0,0.0,0.0,0.0,0.0,0.0,1500,1500,0.0,0.0,40.046998333299996,-88.2306928333,0.0,0.0,0.0,0.0,0.0,0.0,0.0,0.0,0.0,0.0,0.0,0,0.0,0.0,0.0,0.0,90.0,90.0,73.0,89.25408935549999,89.5087432861,88.681137085,21.7739982605,15.515954971300001,1.0899999142,0,2,25,1,46,49
29,1530212314376,70376, RC,0,39.9586422891,-88.4448908703,0,0.0,0.0,0.0,0.0,0.0,0.0,0.0,0.0,0.0,0.0,0.0,0.0,0.0,1500,1500,0.0,0.0,40.0469998333,-88.2306925,0.0,0.0,0.0,0.0,0.0,0.0,0.0,0.0,0.0,0.0,0.0,0,0.0,0.0,0.0,0.0,90.0,90.0,73.0,89.25408935549999,89.5087432861,88.681137085,21.7739982605,15.515954971300001,1.0899999142,0,2,25,1,40,51
30,1530212314426,70426, RC,0,39.9586422891,-88.4448908703,0,0.0,0.0,0.0,0.0,0.0,0.0,0.0,0.0,0.0,0.0,0.0,0.0,0.0,1500,1500,0.0,0.0,40.0469998333,-88.2306925,0.0,0.0,0.0,0.0,0.0,0.0,0.0,0.0,0.0,0.0,0.0,0,0.0,0.0,0.0,0.0,90.0,90.0,64.0,89.25408935549999,89.5087432861,100.77690887450001,21.7739982605,15.515954971300001,1.0899999142,0,2,25,1,42,53
31,1530212314477,70477, RC,0,39.9586422891,-88.4448908703,0,0.0,0.0,0.0,0.0,0.0,0.0,0.0,0.0,0.0,0.0,0.0,0.0,0.0,1500,1500,0.0,0.0,40.0469998333,-88.2306925,0.0,0.0,0.0,0.0,0.0,0.0,0.0,0.0,0.0,0.0,0.0,0,0.0,0.0,0.0,0.0,90.0,90.0,64.0,89.25408935549999,89.5087432861,106.0608520508,21.7739982605,15.515954971300001,1.0899999142,0,2,25,1,46,54
32,1530212314528,70528, RC,0,39.9586422891,-88.4448908703,0,0.0,0.0,0.0,0.0,0.0,0.0,0.0,0.0,0.0,0.0,0.0,0.0,0.0,1500,1500,0.0,0.0,40.0469998333,-88.2306925,0.0,0.0,0.0,0.0,0.0,0.0,0.0,0.0,0.0,0.0,0.0,0,0.0,0.0,0.0,0.0,90.0,90.0,64.0,89.25408935549999,89.5087432861,108.352684021,21.7739982605,15.510955810499999,0.2099999934,0,2,25,1,47,56
33,1530212314578,70578, RC,0,39.9586422891,-88.4448908703,0,0.0,0.0,0.0,0.0,0.0,0.0,0.0,0.0,0.0,0.0,0.0,0.0,0.0,1500,1500,0.0,0.0,40.0469998333,-88.2306925,0.0,0.0,0.0,0.0,0.0,0.0,0.0,0.0,0.0,0.0,0.0,0,0.0,0.0,0.0,0.0,90.0,90.0,64.0,89.25408935549999,89.5087432861,116.3104324341,21.7739982605,15.510955810499999,0.2099999934,0,2,25,1,40,57
34,1530212314629,70629, RC,0,39.9586422891,-88.4448908703,0,0.0,0.0,0.0,0.0,0.0,0.0,0.0,0.0,0.0,0.0,0.0,0.0,0.0,1500,1500,0.0,0.0,40.0469998333,-88.2306925,0.0,0.0,0.0,0.0,0.0,0.0,0.0,0.0,0.0,0.0,0.0,0,0.0,0.0,0.0,0.0,90.0,90.0,52.0,89.25408935549999,89.5087432861,115.6101455688,21.7739982605,15.510955810499999,0.2099999934,0,2,25,1,7,59
35,1530212314679,70679, RC,0,39.9586422891,-88.4448908703,0,0.0,0.0,0.0,0.0,0.0,0.0,0.0,0.0,0.0,0.0,0.0,0.0,0.0,1500,1500,0.0,0.0,40.0469998333,-88.2306925,0.0,0.0,0.0,0.0,0.0,0.0,0.0,0.0,0.0,0.0,0.0,0,0.0,0.0,0.0,0.0,90.0,90.0,52.0,89.25408935549999,89.5087432861,114.9098739624,21.7739982605,15.510955810499999,0.2099999934,0,2,25,1,10,60
36,1530212314730,70730, RC,0,39.9586422891,-88.4448908703,0,0.0,0.0,0.0,0.0,0.0,0.0,0.0,0.0,0.0,0.0,0.0,0.0,0.0,1500,1500,0.0,0.0,40.0469998333,-88.2306925,0.0,0.0,0.0,0.0,0.0,0.0,0.0,0.0,0.0,0.0,0.0,0,0.0,0.0,0.0,0.0,90.0,90.0,52.0,89.25408935549999,89.5724029541,121.0850753784,21.7739982605,15.510955810499999,0.2099999934,0,2,25,1,9,62
37,1530212314780,70780, RC,0,39.9586422891,-88.4448908703,0,0.0,0.0,0.0,0.0,0.0,0.0,0.0,0.0,0.0,0.0,0.0,0.0,0.0,1500,1500,0.0,0.0,40.0469998333,-88.2306925,0.0,0.0,0.0,0.0,0.0,0.0,0.0,0.0,0.0,0.0,0.0,0,0.0,0.0,0.0,0.0,90.0,90.0,52.0,89.25408935549999,89.5724029541,130.12507629389998,21.7739982605,15.510955810499999,0.2099999934,0,2,25,1,8,63
38,1530212314831,70831, RC,0,39.9586422891,-88.4448908703,0,0.0,0.0,0.0,0.0,0.0,0.0,0.0,0.0,0.0,0.0,0.0,0.0,0.0,1500,1500,0.0,0.0,40.0469998333,-88.2306925,0.0,0.0,0.0,0.0,0.0,0.0,0.0,0.0,0.0,0.0,0.0,0,0.0,0.0,0.0,0.0,90.0,90.0,52.0,89.25408935549999,89.5087432861,127.45127868649999,21.7739982605,15.510955810499999,0.2099999934,0,2,25,1,4,65
39,1530212314882,70882, RC,0,39.9586422891,-88.4448908703,0,0.0,0.0,0.0,0.0,0.0,0.0,0.0,0.0,0.0,0.0,0.0,0.0,0.0,1500,1500,0.0,0.0,40.0469998333,-88.2306925,0.0,0.0,0.0,0.0,0.0,0.0,0.0,0.0,0.0,0.0,0.0,0,0.0,0.0,0.0,0.0,90.0,90.0,52.0,89.25408935549999,89.5087432861,126.62367248540001,21.7739982605,15.510955810499999,0.2099999934,0,2,25,1,6,66
40,1530212314932,70932, RC,0,39.9586422891,-88.4448908703,0,0.0,0.0,0.0,0.0,0.0,0.0,0.0,0.0,0.0,0.0,0.0,0.0,0.0,1500,1500,0.0,0.0,40.0469998333,-88.2306925,0.0,0.0,0.0,0.0,0.0,0.0,0.0,0.0,0.0,0.0,0.0,0,0.0,0.0,0.0,0.0,90.0,90.0,48.0,89.25408935549999,89.5087432861,127.45127868649999,21.7739982605,15.510955810499999,0.2099999934,0,2,25,1,5,68
41,1530212314983,70983, RC,0,39.9586422891,-88.4448908703,0,0.0,0.0,0.0,0.0,0.0,0.0,0.0,0.0,0.0,0.0,0.0,0.0,0.0,1500,1500,0.0,0.0,40.0469998333,-88.2306925,0.0,0.0,0.0,0.0,0.0,0.0,0.0,0.0,0.0,0.0,0.0,0,0.0,0.0,0.0,0.0,90.0,90.0,48.0,89.25408935549999,89.5087432861,127.45127868649999,21.7739982605,15.510955810499999,0.2099999934,0,2,25,1,6,69
42,1530212315033,71033, RC,0,39.9586422891,-88.4448908703,0,0.0,0.0,0.0,0.0,0.0,0.0,0.0,0.0,0.0,0.0,0.0,0.0,0.0,1500,1500,0.0,0.0,40.0469998333,-88.2306925,0.0,0.0,0.0,0.0,0.0,0.0,0.0,0.0,0.0,0.0,0.0,0,0.0,0.0,0.0,0.0,90.0,90.0,48.0,89.25408935549999,89.5087432861,128.4698791504,21.7739982605,15.510955810499999,0.2099999934,0,2,25,1,8,71
43,1530212315084,71084, RC,0,39.9586422891,-88.4448908703,0,0.0,0.0,0.0,0.0,0.0,0.0,0.0,0.0,0.0,0.0,0.0,0.0,0.0,1500,1500,0.0,0.0,40.0469998333,-88.2306925,0.0,0.0,0.0,0.0,0.0,0.0,0.0,0.0,0.0,0.0,0.0,0,0.0,0.0,0.0,0.0,90.0,90.0,48.0,89.25408935549999,89.44507598879999,130.9526824951,21.7739982605,15.510955810499999,0.2099999934,0,2,25,1,8,72
44,1530212315134,71134, RC,0,39.9586422891,-88.4448908703,0,0.0,0.0,0.0,0.0,0.0,0.0,0.0,0.0,0.0,0.0,0.0,0.0,0.0,1500,1500,0.0,0.0,40.0469998333,-88.2306925,0.0,0.0,0.0,0.0,0.0,0.0,0.0,0.0,0.0,0.0,0.0,0,0.0,0.0,0.0,0.0,90.0,90.0,48.0,89.25408935549999,89.44507598879999,131.5256500244,21.7739982605,15.510955810499999,0.2099999934,0,2,25,1,5,74
45,1530212315185,71185, RC,0,39.9586422891,-88.4448908703,0,0.0,0.0,0.0,0.0,0.0,0.0,0.0,0.0,0.0,0.0,0.0,0.0,0.0,1500,1500,0.0,0.0,40.0469998333,-88.2306925,0.0,0.0,0.0,0.0,0.0,0.0,0.0,0.0,0.0,0.0,0.0,0,0.0,0.0,0.0,0.0,90.0,90.0,48.0,89.25408935549999,89.44507598879999,131.2709960938,21.7739982605,15.510955810499999,0.2099999934,0,2,25,1,4,75
46,1530212315236,71236, RC,0,39.9586422891,-88.4448908703,0,0.0,0.0,0.0,0.0,0.0,0.0,0.0,0.0,0.0,0.0,0.0,0.0,0.0,1500,1500,0.0,0.0,40.0469998333,-88.2306925,0.0,0.0,0.0,0.0,0.0,0.0,0.0,0.0,0.0,0.0,0.0,0,0.0,0.0,0.0,0.0,90.0,90.0,48.0,89.25408935549999,89.44507598879999,131.3346557617,21.7739982605,15.510955810499999,0.2099999934,0,2,25,1,8,78
47,1530212315286,71286, RC,0,39.9586422891,-88.4448908703,0,0.0,0.0,0.0,0.0,0.0,0.0,0.0,0.0,0.0,0.0,0.0,0.0,0.0,1500,1500,0.0,0.0,40.0469998333,-88.2306925,0.0,0.0,0.0,0.0,0.0,0.0,0.0,0.0,0.0,0.0,0.0,0,0.0,0.0,0.0,0.0,90.0,90.0,48.0,89.25408935549999,89.3814163208,131.3346557617,21.7739982605,15.510955810499999,0.2099999934,0,2,25,1,7,79
48,1530212315337,71337, RC,0,39.9586422891,-88.4448908703,0,0.0,0.0,0.0,0.0,0.0,0.0,0.0,0.0,0.0,0.0,0.0,0.0,0.0,1500,1500,0.0,0.0,40.0469998333,-88.2306925,0.0,0.0,0.0,0.0,0.0,0.0,0.0,0.0,0.0,0.0,0.0,0,0.0,0.0,0.0,0.0,90.0,90.0,48.0,89.25408935549999,89.25408935549999,131.08000183110002,21.7739982605,15.510955810499999,0.2099999934,0,2,25,1,9,81
49,1530212315387,71387, RC,0,39.9586422891,-88.4448908703,0,0.0,0.0,0.0,0.0,0.0,0.0,0.0,0.0,0.0,0.0,0.0,0.0,0.0,1500,1500,0.0,0.0,40.0470003333,-88.230694,0.0,0.0,0.0,0.0,0.0,0.0,0.0,0.0,0.0,0.0,0.0,0,0.0,0.0,0.0,0.0,90.0,90.0,48.0,89.25408935549999,89.25408935549999,131.08000183110002,21.7739982605,15.510955810499999,0.2099999934,0,2,25,1,9,83
50,1530212315438,71438, RC,0,39.9586422891,-88.4448908703,0,0.0,0.0,0.0,0.0,0.0,0.0,0.0,0.0,0.0,0.0,0.0,0.0,0.0,1500,1500,0.0,0.0,40.0470003333,-88.230694,0.0,0.0,0.0,0.0,0.0,0.0,0.0,0.0,0.0,0.0,0.0,0,0.0,0.0,0.0,0.0,90.0,90.0,48.0,89.25408935549999,89.1904296875,131.08000183110002,21.7739982605,15.510955810499999,0.2099999934,0,2,25,1,8,84
51,1530212315488,71488, RC,0,39.9586422891,-88.4448908703,0,0.0,0.0,0.0,0.0,0.0,0.0,0.0,0.0,0.0,0.0,0.0,0.0,0.0,1500,1500,0.0,0.0,40.0470003333,-88.230694,0.0,0.0,0.0,0.0,0.0,0.0,0.0,0.0,0.0,0.0,0.0,0,0.0,0.0,0.0,0.0,90.0,90.0,48.0,89.25408935549999,89.1904296875,131.08000183110002,21.7739982605,15.511218070999998,1.3200000525,0,2,25,1,3,86
52,1530212315539,71539, RC,0,39.9586422891,-88.4448908703,0,0.0,0.0,0.0,0.0,0.0,0.0,0.0,0.0,0.0,0.0,0.0,0.0,0.0,1500,1500,0.0,0.0,40.0470003333,-88.230694,0.0,0.0,0.0,0.0,0.0,0.0,0.0,0.0,0.0,0.0,0.0,0,0.0,0.0,0.0,0.0,90.0,90.0,48.0,89.25408935549999,89.1904296875,131.08000183110002,21.7739982605,15.511218070999998,1.3200000525,0,2,25,1,3,87
53,1530212315590,71590, RC,0,39.9586422891,-88.4448908703,0,0.0,0.0,0.0,0.0,0.0,0.0,0.0,0.0,0.0,0.0,0.0,0.0,0.0,1500,1500,0.0,0.0,40.0470003333,-88.230694,0.0,0.0,0.0,0.0,0.0,0.0,0.0,0.0,0.0,0.0,0.0,0,0.0,0.0,0.0,0.0,90.0,90.0,48.0,89.25408935549999,89.1904296875,131.08000183110002,21.7739982605,15.511218070999998,1.3200000525,0,2,25,1,4,89
54,1530212315640,71640, RC,0,39.9586422891,-88.4448908703,0,0.0,0.0,0.0,0.0,0.0,0.0,0.0,0.0,0.0,0.0,0.0,0.0,0.0,1500,1500,0.0,0.0,40.0470003333,-88.230694,0.0,0.0,0.0,0.0,0.0,0.0,0.0,0.0,0.0,0.0,0.0,0,0.0,0.0,0.0,0.0,90.0,90.0,48.0,89.25408935549999,89.12677001950001,131.08000183110002,21.7739982605,15.511218070999998,1.3200000525,0,2,25,1,3,90
55,1530212315691,71691, RC,0,39.9586422891,-88.4448908703,0,0.0,0.0,0.0,0.0,0.0,0.0,0.0,0.0,0.0,0.0,0.0,0.0,0.0,1500,1500,0.0,0.0,40.0470003333,-88.230694,0.0,0.0,0.0,0.0,0.0,0.0,0.0,0.0,0.0,0.0,0.0,0,0.0,0.0,0.0,0.0,90.0,90.0,48.0,89.25408935549999,89.12677001950001,131.08000183110002,21.7739982605,15.511218070999998,1.3200000525,0,2,25,1,5,92
56,1530212315741,71741, RC,0,39.9586422891,-88.4448908703,0,0.0,0.0,0.0,0.0,0.0,0.0,0.0,0.0,0.0,0.0,0.0,0.0,0.0,1500,1500,0.0,0.0,40.0470003333,-88.230694,0.0,0.0,0.0,0.0,0.0,0.0,0.0,0.0,0.0,0.0,0.0,0,0.0,0.0,0.0,0.0,90.0,90.0,48.0,89.25408935549999,89.12677001950001,131.08000183110002,21.7739982605,15.511218070999998,1.3200000525,0,2,25,1,6,93
57,1530212315792,71792, RC,0,39.9586422891,-88.4448908703,0,0.0,0.0,0.0,0.0,0.0,0.0,0.0,0.0,0.0,0.0,0.0,0.0,0.0,1500,1500,0.0,0.0,40.0470003333,-88.230694,0.0,0.0,0.0,0.0,0.0,0.0,0.0,0.0,0.0,0.0,0.0,0,0.0,0.0,0.0,0.0,90.0,90.0,48.0,89.25408935549999,89.12677001950001,131.08000183110002,21.7739982605,15.511218070999998,1.3200000525,0,2,25,1,5,95
58,1530212315843,71843, RC,0,39.9586422891,-88.4448908703,0,0.0,0.0,0.0,0.0,0.0,0.0,0.0,0.0,0.0,0.0,0.0,0.0,0.0,1500,1500,0.0,0.0,40.0470003333,-88.230694,0.0,0.0,0.0,0.0,0.0,0.0,0.0,0.0,0.0,0.0,0.0,0,0.0,0.0,0.0,0.0,90.0,90.0,48.0,89.25408935549999,89.12677001950001,131.08000183110002,21.7739982605,15.511218070999998,1.3200000525,0,2,25,1,5,96
59,1530212315893,71893, RC,0,39.9586422891,-88.4448908703,0,0.0,0.0,0.0,0.0,0.0,0.0,0.0,0.0,0.0,0.0,0.0,0.0,0.0,1500,1500,0.0,0.0,40.0470003333,-88.230694,0.0,0.0,0.0,0.0,0.0,0.0,0.0,0.0,0.0,0.0,0.0,0,0.0,0.0,0.0,0.0,90.0,90.0,48.0,89.25408935549999,89.12677001950001,131.08000183110002,21.7739982605,15.511218070999998,1.3200000525,0,2,25,1,5,98
60,1530212315944,71944, RC,0,39.9586422891,-88.4448908703,0,0.0,0.0,0.0,0.0,0.0,0.0,0.0,0.0,0.0,0.0,0.0,0.0,0.0,1500,1500,0.0,0.0,40.0470003333,-88.230694,0.0,0.0,0.0,0.0,0.0,0.0,0.0,0.0,0.0,0.0,0.0,0,0.0,0.0,0.0,0.0,90.0,90.0,48.0,89.25408935549999,89.12677001950001,131.08000183110002,21.7739982605,15.511218070999998,1.3200000525,0,2,25,1,7,99
61,1530212315994,71994, RC,0,39.9586422891,-88.4448908703,0,0.0,0.0,0.0,0.0,0.0,0.0,0.0,0.0,0.0,0.0,0.0,0.0,0.0,1500,1500,0.0,0.0,40.0470003333,-88.230694,0.0,0.0,0.0,0.0,0.0,0.0,0.0,0.0,0.0,0.0,0.0,0,0.0,0.0,0.0,0.0,90.0,90.0,48.0,89.25408935549999,89.12677001950001,131.08000183110002,21.7739982605,15.511218070999998,1.3200000525,0,2,25,1,6,101
62,1530212316045,72045, RC,0,39.9586422891,-88.4448908703,0,0.0,0.0,0.0,0.0,0.0,0.0,0.0,0.0,0.0,0.0,0.0,0.0,0.0,1500,1500,0.0,0.0,40.0470003333,-88.230694,0.0,0.0,0.0,0.0,0.0,0.0,0.0,0.0,0.0,0.0,0.0,0,0.0,0.0,0.0,0.0,90.0,90.0,48.0,89.25408935549999,89.12677001950001,131.08000183110002,21.7739982605,15.511218070999998,1.3200000525,0,2,25,1,6,102
63,1530212316095,72095, RC,0,39.9586422891,-88.4448908703,0,0.0,0.0,0.0,0.0,0.0,0.0,0.0,0.0,0.0,0.0,0.0,0.0,0.0,1500,1500,0.0,0.0,40.0470003333,-88.230694,0.0,0.0,0.0,0.0,0.0,0.0,0.0,0.0,0.0,0.0,0.0,0,0.0,0.0,0.0,0.0,90.0,90.0,48.0,89.25408935549999,89.12677001950001,131.08000183110002,21.7739982605,15.511218070999998,1.3200000525,0,2,25,1,5,104
64,1530212316146,72146, RC,0,39.9586422891,-88.4448908703,0,0.0,0.0,0.0,0.0,0.0,0.0,0.0,0.0,0.0,0.0,0.0,0.0,0.0,1500,1500,0.0,0.0,40.0470003333,-88.230694,0.0,0.0,0.0,0.0,0.0,0.0,0.0,0.0,0.0,0.0,0.0,0,0.0,0.0,0.0,0.0,90.0,90.0,48.0,89.25408935549999,89.12677001950001,131.08000183110002,21.7739982605,15.511218070999998,1.3200000525,0,2,25,1,5,105
65,1530212316197,72197, RC,0,39.9586422891,-88.4448908703,0,0.0,0.0,0.0,0.0,0.0,0.0,0.0,0.0,0.0,0.0,0.0,0.0,0.0,1500,1500,0.0,0.0,40.0470003333,-88.230694,0.0,0.0,0.0,0.0,0.0,0.0,0.0,0.0,0.0,0.0,0.0,0,0.0,0.0,0.0,0.0,90.0,90.0,48.0,89.25408935549999,89.12677001950001,131.08000183110002,21.7739982605,15.511218070999998,1.3200000525,0,2,25,1,5,107
66,1530212316247,72247, RC,0,39.9586422891,-88.4448908703,0,0.0,0.0,0.0,0.0,0.0,0.0,0.0,0.0,0.0,0.0,0.0,0.0,0.0,1500,1500,0.0,0.0,40.0470003333,-88.230694,0.0,0.0,0.0,0.0,0.0,0.0,0.0,0.0,0.0,0.0,0.0,0,0.0,0.0,0.0,0.0,90.0,90.0,48.0,89.25408935549999,89.12677001950001,131.08000183110002,21.7739982605,15.511218070999998,1.3200000525,0,2,25,1,6,109
67,1530212316298,72298, RC,0,39.9586422891,-88.4448908703,0,0.0,0.0,0.0,0.0,0.0,0.0,0.0,0.0,0.0,0.0,0.0,0.0,0.0,1500,1500,0.0,0.0,40.0470003333,-88.230694,0.0,0.0,0.0,0.0,0.0,0.0,0.0,0.0,0.0,0.0,0.0,0,0.0,0.0,0.0,0.0,90.0,90.0,48.0,89.25408935549999,89.12677001950001,131.08000183110002,21.7739982605,15.511218070999998,1.3200000525,0,2,25,1,7,110
68,1530212316348,72348, RC,0,39.9586422891,-88.4448908703,0,0.0,0.0,0.0,0.0,0.0,0.0,0.0,0.0,0.0,0.0,0.0,0.0,0.0,1500,1500,0.0,0.0,40.0470003333,-88.230694,0.0,0.0,0.0,0.0,0.0,0.0,0.0,0.0,0.0,0.0,0.0,0,0.0,0.0,0.0,0.0,90.0,90.0,48.0,89.25408935549999,89.1904296875,131.08000183110002,21.7739982605,15.511218070999998,1.3200000525,0,2,25,1,6,112
69,1530212316399,72399, RC,0,39.9586422891,-88.4448908703,0,0.0,0.0,0.0,0.0,0.0,0.0,0.0,0.0,0.0,0.0,0.0,0.0,0.0,1500,1500,0.0,0.0,40.047001,-88.23069316670001,0.0,0.0,0.0,0.0,0.0,0.0,0.0,0.0,0.0,0.0,0.0,0,0.0,0.0,0.0,0.0,90.0,90.0,48.0,89.25408935549999,89.12677001950001,131.08000183110002,21.7739982605,15.511218070999998,1.3200000525,0,2,25,1,7,113
70,1530212316449,72449, RC,0,39.9586422891,-88.4448908703,0,0.0,0.0,0.0,0.0,0.0,0.0,0.0,0.0,0.0,0.0,0.0,0.0,0.0,1500,1500,0.0,0.0,40.047001,-88.23069316670001,0.0,0.0,0.0,0.0,0.0,0.0,0.0,0.0,0.0,0.0,0.0,0,0.0,0.0,0.0,0.0,90.0,90.0,48.0,89.25408935549999,89.1904296875,131.08000183110002,21.7739982605,15.511218070999998,1.3200000525,0,2,25,1,6,115
71,1530212316500,72500, RC,0,39.9586422891,-88.4448908703,0,0.0,0.0,0.0,0.0,0.0,0.0,0.0,0.0,0.0,0.0,0.0,0.0,0.0,1500,1500,0.0,0.0,40.047001,-88.23069316670001,0.0,0.0,0.0,0.0,0.0,0.0,0.0,0.0,0.0,0.0,0.0,0,0.0,0.0,0.0,0.0,90.0,90.0,48.0,89.25408935549999,89.1904296875,131.08000183110002,21.7739982605,15.5063381195,0.8100000620000001,0,2,25,1,6,116
72,1530212316550,72550, RC,0,39.9586422891,-88.4448908703,0,0.0,0.0,0.0,0.0,0.0,0.0,0.0,0.0,0.0,0.0,0.0,0.0,0.0,1500,1500,0.0,0.0,40.047001,-88.23069316670001,0.0,0.0,0.0,0.0,0.0,0.0,0.0,0.0,0.0,0.0,0.0,0,0.0,0.0,0.0,0.0,90.0,90.0,48.0,89.25408935549999,89.1904296875,131.08000183110002,21.7739982605,15.5063381195,0.8100000620000001,0,2,25,1,7,118
73,1530212316601,72601, RC,0,39.9586422891,-88.4448908703,0,0.0,0.0,0.0,0.0,0.0,0.0,0.0,0.0,0.0,0.0,0.0,0.0,0.0,1500,1500,0.0,0.0,40.047001,-88.23069316670001,0.0,0.0,0.0,0.0,0.0,0.0,0.0,0.0,0.0,0.0,0.0,0,0.0,0.0,0.0,0.0,90.0,90.0,48.0,89.25408935549999,89.1904296875,131.08000183110002,21.7739982605,15.5063381195,0.8100000620000001,0,2,25,1,8,119
74,1530212316652,72652, RC,0,39.9586422891,-88.4448908703,0,0.0,0.0,0.0,0.0,0.0,0.0,0.0,0.0,0.0,0.0,0.0,0.0,0.0,1500,1500,0.0,0.0,40.047001,-88.23069316670001,0.0,0.0,0.0,0.0,0.0,0.0,0.0,0.0,0.0,0.0,0.0,0,0.0,0.0,0.0,0.0,90.0,90.0,48.0,89.25408935549999,89.1904296875,131.08000183110002,21.7739982605,15.5063381195,0.8100000620000001,0,2,25,1,7,121
75,1530212316702,72702, RC,0,39.9586422891,-88.4448908703,0,0.0,0.0,0.0,0.0,0.0,0.0,0.0,0.0,0.0,0.0,0.0,0.0,0.0,1500,1500,0.0,0.0,40.047001,-88.23069316670001,0.0,0.0,0.0,0.0,0.0,0.0,0.0,0.0,0.0,0.0,0.0,0,0.0,0.0,0.0,0.0,90.0,90.0,48.0,89.25408935549999,89.1904296875,131.08000183110002,21.7739982605,15.5063381195,0.8100000620000001,0,2,25,1,5,122
76,1530212316753,72753, RC,0,39.9586422891,-88.4448908703,0,0.0,0.0,0.0,0.0,0.0,0.0,0.0,0.0,0.0,0.0,0.0,0.0,0.0,1500,1500,0.0,0.0,40.047001,-88.23069316670001,0.0,0.0,0.0,0.0,0.0,0.0,0.0,0.0,0.0,0.0,0.0,0,0.0,0.0,0.0,0.0,90.0,90.0,48.0,89.25408935549999,89.1904296875,131.08000183110002,21.236000061,15.5063381195,0.8100000620000001,0,2,25,1,3,124
77,1530212316803,72803, RC,0,39.9586422891,-88.4448908703,0,0.0,0.0,0.0,0.0,0.0,0.0,0.0,0.0,0.0,0.0,0.0,0.0,0.0,1500,1500,0.0,0.0,40.047001,-88.23069316670001,0.0,0.0,0.0,0.0,0.0,0.0,0.0,0.0,0.0,0.0,0.0,0,0.0,0.0,0.0,0.0,90.0,90.0,48.0,89.25408935549999,89.1904296875,131.08000183110002,21.236000061,15.5063381195,0.8100000620000001,0,2,25,1,4,125
78,1530212316854,72854, RC,0,39.9586422891,-88.4448908703,0,0.0,0.0,0.0,0.0,0.0,0.0,0.0,0.0,0.0,0.0,0.0,0.0,0.0,1500,1500,0.0,0.0,40.047001,-88.23069316670001,0.0,0.0,0.0,0.0,0.0,0.0,0.0,0.0,0.0,0.0,0.0,0,0.0,0.0,0.0,0.0,90.0,90.0,48.0,89.25408935549999,89.1904296875,131.08000183110002,21.236000061,15.5063381195,0.8100000620000001,0,2,25,1,6,127
79,1530212316904,72904, RC,0,39.9586422891,-88.4448908703,0,0.0,0.0,0.0,0.0,0.0,0.0,0.0,0.0,0.0,0.0,0.0,0.0,0.0,1500,1500,0.0,0.0,40.047001,-88.23069316670001,0.0,0.0,0.0,0.0,0.0,0.0,0.0,0.0,0.0,0.0,0.0,0,0.0,0.0,0.0,0.0,90.0,90.0,48.0,89.25408935549999,89.1904296875,131.08000183110002,21.236000061,15.5063381195,0.8100000620000001,0,2,25,1,5,128
80,1530212316955,72955, RC,0,39.9586422891,-88.4448908703,0,0.0,0.0,0.0,0.0,0.0,0.0,0.0,0.0,0.0,0.0,0.0,0.0,0.0,1500,1500,0.0,0.0,40.047001,-88.23069316670001,0.0,0.0,0.0,0.0,0.0,0.0,0.0,0.0,0.0,0.0,0.0,0,0.0,0.0,0.0,0.0,90.0,90.0,48.0,89.25408935549999,89.1904296875,131.08000183110002,21.236000061,15.5063381195,0.8100000620000001,0,2,25,1,4,130
81,1530212317006,73006, RC,0,39.9586422891,-88.4448908703,0,0.0,0.0,0.0,0.0,0.0,0.0,0.0,0.0,0.0,0.0,0.0,0.0,0.0,1500,1500,0.0,0.0,40.047001,-88.23069316670001,0.0,0.0,0.0,0.0,0.0,0.0,0.0,0.0,0.0,0.0,0.0,0,0.0,0.0,0.0,0.0,90.0,90.0,48.0,89.25408935549999,89.1904296875,131.08000183110002,21.236000061,15.5063381195,0.8100000620000001,0,2,25,1,7,132
82,1530212317056,73056, RC,0,39.9586422891,-88.4448908703,0,0.0,0.0,0.0,0.0,0.0,0.0,0.0,0.0,0.0,0.0,0.0,0.0,0.0,1500,1500,0.0,0.0,40.047001,-88.23069316670001,0.0,0.0,0.0,0.0,0.0,0.0,0.0,0.0,0.0,0.0,0.0,0,0.0,0.0,0.0,0.0,90.0,90.0,48.0,89.25408935549999,89.1904296875,131.08000183110002,21.236000061,15.5063381195,0.8100000620000001,0,2,25,1,6,133
83,1530212317107,73107, RC,0,39.9586422891,-88.4448908703,0,0.0,0.0,0.0,0.0,0.0,0.0,0.0,0.0,0.0,0.0,0.0,0.0,0.0,1500,1500,0.0,0.0,40.047001,-88.23069316670001,0.0,0.0,0.0,0.0,0.0,0.0,0.0,0.0,0.0,0.0,0.0,0,0.0,0.0,0.0,0.0,90.0,90.0,48.0,89.25408935549999,89.1904296875,131.08000183110002,21.236000061,15.5063381195,0.8100000620000001,0,2,25,1,5,135
84,1530212317157,73157, RC,0,39.9586422891,-88.4448908703,0,0.0,0.0,0.0,0.0,0.0,0.0,0.0,0.0,0.0,0.0,0.0,0.0,0.0,1500,1500,0.0,0.0,40.047001,-88.23069316670001,0.0,0.0,0.0,0.0,0.0,0.0,0.0,0.0,0.0,0.0,0.0,0,0.0,0.0,0.0,0.0,90.0,90.0,48.0,89.25408935549999,89.1904296875,131.08000183110002,21.236000061,15.5063381195,0.8100000620000001,0,2,25,1,5,136
85,1530212317208,73208, RC,0,39.9586422891,-88.4448908703,0,0.0,0.0,0.0,0.0,0.0,0.0,0.0,0.0,0.0,0.0,0.0,0.0,0.0,1500,1500,0.0,0.0,40.047001,-88.23069316670001,0.0,0.0,0.0,0.0,0.0,0.0,0.0,0.0,0.0,0.0,0.0,0,0.0,0.0,0.0,0.0,90.0,90.0,48.0,89.25408935549999,89.1904296875,131.08000183110002,21.236000061,15.5063381195,0.8100000620000001,0,2,25,1,6,138
86,1530212317258,73258, RC,0,39.9586422891,-88.4448908703,0,0.0,0.0,0.0,0.0,0.0,0.0,0.0,0.0,0.0,0.0,0.0,0.0,0.0,1500,1500,0.0,0.0,40.047001,-88.23069316670001,0.0,0.0,0.0,0.0,0.0,0.0,0.0,0.0,0.0,0.0,0.0,0,0.0,0.0,0.0,0.0,90.0,90.0,48.0,89.25408935549999,89.1904296875,131.08000183110002,21.236000061,15.5063381195,0.8100000620000001,0,2,25,1,5,139
87,1530212317309,73309, RC,0,39.9586422891,-88.4448908703,0,0.0,0.0,0.0,0.0,0.0,0.0,0.0,0.0,0.0,0.0,0.0,0.0,0.0,1500,1500,0.0,0.0,40.047001,-88.23069316670001,0.0,0.0,0.0,0.0,0.0,0.0,0.0,0.0,0.0,0.0,0.0,0,0.0,0.0,0.0,0.0,90.0,90.0,48.0,89.25408935549999,89.1904296875,131.08000183110002,21.236000061,15.5063381195,0.8100000620000001,0,2,25,1,6,141
88,1530212317359,73359, RC,0,39.9586422891,-88.4448908703,0,0.0,0.0,0.0,0.0,0.0,0.0,0.0,0.0,0.0,0.0,0.0,0.0,0.0,1500,1500,0.0,0.0,40.047001,-88.23069316670001,0.0,0.0,0.0,0.0,0.0,0.0,0.0,0.0,0.0,0.0,0.0,0,0.0,0.0,0.0,0.0,90.0,90.0,48.0,89.25408935549999,89.1904296875,131.08000183110002,21.236000061,15.5063381195,0.8100000620000001,0,2,25,1,8,142
89,1530212317410,73410, RC,0,39.9586422891,-88.4448908703,0,0.0,0.0,0.0,0.0,0.0,0.0,0.0,0.0,0.0,0.0,0.0,0.0,0.0,1500,1500,0.0,0.0,40.047005,-88.2306908333,0.0,0.0,0.0,0.0,0.0,0.0,0.0,0.0,0.0,0.0,0.0,0,0.0,0.0,0.0,0.0,90.0,90.0,48.0,89.25408935549999,89.1904296875,131.08000183110002,21.236000061,15.5063381195,0.8100000620000001,0,2,25,1,6,144
90,1530212317461,73461, RC,0,39.9586422891,-88.4448908703,0,0.0,0.0,0.0,0.0,0.0,0.0,0.0,0.0,0.0,0.0,0.0,0.0,0.0,1500,1500,0.0,0.0,40.047005,-88.2306908333,0.0,0.0,0.0,0.0,0.0,0.0,0.0,0.0,0.0,0.0,0.0,0,0.0,0.0,0.0,0.0,90.0,90.0,48.0,89.25408935549999,89.1904296875,131.08000183110002,21.236000061,15.5063381195,0.8100000620000001,0,2,25,1,6,145
91,1530212317511,73511, RC,0,39.9586422891,-88.4448908703,0,0.0,0.0,0.0,0.0,0.0,0.0,0.0,0.0,0.0,0.0,0.0,0.0,0.0,1500,1500,0.0,0.0,40.047005,-88.2306908333,0.0,0.0,0.0,0.0,0.0,0.0,0.0,0.0,0.0,0.0,0.0,0,0.0,0.0,0.0,0.0,90.0,90.0,48.0,89.25408935549999,89.25408935549999,131.08000183110002,21.236000061,15.5065031052,0.9800000191,0,2,25,1,7,147
92,1530212317562,73562, RC,0,39.9586422891,-88.4448908703,0,0.0,0.0,0.0,0.0,0.0,0.0,0.0,0.0,0.0,0.0,0.0,0.0,0.0,1500,1500,0.0,0.0,40.047005,-88.2306908333,0.0,0.0,0.0,0.0,0.0,0.0,0.0,0.0,0.0,0.0,0.0,0,0.0,0.0,0.0,0.0,90.0,90.0,48.0,89.25408935549999,89.25408935549999,131.08000183110002,21.236000061,15.5065031052,0.9800000191,0,2,25,1,5,148
93,1530212317612,73612, RC,0,39.9586422891,-88.4448908703,0,0.0,0.0,0.0,0.0,0.0,0.0,0.0,0.0,0.0,0.0,0.0,0.0,0.0,1500,1500,0.0,0.0,40.047005,-88.2306908333,0.0,0.0,0.0,0.0,0.0,0.0,0.0,0.0,0.0,0.0,0.0,0,0.0,0.0,0.0,0.0,90.0,90.0,48.0,89.25408935549999,89.25408935549999,131.08000183110002,21.236000061,15.5065031052,0.9800000191,0,2,25,1,4,150
94,1530212317663,73663, RC,0,39.9586422891,-88.4448908703,0,0.0,0.0,0.0,0.0,0.0,0.0,0.0,0.0,0.0,0.0,0.0,0.0,0.0,1500,1500,0.0,0.0,40.047005,-88.2306908333,0.0,0.0,0.0,0.0,0.0,0.0,0.0,0.0,0.0,0.0,0.0,0,0.0,0.0,0.0,0.0,90.0,90.0,48.0,89.25408935549999,89.25408935549999,131.08000183110002,21.236000061,15.5065031052,0.9800000191,0,2,25,1,5,151
95,1530212317713,73713, RC,0,39.9586422891,-88.4448908703,0,0.0,0.0,0.0,0.0,0.0,0.0,0.0,0.0,0.0,0.0,0.0,0.0,0.0,1500,1500,0.0,0.0,40.047005,-88.2306908333,0.0,0.0,0.0,0.0,0.0,0.0,0.0,0.0,0.0,0.0,0.0,0,0.0,0.0,0.0,0.0,90.0,90.0,48.0,89.25408935549999,89.25408935549999,131.08000183110002,21.236000061,15.5065031052,0.9800000191,0,2,25,1,4,153
96,1530212317764,73764, RC,0,39.9586422891,-88.4448908703,0,0.0,0.0,0.0,0.0,0.0,0.0,0.0,0.0,0.0,0.0,0.0,0.0,0.0,1500,1500,0.0,0.0,40.047005,-88.2306908333,0.0,0.0,0.0,0.0,0.0,0.0,0.0,0.0,0.0,0.0,0.0,0,0.0,0.0,0.0,0.0,90.0,90.0,48.0,89.25408935549999,89.25408935549999,131.08000183110002,21.236000061,15.5065031052,0.9800000191,0,2,25,1,6,154
97,1530212317815,73815, RC,0,39.9586422891,-88.4448908703,0,0.0,0.0,0.0,0.0,0.0,0.0,0.0,0.0,0.0,0.0,0.0,0.0,0.0,1500,1500,0.0,0.0,40.047005,-88.2306908333,0.0,0.0,0.0,0.0,0.0,0.0,0.0,0.0,0.0,0.0,0.0,0,0.0,0.0,0.0,0.0,90.0,90.0,48.0,89.25408935549999,89.25408935549999,131.08000183110002,21.236000061,15.5065031052,0.9800000191,0,2,25,1,6,156
98,1530212317865,73865, RC,0,39.9586422891,-88.4448908703,0,0.0,0.0,0.0,0.0,0.0,0.0,0.0,0.0,0.0,0.0,0.0,0.0,0.0,1500,1500,0.0,0.0,40.047005,-88.2306908333,0.0,0.0,0.0,0.0,0.0,0.0,0.0,0.0,0.0,0.0,0.0,0,0.0,0.0,0.0,0.0,90.0,90.0,48.0,89.25408935549999,89.25408935549999,131.08000183110002,21.236000061,15.5065031052,0.9800000191,0,2,25,1,6,158
99,1530212317916,73916, RC,0,39.9586422891,-88.4448908703,0,0.0,0.0,0.0,0.0,0.0,0.0,0.0,0.0,0.0,0.0,0.0,0.0,0.0,1500,1500,0.0,0.0,40.047005,-88.2306908333,0.0,0.0,0.0,0.0,0.0,0.0,0.0,0.0,0.0,0.0,0.0,0,0.0,0.0,0.0,0.0,90.0,90.0,48.0,89.25408935549999,89.25408935549999,131.08000183110002,21.236000061,15.5065031052,0.9800000191,0,2,25,1,7,159
100,1530212317966,73966, RC,0,39.9586422891,-88.4448908703,0,0.0,0.0,0.0,0.0,0.0,0.0,0.0,0.0,0.0,0.0,0.0,0.0,0.0,1500,1500,0.0,0.0,40.047005,-88.2306908333,0.0,0.0,0.0,0.0,0.0,0.0,0.0,0.0,0.0,0.0,0.0,0,0.0,0.0,0.0,0.0,90.0,90.0,48.0,89.25408935549999,89.25408935549999,131.08000183110002,21.236000061,15.5065031052,0.9800000191,0,2,25,1,7,161
101,1530212318017,74017, RC,0,39.9586422891,-88.4448908703,0,0.0,0.0,0.0,0.0,0.0,0.0,0.0,0.0,0.0,0.0,0.0,0.0,0.0,1500,1500,0.0,0.0,40.047005,-88.2306908333,0.0,0.0,0.0,0.0,0.0,0.0,0.0,0.0,0.0,0.0,0.0,0,0.0,0.0,0.0,0.0,90.0,90.0,48.0,89.25408935549999,89.25408935549999,131.08000183110002,21.236000061,15.5065031052,0.9800000191,0,2,25,1,7,162
102,1530212318067,74067, RC,0,39.9586422891,-88.4448908703,0,0.0,0.0,0.0,0.0,0.0,0.0,0.0,0.0,0.0,0.0,0.0,0.0,0.0,1500,1500,0.0,0.0,40.047005,-88.2306908333,0.0,0.0,0.0,0.0,0.0,0.0,0.0,0.0,0.0,0.0,0.0,0,0.0,0.0,0.0,0.0,90.0,90.0,48.0,89.25408935549999,89.25408935549999,131.08000183110002,21.236000061,15.5065031052,0.9800000191,0,2,25,1,6,164
103,1530212318118,74118, RC,0,39.9586422891,-88.4448908703,0,0.0,0.0,0.0,0.0,0.0,0.0,0.0,0.0,0.0,0.0,0.0,0.0,0.0,1500,1500,0.0,0.0,40.047005,-88.2306908333,0.0,0.0,0.0,0.0,0.0,0.0,0.0,0.0,0.0,0.0,0.0,0,0.0,0.0,0.0,0.0,90.0,90.0,48.0,89.25408935549999,89.25408935549999,131.08000183110002,21.236000061,15.5065031052,0.9800000191,0,2,25,1,6,165
104,1530212318169,74169, RC,0,39.9586422891,-88.4448908703,0,0.0,0.0,0.0,0.0,0.0,0.0,0.0,0.0,0.0,0.0,0.0,0.0,0.0,1500,1500,0.0,0.0,40.047005,-88.2306908333,0.0,0.0,0.0,0.0,0.0,0.0,0.0,0.0,0.0,0.0,0.0,0,0.0,0.0,0.0,0.0,90.0,90.0,48.0,89.25408935549999,89.25408935549999,131.08000183110002,21.236000061,15.5065031052,0.9800000191,0,2,25,1,6,167
105,1530212318219,74219, RC,0,39.9586422891,-88.4448908703,0,0.0,0.0,0.0,0.0,0.0,0.0,0.0,0.0,0.0,0.0,0.0,0.0,0.0,1500,1500,0.0,0.0,40.047005,-88.2306908333,0.0,0.0,0.0,0.0,0.0,0.0,0.0,0.0,0.0,0.0,0.0,0,0.0,0.0,0.0,0.0,90.0,90.0,48.0,89.25408935549999,89.25408935549999,131.08000183110002,21.236000061,15.5065031052,0.9800000191,0,2,25,1,8,168
106,1530212318270,74270, RC,0,39.9586422891,-88.4448908703,0,0.0,0.0,0.0,0.0,0.0,0.0,0.0,0.0,0.0,0.0,0.0,0.0,0.0,1500,1500,0.0,0.0,40.047005,-88.2306908333,0.0,0.0,0.0,0.0,0.0,0.0,0.0,0.0,0.0,0.0,0.0,0,0.0,0.0,0.0,0.0,90.0,90.0,48.0,89.25408935549999,89.25408935549999,131.08000183110002,21.236000061,15.5065031052,0.9800000191,0,2,25,1,6,170
107,1530212318321,74321, RC,0,39.9586422891,-88.4448908703,0,0.0,0.0,0.0,0.0,0.0,0.0,0.0,0.0,0.0,0.0,0.0,0.0,0.0,1500,1500,0.0,0.0,40.047005,-88.2306908333,0.0,0.0,0.0,0.0,0.0,0.0,0.0,0.0,0.0,0.0,0.0,0,0.0,0.0,0.0,0.0,90.0,90.0,48.0,89.25408935549999,89.25408935549999,131.08000183110002,21.236000061,15.5065031052,0.9800000191,0,2,25,1,6,171
108,1530212318371,74371, RC,0,39.9586422891,-88.4448908703,0,0.0,0.0,0.0,0.0,0.0,0.0,0.0,0.0,0.0,0.0,0.0,0.0,0.0,1500,1500,0.0,0.0,40.0470073333,-88.2306913333,0.0,0.0,0.0,0.0,0.0,0.0,0.0,0.0,0.0,0.0,0.0,0,0.0,0.0,0.0,0.0,90.0,90.0,48.0,89.25408935549999,89.3177566528,131.08000183110002,21.236000061,15.5065031052,0.9800000191,0,2,25,1,6,173
109,1530212318422,74422, RC,0,39.9586422891,-88.4448908703,0,0.0,0.0,0.0,0.0,0.0,0.0,0.0,0.0,0.0,0.0,0.0,0.0,0.0,1500,1500,0.0,0.0,40.0470073333,-88.2306913333,0.0,0.0,0.0,0.0,0.0,0.0,0.0,0.0,0.0,0.0,0.0,0,0.0,0.0,0.0,0.0,90.0,90.0,48.0,89.25408935549999,89.3177566528,131.08000183110002,21.236000061,15.5065031052,0.9800000191,0,2,25,1,6,174
110,1530212318472,74472, RC,0,39.9586422891,-88.4448908703,0,0.0,0.0,0.0,0.0,0.0,0.0,0.0,0.0,0.0,0.0,0.0,0.0,0.0,1500,1500,0.0,0.0,40.0470073333,-88.2306913333,0.0,0.0,0.0,0.0,0.0,0.0,0.0,0.0,0.0,0.0,0.0,0,0.0,0.0,0.0,0.0,90.0,90.0,48.0,89.25408935549999,89.3177566528,131.08000183110002,21.236000061,15.5065031052,0.9800000191,0,2,25,1,3,176
111,1530212318523,74523, RC,0,39.9586422891,-88.4448908703,0,0.0,0.0,0.0,0.0,0.0,0.0,0.0,0.0,0.0,0.0,0.0,0.0,0.0,1500,1500,0.0,0.0,40.0470073333,-88.2306913333,0.0,0.0,0.0,0.0,0.0,0.0,0.0,0.0,0.0,0.0,0.0,0,0.0,0.0,0.0,0.0,90.0,90.0,48.0,89.25408935549999,89.3177566528,131.08000183110002,21.236000061,15.5018062592,1.4800000191,0,2,25,1,4,177
112,1530212318573,74573, RC,0,39.9586422891,-88.4448908703,0,0.0,0.0,0.0,0.0,0.0,0.0,0.0,0.0,0.0,0.0,0.0,0.0,0.0,1500,1500,0.0,0.0,40.0470073333,-88.2306913333,0.0,0.0,0.0,0.0,0.0,0.0,0.0,0.0,0.0,0.0,0.0,0,0.0,0.0,0.0,0.0,90.0,90.0,48.0,89.25408935549999,89.3177566528,131.08000183110002,21.236000061,15.5018062592,1.4800000191,0,2,25,1,4,179
113,1530212318624,74624, RC,0,39.9586422891,-88.4448908703,0,0.0,0.0,0.0,0.0,0.0,0.0,0.0,0.0,0.0,0.0,0.0,0.0,0.0,1500,1500,0.0,0.0,40.0470073333,-88.2306913333,0.0,0.0,0.0,0.0,0.0,0.0,0.0,0.0,0.0,0.0,0.0,0,0.0,0.0,0.0,0.0,90.0,90.0,48.0,89.25408935549999,89.3177566528,131.08000183110002,21.236000061,15.5018062592,1.4800000191,0,2,25,1,3,180
114,1530212318675,74675, RC,0,39.9586422891,-88.4448908703,0,0.0,0.0,0.0,0.0,0.0,0.0,0.0,0.0,0.0,0.0,0.0,0.0,0.0,1500,1500,0.0,0.0,40.0470073333,-88.2306913333,0.0,0.0,0.0,0.0,0.0,0.0,0.0,0.0,0.0,0.0,0.0,0,0.0,0.0,0.0,0.0,90.0,90.0,48.0,89.25408935549999,89.3177566528,131.08000183110002,21.236000061,15.5018062592,1.4800000191,0,2,25,1,4,182
115,1530212318725,74725, RC,0,39.9586422891,-88.4448908703,0,0.0,0.0,0.0,0.0,0.0,0.0,0.0,0.0,0.0,0.0,0.0,0.0,0.0,1500,1500,0.0,0.0,40.0470073333,-88.2306913333,0.0,0.0,0.0,0.0,0.0,0.0,0.0,0.0,0.0,0.0,0.0,0,0.0,0.0,0.0,0.0,90.0,90.0,48.0,89.25408935549999,89.3177566528,131.08000183110002,21.236000061,15.5018062592,1.4800000191,0,2,25,1,5,183
116,1530212318776,74776, RC,0,39.9586422891,-88.4448908703,0,0.0,0.0,0.0,0.0,0.0,0.0,0.0,0.0,0.0,0.0,0.0,0.0,0.0,1500,1500,0.0,0.0,40.0470073333,-88.2306913333,0.0,0.0,0.0,0.0,0.0,0.0,0.0,0.0,0.0,0.0,0.0,0,0.0,0.0,0.0,0.0,90.0,90.0,48.0,89.25408935549999,89.3177566528,131.08000183110002,21.236000061,15.5018062592,1.4800000191,0,2,25,1,6,185
117,1530212318826,74826, RC,0,39.9586422891,-88.4448908703,0,0.0,0.0,0.0,0.0,0.0,0.0,0.0,0.0,0.0,0.0,0.0,0.0,0.0,1500,1500,0.0,0.0,40.0470073333,-88.2306913333,0.0,0.0,0.0,0.0,0.0,0.0,0.0,0.0,0.0,0.0,0.0,0,0.0,0.0,0.0,0.0,90.0,90.0,48.0,89.25408935549999,89.3177566528,131.08000183110002,21.236000061,15.5018062592,1.4800000191,0,2,25,1,7,187
118,1530212318877,74877, RC,0,39.9586422891,-88.4448908703,0,0.0,0.0,0.0,0.0,0.0,0.0,0.0,0.0,0.0,0.0,0.0,0.0,0.0,1500,1500,0.0,0.0,40.0470073333,-88.2306913333,0.0,0.0,0.0,0.0,0.0,0.0,0.0,0.0,0.0,0.0,0.0,0,0.0,0.0,0.0,0.0,90.0,90.0,48.0,89.1904296875,89.3177566528,131.08000183110002,21.236000061,15.5018062592,1.4800000191,0,2,25,1,7,188
119,1530212318927,74927, RC,0,39.9586422891,-88.4448908703,0,0.0,0.0,0.0,0.0,0.0,0.0,0.0,0.0,0.0,0.0,0.0,0.0,0.0,1500,1500,0.0,0.0,40.0470073333,-88.2306913333,0.0,0.0,0.0,0.0,0.0,0.0,0.0,0.0,0.0,0.0,0.0,0,0.0,0.0,0.0,0.0,90.0,90.0,48.0,89.1904296875,89.3177566528,131.08000183110002,21.236000061,15.5018062592,1.4800000191,0,2,25,1,7,190
120,1530212318978,74978, RC,0,39.9586422891,-88.4448908703,0,0.0,0.0,0.0,0.0,0.0,0.0,0.0,0.0,0.0,0.0,0.0,0.0,0.0,1500,1500,0.0,0.0,40.0470073333,-88.2306913333,0.0,0.0,0.0,0.0,0.0,0.0,0.0,0.0,0.0,0.0,0.0,0,0.0,0.0,0.0,0.0,90.0,90.0,48.0,89.25408935549999,89.3177566528,131.08000183110002,21.236000061,15.5018062592,1.4800000191,0,2,25,1,7,191
121,1530212319029,75029, RC,0,39.9586422891,-88.4448908703,0,0.0,0.0,0.0,0.0,0.0,0.0,0.0,0.0,0.0,0.0,0.0,0.0,0.0,1500,1500,0.0,0.0,40.0470073333,-88.2306913333,0.0,0.0,0.0,0.0,0.0,0.0,0.0,0.0,0.0,0.0,0.0,0,0.0,0.0,0.0,0.0,90.0,90.0,48.0,89.25408935549999,89.3177566528,131.08000183110002,21.236000061,15.5018062592,1.4800000191,0,2,25,1,5,193
122,1530212319079,75079, RC,0,39.9586422891,-88.4448908703,0,0.0,0.0,0.0,0.0,0.0,0.0,0.0,0.0,0.0,0.0,0.0,0.0,0.0,1500,1500,0.0,0.0,40.0470073333,-88.2306913333,0.0,0.0,0.0,0.0,0.0,0.0,0.0,0.0,0.0,0.0,0.0,0,0.0,0.0,0.0,0.0,90.0,90.0,48.0,89.25408935549999,89.3177566528,131.08000183110002,21.236000061,15.5018062592,1.4800000191,0,2,25,1,5,194
123,1530212319130,75130, RC,0,39.9586422891,-88.4448908703,0,0.0,0.0,0.0,0.0,0.0,0.0,0.0,0.0,0.0,0.0,0.0,0.0,0.0,1500,1500,0.0,0.0,40.0470073333,-88.2306913333,0.0,0.0,0.0,0.0,0.0,0.0,0.0,0.0,0.0,0.0,0.0,0,0.0,0.0,0.0,0.0,90.0,90.0,48.0,89.25408935549999,89.3177566528,131.08000183110002,21.236000061,15.5018062592,1.4800000191,0,2,25,1,6,196
124,1530212319180,75180, RC,0,39.9586422891,-88.4448908703,0,0.0,0.0,0.0,0.0,0.0,0.0,0.0,0.0,0.0,0.0,0.0,0.0,0.0,1500,1500,0.0,0.0,40.0470073333,-88.2306913333,0.0,0.0,0.0,0.0,0.0,0.0,0.0,0.0,0.0,0.0,0.0,0,0.0,0.0,0.0,0.0,90.0,90.0,48.0,89.1904296875,89.3177566528,131.08000183110002,21.236000061,15.5018062592,1.4800000191,0,2,25,1,6,197
125,1530212319231,75231, RC,0,39.9586422891,-88.4448908703,0,0.0,0.0,0.0,0.0,0.0,0.0,0.0,0.0,0.0,0.0,0.0,0.0,0.0,1500,1500,0.0,0.0,40.0470073333,-88.2306913333,0.0,0.0,0.0,0.0,0.0,0.0,0.0,0.0,0.0,0.0,0.0,0,0.0,0.0,0.0,0.0,90.0,90.0,48.0,89.1904296875,89.3177566528,131.08000183110002,21.236000061,15.5018062592,1.4800000191,0,2,25,1,6,199
126,1530212319281,75281, RC,0,39.9586422891,-88.4448908703,0,0.0,0.0,0.0,0.0,0.0,0.0,0.0,0.0,0.0,0.0,0.0,0.0,0.0,1500,1500,0.0,0.0,40.0470073333,-88.2306913333,0.0,0.0,0.0,0.0,0.0,0.0,0.0,0.0,0.0,0.0,0.0,0,0.0,0.0,0.0,0.0,90.0,90.0,48.0,89.1904296875,89.3177566528,131.08000183110002,21.236000061,15.5018062592,1.4800000191,0,2,25,1,5,200
127,1530212319332,75332, RC,0,39.9586422891,-88.4448908703,0,0.0,0.0,0.0,0.0,0.0,0.0,0.0,0.0,0.0,0.0,0.0,0.0,0.0,1500,1500,0.0,0.0,40.0470073333,-88.2306913333,0.0,0.0,0.0,0.0,0.0,0.0,0.0,0.0,0.0,0.0,0.0,0,0.0,0.0,0.0,0.0,90.0,90.0,48.0,89.1904296875,89.3177566528,131.08000183110002,21.236000061,15.5018062592,1.4800000191,0,2,25,1,5,202
128,1530212319383,75383, RC,0,39.9586422891,-88.4448908703,0,0.0,0.0,0.0,0.0,0.0,0.0,0.0,0.0,0.0,0.0,0.0,0.0,0.0,1500,1500,0.0,0.0,40.047009,-88.2306906667,0.0,0.0,0.0,0.0,0.0,0.0,0.0,0.0,0.0,0.0,0.0,0,0.0,0.0,0.0,0.0,90.0,90.0,48.0,89.1904296875,89.3177566528,131.08000183110002,21.236000061,15.5018062592,1.4800000191,0,2,25,1,5,203
129,1530212319433,75433, RC,0,39.9586422891,-88.4448908703,0,0.0,0.0,0.0,0.0,0.0,0.0,0.0,0.0,0.0,0.0,0.0,0.0,0.0,1500,1500,0.0,0.0,40.047009,-88.2306906667,0.0,0.0,0.0,0.0,0.0,0.0,0.0,0.0,0.0,0.0,0.0,0,0.0,0.0,0.0,0.0,90.0,90.0,48.0,89.1904296875,89.3177566528,131.08000183110002,21.236000061,15.5018062592,1.4800000191,0,2,25,1,8,205
130,1530212319484,75484, RC,0,39.9586422891,-88.4448908703,0,0.0,0.0,0.0,0.0,0.0,0.0,0.0,0.0,0.0,0.0,0.0,0.0,0.0,1500,1500,0.0,0.0,40.047009,-88.2306906667,0.0,0.0,0.0,0.0,0.0,0.0,0.0,0.0,0.0,0.0,0.0,0,0.0,0.0,0.0,0.0,90.0,90.0,48.0,89.1904296875,89.3177566528,131.08000183110002,21.236000061,15.502218246500002,1.6899999380000001,0,2,25,1,8,206
131,1530212319534,75534, RC,0,39.9586422891,-88.4448908703,0,0.0,0.0,0.0,0.0,0.0,0.0,0.0,0.0,0.0,0.0,0.0,0.0,0.0,1500,1500,0.0,0.0,40.047009,-88.2306906667,0.0,0.0,0.0,0.0,0.0,0.0,0.0,0.0,0.0,0.0,0.0,0,0.0,0.0,0.0,0.0,90.0,90.0,48.0,89.1904296875,89.3177566528,131.08000183110002,21.236000061,15.502218246500002,1.6899999380000001,0,2,25,1,5,208
132,1530212319585,75585, RC,0,39.9586422891,-88.4448908703,0,0.0,0.0,0.0,0.0,0.0,0.0,0.0,0.0,0.0,0.0,0.0,0.0,0.0,1500,1500,0.0,0.0,40.047009,-88.2306906667,0.0,0.0,0.0,0.0,0.0,0.0,0.0,0.0,0.0,0.0,0.0,0,0.0,0.0,0.0,0.0,90.0,90.0,48.0,89.1904296875,89.3177566528,131.08000183110002,21.236000061,15.502218246500002,1.6899999380000001,0,2,25,1,8,210
133,1530212319635,75635, RC,0,39.9586422891,-88.4448908703,0,0.0,0.0,0.0,0.0,0.0,0.0,0.0,0.0,0.0,0.0,0.0,0.0,0.0,1500,1500,0.0,0.0,40.047009,-88.2306906667,0.0,0.0,0.0,0.0,0.0,0.0,0.0,0.0,0.0,0.0,0.0,0,0.0,0.0,0.0,0.0,90.0,90.0,48.0,89.1904296875,89.3177566528,131.08000183110002,21.236000061,15.502218246500002,1.6899999380000001,0,2,25,1,7,211
134,1530212319686,75686, RC,0,39.9586422891,-88.4448908703,0,0.0,0.0,0.0,0.0,0.0,0.0,0.0,0.0,0.0,0.0,0.0,0.0,0.0,1500,1500,0.0,0.0,40.047009,-88.2306906667,0.0,0.0,0.0,0.0,0.0,0.0,0.0,0.0,0.0,0.0,0.0,0,0.0,0.0,0.0,0.0,90.0,90.0,48.0,89.1904296875,89.3814163208,131.08000183110002,21.236000061,15.502218246500002,1.6899999380000001,0,2,25,1,7,213
135,1530212319737,75737, RC,0,39.9586422891,-88.4448908703,0,0.0,0.0,0.0,0.0,0.0,0.0,0.0,0.0,0.0,0.0,0.0,0.0,0.0,1500,1500,0.0,0.0,40.047009,-88.2306906667,0.0,0.0,0.0,0.0,0.0,0.0,0.0,0.0,0.0,0.0,0.0,0,0.0,0.0,0.0,0.0,90.0,90.0,48.0,89.1904296875,89.3177566528,131.08000183110002,21.236000061,15.502218246500002,1.6899999380000001,0,2,25,1,6,214
136,1530212319787,75787, RC,0,39.9586422891,-88.4448908703,0,0.0,0.0,0.0,0.0,0.0,0.0,0.0,0.0,0.0,0.0,0.0,0.0,0.0,1500,1500,0.0,0.0,40.047009,-88.2306906667,0.0,0.0,0.0,0.0,0.0,0.0,0.0,0.0,0.0,0.0,0.0,0,0.0,0.0,0.0,0.0,90.0,90.0,48.0,89.1904296875,89.3814163208,131.08000183110002,21.236000061,15.502218246500002,1.6899999380000001,0,2,25,1,6,216
137,1530212319838,75838, RC,0,39.9586422891,-88.4448908703,0,0.0,0.0,0.0,0.0,0.0,0.0,0.0,0.0,0.0,0.0,0.0,0.0,0.0,1500,1500,0.0,0.0,40.047009,-88.2306906667,0.0,0.0,0.0,0.0,0.0,0.0,0.0,0.0,0.0,0.0,0.0,0,0.0,0.0,0.0,0.0,90.0,90.0,48.0,89.1904296875,89.3814163208,131.08000183110002,21.236000061,15.502218246500002,1.6899999380000001,0,2,25,1,6,217
138,1530212319888,75888, RC,0,39.9586422891,-88.4448908703,0,0.0,0.0,0.0,0.0,0.0,0.0,0.0,0.0,0.0,0.0,0.0,0.0,0.0,1500,1500,0.0,0.0,40.047009,-88.2306906667,0.0,0.0,0.0,0.0,0.0,0.0,0.0,0.0,0.0,0.0,0.0,0,0.0,0.0,0.0,0.0,90.0,90.0,48.0,89.1904296875,89.3814163208,131.08000183110002,21.236000061,15.502218246500002,1.6899999380000001,0,2,25,1,8,219
139,1530212319939,75939, RC,0,39.9586422891,-88.4448908703,0,0.0,0.0,0.0,0.0,0.0,0.0,0.0,0.0,0.0,0.0,0.0,0.0,0.0,1500,1500,0.0,0.0,40.047009,-88.2306906667,0.0,0.0,0.0,0.0,0.0,0.0,0.0,0.0,0.0,0.0,0.0,0,0.0,0.0,0.0,0.0,90.0,90.0,48.0,89.1904296875,89.3814163208,131.08000183110002,21.236000061,15.502218246500002,1.6899999380000001,0,2,25,1,8,220
140,1530212319989,75989, RC,0,39.9586422891,-88.4448908703,0,0.0,0.0,0.0,0.0,0.0,0.0,0.0,0.0,0.0,0.0,0.0,0.0,0.0,1500,1500,0.0,0.0,40.047009,-88.2306906667,0.0,0.0,0.0,0.0,0.0,0.0,0.0,0.0,0.0,0.0,0.0,0,0.0,0.0,0.0,0.0,90.0,90.0,48.0,89.1904296875,89.3814163208,131.08000183110002,21.236000061,15.502218246500002,1.6899999380000001,0,2,25,1,8,222
141,1530212320040,76040, RC,0,39.9586422891,-88.4448908703,0,0.0,0.0,0.0,0.0,0.0,0.0,0.0,0.0,0.0,0.0,0.0,0.0,0.0,1500,1500,0.0,0.0,40.047009,-88.2306906667,0.0,0.0,0.0,0.0,0.0,0.0,0.0,0.0,0.0,0.0,0.0,0,0.0,0.0,0.0,0.0,90.0,90.0,48.0,89.1904296875,89.3814163208,131.08000183110002,21.236000061,15.502218246500002,1.6899999380000001,0,2,25,1,6,223
142,1530212320091,76091, RC,0,39.9586422891,-88.4448908703,0,0.0,0.0,0.0,0.0,0.0,0.0,0.0,0.0,0.0,0.0,0.0,0.0,0.0,1500,1500,0.0,0.0,40.047009,-88.2306906667,0.0,0.0,0.0,0.0,0.0,0.0,0.0,0.0,0.0,0.0,0.0,0,0.0,0.0,0.0,0.0,90.0,90.0,48.0,89.1904296875,89.3814163208,131.08000183110002,21.236000061,15.502218246500002,1.6899999380000001,0,2,25,1,6,225
143,1530212320141,76141, RC,0,39.9586422891,-88.4448908703,0,0.0,0.0,0.0,0.0,0.0,0.0,0.0,0.0,0.0,0.0,0.0,0.0,0.0,1500,1500,0.0,0.0,40.047009,-88.2306906667,0.0,0.0,0.0,0.0,0.0,0.0,0.0,0.0,0.0,0.0,0.0,0,0.0,0.0,0.0,0.0,90.0,90.0,48.0,89.1904296875,89.3814163208,131.08000183110002,21.236000061,15.502218246500002,1.6899999380000001,0,2,25,1,5,227
144,1530212320192,76192, RC,0,39.9586422891,-88.4448908703,0,0.0,0.0,0.0,0.0,0.0,0.0,0.0,0.0,0.0,0.0,0.0,0.0,0.0,1500,1500,0.0,0.0,40.047009,-88.2306906667,0.0,0.0,0.0,0.0,0.0,0.0,0.0,0.0,0.0,0.0,0.0,0,0.0,0.0,0.0,0.0,90.0,90.0,48.0,89.1904296875,89.3814163208,131.08000183110002,21.236000061,15.502218246500002,1.6899999380000001,0,2,25,1,6,229
145,1530212320242,76242, RC,0,39.9586422891,-88.4448908703,0,0.0,0.0,0.0,0.0,0.0,0.0,0.0,0.0,0.0,0.0,0.0,0.0,0.0,1500,1500,0.0,0.0,40.047009,-88.2306906667,0.0,0.0,0.0,0.0,0.0,0.0,0.0,0.0,0.0,0.0,0.0,0,0.0,0.0,0.0,0.0,90.0,90.0,48.0,89.1904296875,89.3814163208,131.08000183110002,21.236000061,15.502218246500002,1.6899999380000001,0,2,25,1,6,230
146,1530212320293,76293, RC,0,39.9586422891,-88.4448908703,0,0.0,0.0,0.0,0.0,0.0,0.0,0.0,0.0,0.0,0.0,0.0,0.0,0.0,1500,1500,0.0,0.0,40.047009,-88.2306906667,0.0,0.0,0.0,0.0,0.0,0.0,0.0,0.0,0.0,0.0,0.0,0,0.0,0.0,0.0,0.0,90.0,90.0,48.0,89.1904296875,89.3814163208,131.08000183110002,21.236000061,15.502218246500002,1.6899999380000001,0,2,25,1,6,232
147,1530212320343,76343, RC,0,39.9586422891,-88.4448908703,0,0.0,0.0,0.0,0.0,0.0,0.0,0.0,0.0,0.0,0.0,0.0,0.0,0.0,1500,1500,0.0,0.0,40.047009,-88.2306906667,0.0,0.0,0.0,0.0,0.0,0.0,0.0,0.0,0.0,0.0,0.0,0,0.0,0.0,0.0,0.0,90.0,90.0,48.0,89.1904296875,89.3177566528,131.08000183110002,21.236000061,15.502218246500002,1.6899999380000001,0,2,25,1,8,233
148,1530212320394,76394, RC,0,39.9586422891,-88.4448908703,0,0.0,0.0,0.0,0.0,0.0,0.0,0.0,0.0,0.0,0.0,0.0,0.0,0.0,1500,1500,0.0,0.0,40.0470108333,-88.2306916667,0.0,0.0,0.0,0.0,0.0,0.0,0.0,0.0,0.0,0.0,0.0,0,0.0,0.0,0.0,0.0,90.0,90.0,48.0,89.1904296875,89.3177566528,131.08000183110002,21.236000061,15.502218246500002,1.6899999380000001,0,2,25,1,5,235
149,1530212320445,76445, RC,0,39.9586422891,-88.4448908703,0,0.0,0.0,0.0,0.0,0.0,0.0,0.0,0.0,0.0,0.0,0.0,0.0,0.0,1500,1500,0.0,0.0,40.0470108333,-88.2306916667,0.0,0.0,0.0,0.0,0.0,0.0,0.0,0.0,0.0,0.0,0.0,0,0.0,0.0,0.0,0.0,90.0,90.0,48.0,89.1904296875,89.3177566528,131.08000183110002,21.236000061,15.502218246500002,1.6899999380000001,0,2,25,1,6,236
150,1530212320495,76495, RC,0,39.9586422891,-88.4448908703,0,0.0,0.0,0.0,0.0,0.0,0.0,0.0,0.0,0.0,0.0,0.0,0.0,0.0,1500,1500,0.0,0.0,40.0470108333,-88.2306916667,0.0,0.0,0.0,0.0,0.0,0.0,0.0,0.0,0.0,0.0,0.0,0,0.0,0.0,0.0,0.0,90.0,90.0,48.0,89.1904296875,89.3177566528,131.08000183110002,21.236000061,15.497589111300002,1.8099999428,0,2,25,1,6,238
151,1530212320546,76546, RC,0,39.9586422891,-88.4448908703,0,0.0,0.0,0.0,0.0,0.0,0.0,0.0,0.0,0.0,0.0,0.0,0.0,0.0,1500,1500,0.0,0.0,40.0470108333,-88.2306916667,0.0,0.0,0.0,0.0,0.0,0.0,0.0,0.0,0.0,0.0,0.0,0,0.0,0.0,0.0,0.0,90.0,90.0,48.0,89.1904296875,89.25408935549999,131.08000183110002,21.236000061,15.497589111300002,1.8099999428,0,2,25,1,7,240
152,1530212320596,76596, RC,0,39.9586422891,-88.4448908703,0,0.0,0.0,0.0,0.0,0.0,0.0,0.0,0.0,0.0,0.0,0.0,0.0,0.0,1500,1500,0.0,0.0,40.0470108333,-88.2306916667,0.0,0.0,0.0,0.0,0.0,0.0,0.0,0.0,0.0,0.0,0.0,0,0.0,0.0,0.0,0.0,90.0,90.0,48.0,89.1904296875,89.25408935549999,131.08000183110002,21.236000061,15.497589111300002,1.8099999428,0,2,25,1,8,241
153,1530212320647,76647, RC,0,39.9586422891,-88.4448908703,0,0.0,0.0,0.0,0.0,0.0,0.0,0.0,0.0,0.0,0.0,0.0,0.0,0.0,1500,1500,0.0,0.0,40.0470108333,-88.2306916667,0.0,0.0,0.0,0.0,0.0,0.0,0.0,0.0,0.0,0.0,0.0,0,0.0,0.0,0.0,0.0,90.0,90.0,48.0,89.1904296875,89.25408935549999,131.08000183110002,21.236000061,15.497589111300002,1.8099999428,0,2,25,1,5,243
154,1530212320698,76698, RC,0,39.9586422891,-88.4448908703,0,0.0,0.0,0.0,0.0,0.0,0.0,0.0,0.0,0.0,0.0,0.0,0.0,0.0,1500,1500,0.0,0.0,40.0470108333,-88.2306916667,0.0,0.0,0.0,0.0,0.0,0.0,0.0,0.0,0.0,0.0,0.0,0,0.0,0.0,0.0,0.0,90.0,90.0,48.0,89.1904296875,89.25408935549999,131.08000183110002,21.236000061,15.497589111300002,1.8099999428,0,2,25,1,6,244
155,1530212320748,76748, RC,0,39.9586422891,-88.4448908703,0,0.0,0.0,0.0,0.0,0.0,0.0,0.0,0.0,0.0,0.0,0.0,0.0,0.0,1500,1500,0.0,0.0,40.0470108333,-88.2306916667,0.0,0.0,0.0,0.0,0.0,0.0,0.0,0.0,0.0,0.0,0.0,0,0.0,0.0,0.0,0.0,90.0,90.0,48.0,89.1904296875,89.25408935549999,131.08000183110002,21.236000061,15.497589111300002,1.8099999428,0,2,25,1,6,246
156,1530212320799,76799, RC,0,39.9586422891,-88.4448908703,0,0.0,0.0,0.0,0.0,0.0,0.0,0.0,0.0,0.0,0.0,0.0,0.0,0.0,1500,1500,0.0,0.0,40.0470108333,-88.2306916667,0.0,0.0,0.0,0.0,0.0,0.0,0.0,0.0,0.0,0.0,0.0,0,0.0,0.0,0.0,0.0,90.0,90.0,48.0,89.1904296875,89.1904296875,131.08000183110002,21.236000061,15.497589111300002,1.8099999428,0,2,25,1,6,247
157,1530212320849,76849, RC,0,39.9586422891,-88.4448908703,0,0.0,0.0,0.0,0.0,0.0,0.0,0.0,0.0,0.0,0.0,0.0,0.0,0.0,1500,1500,0.0,0.0,40.0470108333,-88.2306916667,0.0,0.0,0.0,0.0,0.0,0.0,0.0,0.0,0.0,0.0,0.0,0,0.0,0.0,0.0,0.0,90.0,90.0,48.0,89.1904296875,89.1904296875,131.08000183110002,21.236000061,15.497589111300002,1.8099999428,0,2,25,1,6,249
158,1530212320900,76900, RC,0,39.9586422891,-88.4448908703,0,0.0,0.0,0.0,0.0,0.0,0.0,0.0,0.0,0.0,0.0,0.0,0.0,0.0,1500,1500,0.0,0.0,40.0470108333,-88.2306916667,0.0,0.0,0.0,0.0,0.0,0.0,0.0,0.0,0.0,0.0,0.0,0,0.0,0.0,0.0,0.0,90.0,90.0,48.0,89.1904296875,89.1904296875,131.08000183110002,21.236000061,15.497589111300002,1.8099999428,0,2,25,1,6,250
159,1530212320951,76951, RC,0,39.9586422891,-88.4448908703,0,0.0,0.0,0.0,0.0,0.0,0.0,0.0,0.0,0.0,0.0,0.0,0.0,0.0,1500,1500,0.0,0.0,40.0470108333,-88.2306916667,0.0,0.0,0.0,0.0,0.0,0.0,0.0,0.0,0.0,0.0,0.0,0,0.0,0.0,0.0,0.0,90.0,90.0,48.0,89.1904296875,89.1904296875,131.08000183110002,21.236000061,15.497589111300002,1.8099999428,0,2,25,1,5,252
160,1530212321001,77001, RC,0,39.9586422891,-88.4448908703,0,0.0,0.0,0.0,0.0,0.0,0.0,0.0,0.0,0.0,0.0,0.0,0.0,0.0,1500,1500,0.0,0.0,40.0470108333,-88.2306916667,0.0,0.0,0.0,0.0,0.0,0.0,0.0,0.0,0.0,0.0,0.0,0,0.0,0.0,0.0,0.0,90.0,90.0,48.0,89.1904296875,89.1904296875,131.08000183110002,21.236000061,15.497589111300002,1.8099999428,0,2,25,1,4,253
161,1530212321052,77052, RC,0,39.9586422891,-88.4448908703,0,0.0,0.0,0.0,0.0,0.0,0.0,0.0,0.0,0.0,0.0,0.0,0.0,0.0,1500,1500,0.0,0.0,40.0470108333,-88.2306916667,0.0,0.0,0.0,0.0,0.0,0.0,0.0,0.0,0.0,0.0,0.0,0,0.0,0.0,0.0,0.0,90.0,90.0,48.0,89.1904296875,89.1904296875,131.08000183110002,21.236000061,15.497589111300002,1.8099999428,0,2,25,1,5,255
162,1530212321102,77102, RC,0,39.9586422891,-88.4448908703,0,0.0,0.0,0.0,0.0,0.0,0.0,0.0,0.0,0.0,0.0,0.0,0.0,0.0,1500,1500,0.0,0.0,40.0470108333,-88.2306916667,0.0,0.0,0.0,0.0,0.0,0.0,0.0,0.0,0.0,0.0,0.0,0,0.0,0.0,0.0,0.0,90.0,90.0,48.0,89.1904296875,89.1904296875,131.08000183110002,21.236000061,15.497589111300002,1.8099999428,0,2,25,1,6,256
163,1530212321153,77153, RC,0,39.9586422891,-88.4448908703,0,0.0,0.0,0.0,0.0,0.0,0.0,0.0,0.0,0.0,0.0,0.0,0.0,0.0,1500,1500,0.0,0.0,40.0470108333,-88.2306916667,0.0,0.0,0.0,0.0,0.0,0.0,0.0,0.0,0.0,0.0,0.0,0,0.0,0.0,0.0,0.0,90.0,90.0,48.0,89.1904296875,89.12677001950001,131.08000183110002,21.236000061,15.497589111300002,1.8099999428,0,2,25,1,9,258
164,1530212321203,77203, RC,0,39.9586422891,-88.4448908703,0,0.0,0.0,0.0,0.0,0.0,0.0,0.0,0.0,0.0,0.0,0.0,0.0,0.0,1500,1500,0.0,0.0,40.0470108333,-88.2306916667,0.0,0.0,0.0,0.0,0.0,0.0,0.0,0.0,0.0,0.0,0.0,0,0.0,0.0,0.0,0.0,90.0,90.0,48.0,89.1904296875,89.12677001950001,131.08000183110002,21.236000061,15.497589111300002,1.8099999428,0,2,25,1,8,259
165,1530212321254,77254, RC,0,39.9586422891,-88.4448908703,0,0.0,0.0,0.0,0.0,0.0,0.0,0.0,0.0,0.0,0.0,0.0,0.0,0.0,1500,1500,0.0,0.0,40.0470108333,-88.2306916667,0.0,0.0,0.0,0.0,0.0,0.0,0.0,0.0,0.0,0.0,0.0,0,0.0,0.0,0.0,0.0,90.0,90.0,48.0,89.1904296875,89.12677001950001,131.08000183110002,21.236000061,15.497589111300002,1.8099999428,0,2,25,1,5,261
166,1530212321304,77304, RC,0,39.9586422891,-88.4448908703,0,0.0,0.0,0.0,0.0,0.0,0.0,0.0,0.0,0.0,0.0,0.0,0.0,0.0,1500,1500,0.0,0.0,40.0470108333,-88.2306916667,0.0,0.0,0.0,0.0,0.0,0.0,0.0,0.0,0.0,0.0,0.0,0,0.0,0.0,0.0,0.0,90.0,90.0,48.0,89.1904296875,89.12677001950001,131.08000183110002,21.236000061,15.497589111300002,1.8099999428,0,2,25,1,6,263
167,1530212321355,77355, RC,0,39.9586422891,-88.4448908703,0,0.0,0.0,0.0,0.0,0.0,0.0,0.0,0.0,0.0,0.0,0.0,0.0,0.0,1500,1500,0.0,0.0,40.0470108333,-88.2306916667,0.0,0.0,0.0,0.0,0.0,0.0,0.0,0.0,0.0,0.0,0.0,0,0.0,0.0,0.0,0.0,90.0,90.0,48.0,89.1904296875,89.12677001950001,131.08000183110002,21.236000061,15.497589111300002,1.8099999428,0,2,25,1,7,264
