,(0)linux time (ms),    (1)uptime  (ms),      (2)drive mode,(3)mpc step counter,(4)mpc origin latitude  (deg),(5)mpc origin longitude  (deg),(6)closest trajectory point index to robot,(7)mpc error x (W;E)  (m),(8)mpc error y (W;E)  (m),(9)abs mpc error (m),(10)input [x] for mhe (m),(11)input [y] for mhe (m),(12)input [speed] for mhe (m/s),(13)input [vyaw] for mhe (rad/s),(14)mhe output x  (m),(15)mhe output y  (m),(16)mhe output speed  (m/s),(17)mhe output yaw  (rad),(18)mpc reference heading (rad),(19)mpc turn rate command (rad/s),(20)turn rate command as PWM,(21)throttle command as PWM,(22)primary gps latitude (deg),(23)primary gps longitude (deg),(24)secondary gps latitude  (deg),(25)secondary gps longitude (deg),(26)accelerometer x (m/s^2),(27)accelerometer y (m/s^2),(28)accelerometer z (m/s^2),(29)gyro yaw rate (rad/s),(30)gyro pitch rate   (rad/s),(31)gyro roll rate (rad/s),      (32)yaw (rad),  (33)pitch   (rad),     (34)roll (rad),(35)sonar1 measurement (m),(36)ultrasonic sensor measurement (m),(37)primary gps time (s),(38)normalized turn rate command,(39)normalized throttle command,(40)speed calculation from encoder left (m/s),(41)speed calculation from encoder right (m/s),(42)front gimbal target angle (degrees from straight down),(43)left gimbal target angle  (degrees from straight down),(44)right gimbal target angle  (degrees from straight down),(45)front gimbal measured angle  (degrees from straight down),(46)left gimbal measured angle    (degrees from straight down),(47)right gimbal measured angle  (degrees from straight down),(48)internal temperature (C),(49)battery voltage (V),(50)primary gps type,(51)secondary gps type,    (52)MPC R value, (53)MPC Q[0] value,Unnamed: 54,weed_num,start
0,1530215059265,1860265, RC,0,39.9586422891,-88.4448908703,0,0.0,0.0,0.0,0.0,0.0,0.0,0.0,0.0,0.0,0.0,0.0,0.0,0.0,1500,1500,0.0,0.0,40.0466146667,-88.23061416670001,0.0,0.0,0.0,0.0,0.0,0.0,0.0,0.0,0.0,0.0,0.0,0,0.0,0.0,0.0,0.0,90.0,90.0,90.0,90.3363494873,90.01803588870001,89.82704925540001,46.5220031738,7.391730308500001,520.8099975586,0,2,25,1,159,0
1,1530215059316,1860316, RC,0,39.9586422891,-88.4448908703,0,0.0,0.0,0.0,0.0,0.0,0.0,0.0,0.0,0.0,0.0,0.0,0.0,0.0,1500,1500,0.0,0.0,40.0466146667,-88.23061416670001,0.0,0.0,0.0,0.0,0.0,0.0,0.0,0.0,0.0,0.0,0.0,0,0.0,0.0,0.0,0.0,90.0,90.0,90.0,90.3363494873,90.01803588870001,89.82704925540001,46.5220031738,7.391730308500001,520.8099975586,0,2,25,1,159,0
2,1530215059366,1860366, RC,0,39.9586422891,-88.4448908703,0,0.0,0.0,0.0,0.0,0.0,0.0,0.0,0.0,0.0,0.0,0.0,0.0,0.0,1500,1500,0.0,0.0,40.0466146667,-88.23061416670001,0.0,0.0,0.0,0.0,0.0,0.0,0.0,0.0,0.0,0.0,0.0,0,0.0,0.0,0.0,0.0,90.0,90.0,90.0,90.3363494873,90.01803588870001,89.82704925540001,46.5220031738,7.391730308500001,520.8099975586,0,2,25,1,159,0
3,1530215059416,1860416, RC,0,39.9586422891,-88.4448908703,0,0.0,0.0,0.0,0.0,0.0,0.0,0.0,0.0,0.0,0.0,0.0,0.0,0.0,1500,1500,0.0,0.0,40.0466146667,-88.23061416670001,0.0,0.0,0.0,0.0,0.0,0.0,0.0,0.0,0.0,0.0,0.0,0,0.0,0.0,0.0,0.0,90.0,90.0,90.0,90.3363494873,90.01803588870001,89.82704925540001,46.5220031738,7.391730308500001,520.8099975586,0,2,25,1,159,0
4,1530215059467,1860467, RC,0,39.9586422891,-88.4448908703,0,0.0,0.0,0.0,0.0,0.0,0.0,0.0,0.0,0.0,0.0,0.0,0.0,0.0,1500,1500,0.0,0.0,40.0466146667,-88.23061416670001,0.0,0.0,0.0,0.0,0.0,0.0,0.0,0.0,0.0,0.0,0.0,0,0.0,0.0,0.0,0.0,90.0,90.0,90.0,90.3363494873,90.01803588870001,89.82704925540001,46.5220031738,7.391730308500001,520.8099975586,0,2,25,1,159,0
5,1530215059517,1860517, RC,0,39.9586422891,-88.4448908703,0,0.0,0.0,0.0,0.0,0.0,0.0,0.0,0.0,0.0,0.0,0.0,0.0,0.0,1500,1500,0.0,0.0,40.0466146667,-88.23061416670001,0.0,0.0,0.0,0.0,0.0,0.0,0.0,0.0,0.0,0.0,0.0,0,0.0,0.0,0.0,0.0,90.0,90.0,90.0,90.3363494873,90.01803588870001,89.82704925540001,46.5220031738,7.391730308500001,520.8099975586,0,2,25,1,159,0
6,1530215059567,1860567, RC,0,39.9586422891,-88.4448908703,0,0.0,0.0,0.0,0.0,0.0,0.0,0.0,0.0,0.0,0.0,0.0,0.0,0.0,1500,1500,0.0,0.0,40.0466146667,-88.23061416670001,0.0,0.0,0.0,0.0,0.0,0.0,0.0,0.0,0.0,0.0,0.0,0,0.0,0.0,0.0,0.0,90.0,90.0,90.0,90.3363494873,90.01803588870001,89.82704925540001,46.5220031738,7.391730308500001,520.8099975586,0,2,25,1,159,0
7,1530215059618,1860618, RC,0,39.9586422891,-88.4448908703,0,0.0,0.0,0.0,0.0,0.0,0.0,0.0,0.0,0.0,0.0,0.0,0.0,0.0,1500,1500,0.0,0.0,40.0466146667,-88.23061416670001,0.0,0.0,0.0,0.0,0.0,0.0,0.0,0.0,0.0,0.0,0.0,0,0.0,0.0,0.0,0.0,90.0,90.0,90.0,90.3363494873,90.01803588870001,89.82704925540001,46.5220031738,7.391730308500001,520.8099975586,0,2,25,1,159,0
8,1530215059668,1860668, RC,0,39.9586422891,-88.4448908703,0,0.0,0.0,0.0,0.0,0.0,0.0,0.0,0.0,0.0,0.0,0.0,0.0,0.0,1500,1500,0.0,0.0,40.0466146667,-88.23061416670001,0.0,0.0,0.0,0.0,0.0,0.0,0.0,0.0,0.0,0.0,0.0,0,0.0,0.0,0.0,0.0,90.0,90.0,90.0,90.3363494873,90.01803588870001,89.82704925540001,46.5220031738,7.391730308500001,520.8099975586,0,2,25,1,192,2
9,1530215059718,1860718, RC,0,39.9586422891,-88.4448908703,0,0.0,0.0,0.0,0.0,0.0,0.0,0.0,0.0,0.0,0.0,0.0,0.0,0.0,1500,1500,0.0,0.0,40.0466146667,-88.23061416670001,0.0,0.0,0.0,0.0,0.0,0.0,0.0,0.0,0.0,0.0,0.0,0,0.0,0.0,0.0,0.0,90.0,90.0,90.0,90.3363494873,90.01803588870001,89.82704925540001,46.5220031738,7.391730308500001,520.8099975586,0,2,25,1,154,3
10,1530215059769,1860769, RC,0,39.9586422891,-88.4448908703,0,0.0,0.0,0.0,0.0,0.0,0.0,0.0,0.0,0.0,0.0,0.0,0.0,0.0,1500,1500,0.0,0.0,40.0466146667,-88.23061416670001,0.0,0.0,0.0,0.0,0.0,0.0,0.0,0.0,0.0,0.0,0.0,0,0.0,0.0,0.0,0.0,90.0,90.0,90.0,90.3363494873,90.01803588870001,89.82704925540001,46.5220031738,7.3921303749,521.4799804688,0,2,25,1,187,5
11,1530215059819,1860819, RC,0,39.9586422891,-88.4448908703,0,0.0,0.0,0.0,0.0,0.0,0.0,0.0,0.0,0.0,0.0,0.0,0.0,0.0,1500,1500,0.0,0.0,40.0466146667,-88.23061416670001,0.0,0.0,0.0,0.0,0.0,0.0,0.0,0.0,0.0,0.0,0.0,0,0.0,0.0,0.0,0.0,90.0,90.0,90.0,90.3363494873,90.01803588870001,89.82704925540001,46.5220031738,7.3921303749,521.4799804688,0,2,25,1,171,6
12,1530215059869,1860869, RC,0,39.9586422891,-88.4448908703,0,0.0,0.0,0.0,0.0,0.0,0.0,0.0,0.0,0.0,0.0,0.0,0.0,0.0,1500,1500,0.0,0.0,40.0466146667,-88.23061416670001,0.0,0.0,0.0,0.0,0.0,0.0,0.0,0.0,0.0,0.0,0.0,0,0.0,0.0,0.0,0.0,90.0,90.0,90.0,90.3363494873,90.01803588870001,89.82704925540001,46.5220031738,7.3921303749,521.4799804688,0,2,25,1,160,8
13,1530215059920,1860920, RC,0,39.9586422891,-88.4448908703,0,0.0,0.0,0.0,0.0,0.0,0.0,0.0,0.0,0.0,0.0,0.0,0.0,0.0,1500,1500,0.0,0.0,40.0466146667,-88.23061416670001,0.0,0.0,0.0,0.0,0.0,0.0,0.0,0.0,0.0,0.0,0.0,0,0.0,0.0,0.0,0.0,90.0,90.0,90.0,90.3363494873,90.01803588870001,89.82704925540001,46.5220031738,7.3921303749,521.4799804688,0,2,25,1,160,9
14,1530215059970,1860970, RC,0,39.9586422891,-88.4448908703,0,0.0,0.0,0.0,0.0,0.0,0.0,0.0,0.0,0.0,0.0,0.0,0.0,0.0,1500,1500,0.0,0.0,40.0466146667,-88.23061416670001,0.0,0.0,0.0,0.0,0.0,0.0,0.0,0.0,0.0,0.0,0.0,0,0.0,0.0,0.0,0.0,90.0,90.0,90.0,90.3363494873,90.01803588870001,89.82704925540001,46.5220031738,7.3921303749,521.4799804688,0,2,25,1,156,11
15,1530215060020,1861020, RC,0,39.9586422891,-88.4448908703,0,0.0,0.0,0.0,0.0,0.0,0.0,0.0,0.0,0.0,0.0,0.0,0.0,0.0,1500,1500,0.0,0.0,40.0466146667,-88.23061416670001,0.0,0.0,0.0,0.0,0.0,0.0,0.0,0.0,0.0,0.0,0.0,0,0.0,0.0,0.0,0.0,90.0,90.0,90.0,90.3363494873,90.01803588870001,89.82704925540001,46.5220031738,7.3921303749,521.4799804688,0,2,25,1,174,12
16,1530215060071,1861071, RC,0,39.9586422891,-88.4448908703,0,0.0,0.0,0.0,0.0,0.0,0.0,0.0,0.0,0.0,0.0,0.0,0.0,0.0,1500,1500,0.0,0.0,40.0466146667,-88.23061416670001,0.0,0.0,0.0,0.0,0.0,0.0,0.0,0.0,0.0,0.0,0.0,0,0.0,0.0,0.0,0.0,90.0,90.0,90.0,90.3363494873,90.01803588870001,89.82704925540001,46.5220031738,7.3921303749,521.4799804688,0,2,25,1,176,14
17,1530215060121,1861121, RC,0,39.9586422891,-88.4448908703,0,0.0,0.0,0.0,0.0,0.0,0.0,0.0,0.0,0.0,0.0,0.0,0.0,0.0,1500,1500,0.0,0.0,40.0466146667,-88.23061416670001,0.0,0.0,0.0,0.0,0.0,0.0,0.0,0.0,0.0,0.0,0.0,0,0.0,0.0,0.0,0.0,90.0,90.0,90.0,90.3363494873,90.01803588870001,89.82704925540001,46.5220031738,7.3921303749,521.4799804688,0,2,25,1,137,15
18,1530215060171,1861171, RC,0,39.9586422891,-88.4448908703,0,0.0,0.0,0.0,0.0,0.0,0.0,0.0,0.0,0.0,0.0,0.0,0.0,0.0,1500,1500,0.0,0.0,40.0466226667,-88.2306196667,0.0,0.0,0.0,0.0,0.0,0.0,0.0,0.0,0.0,0.0,0.0,0,0.0,0.0,0.0,0.0,90.0,90.0,90.0,90.3363494873,90.01803588870001,89.82704925540001,46.5220031738,7.3921303749,521.4799804688,0,2,25,1,114,16
