,(0)linux time (ms),    (1)uptime  (ms),      (2)drive mode,(3)mpc step counter,(4)mpc origin latitude  (deg),(5)mpc origin longitude  (deg),(6)closest trajectory point index to robot,(7)mpc error x (W;E)  (m),(8)mpc error y (W;E)  (m),(9)abs mpc error (m),(10)input [x] for mhe (m),(11)input [y] for mhe (m),(12)input [speed] for mhe (m/s),(13)input [vyaw] for mhe (rad/s),(14)mhe output x  (m),(15)mhe output y  (m),(16)mhe output speed  (m/s),(17)mhe output yaw  (rad),(18)mpc reference heading (rad),(19)mpc turn rate command (rad/s),(20)turn rate command as PWM,(21)throttle command as PWM,(22)primary gps latitude (deg),(23)primary gps longitude (deg),(24)secondary gps latitude  (deg),(25)secondary gps longitude (deg),(26)accelerometer x (m/s^2),(27)accelerometer y (m/s^2),(28)accelerometer z (m/s^2),(29)gyro yaw rate (rad/s),(30)gyro pitch rate   (rad/s),(31)gyro roll rate (rad/s),      (32)yaw (rad),  (33)pitch   (rad),     (34)roll (rad),(35)sonar1 measurement (m),(36)ultrasonic sensor measurement (m),(37)primary gps time (s),(38)normalized turn rate command,(39)normalized throttle command,(40)speed calculation from encoder left (m/s),(41)speed calculation from encoder right (m/s),(42)front gimbal target angle (degrees from straight down),(43)left gimbal target angle  (degrees from straight down),(44)right gimbal target angle  (degrees from straight down),(45)front gimbal measured angle  (degrees from straight down),(46)left gimbal measured angle    (degrees from straight down),(47)right gimbal measured angle  (degrees from straight down),(48)internal temperature (C),(49)battery voltage (V),(50)primary gps type,(51)secondary gps type,    (52)MPC R value, (53)MPC Q[0] value,Unnamed: 54,weed_num,start
0,1531767891695,26695, AUTO,0,40.0434592604,-88.2344147,0,-313.5037974869,396.998593626,505.8581959202,-315.65603618069997,396.75160808550004,0.5466518402,0.0,-315.62432110279997,398.09762749370003,0.1859201232,-0.8898803639,0.0,0.0,1500,1750,40.0470273333,-88.2307065,0.0,0.0,0.0,0.0,0.0,0.0,0.0,0.0,0.0,0.0,0.0,0.0,0.0,0,0.0,0.5,0.5297299027000001,0.5635737777000001,90.0,57.0,57.0,79.7047958374,121.59437561040001,124.07718658450001,25.540000915500002,16.1829986572,27.159999847399998,2,-1,10,1,74,0
1,1531767891895,26895, AUTO,0,40.0434592604,-88.2344147,0,-313.5037974869,396.998593626,505.8581959202,-315.65603618069997,396.75160808550004,0.5341442823,0.0,-315.62432110279997,398.09762749370003,0.1859201232,-0.8898803639,0.0,0.0,1470,1750,40.0470273333,-88.2307065,0.0,0.0,0.0,0.0,0.0,0.0,0.0,0.0,0.0,0.0,0.0,0.0,0.0,0,-0.0600000024,0.5,0.5567681789,0.5115204453,90.0,57.0,57.0,93.01014709469999,121.0214157104,123.88619995120001,25.540000915500002,16.1829986572,27.159999847399998,2,-1,10,1,74,0
2,1531767892096,27096, AUTO,0,40.0434592604,-88.2344147,0,-313.5037974869,396.998593626,505.8581959202,-315.65603618069997,396.75160808550004,0.5401221514,0.0,-315.62432110279997,398.09762749370003,0.1859201232,-0.8898803639,0.0,0.0,1530,1750,40.0470273333,-88.2307065,0.0,0.0,0.0,0.0,0.0,0.0,0.0,0.0,0.0,0.0,0.0,0.0,0.0,0,0.059999942800000004,0.5,0.5181420445,0.5621022582,90.0,57.0,57.0,91.4186019897,123.56790161129999,120.32112884520001,25.540000915500002,16.1829986572,27.159999847399998,2,-1,10,1,74,0
3,1531767892297,27297, AUTO,0,40.0434592604,-88.2344147,0,-313.5037974869,396.998593626,505.8581959202,-315.65603618069997,396.75160808550004,0.5018638968,0.0,-315.62432110279997,398.09762749370003,0.1859201232,-0.8898803639,0.0,0.0,1480,1750,40.0470273333,-88.2307065,0.0,0.0,0.0,0.0,0.0,0.0,0.0,0.0,0.0,0.0,0.0,0.0,0.0,0,-0.040000021499999996,0.5,0.5236600637,0.4800677299,90.0,57.0,57.0,85.1160583496,121.7217025757,122.8039627075,25.540000915500002,16.1829986572,27.159999847399998,2,-1,10,1,74,0
4,1531767892497,27497, AUTO,0,40.0434592604,-88.2344147,0,-313.5037974869,396.998593626,505.8581959202,-315.65603618069997,396.75160808550004,0.5426052809,0.0,-315.62432110279997,398.09762749370003,0.1859201232,-0.8898803639,0.0,0.0,1610,1750,40.0470273333,-88.2307065,0.0,0.0,0.0,0.0,0.0,0.0,0.0,0.0,0.0,0.0,0.0,0.0,0.0,0,0.22000002859999998,0.5,0.5538252592,0.5313853025,90.0,57.0,57.0,89.82704925540001,122.6129760742,122.8039627075,25.540000915500002,16.1829986572,27.159999847399998,2,-1,10,1,74,0
5,1531767892698,27698, AUTO,0,40.0434592604,-88.2344147,0,-313.6203767609,396.48358591769994,505.5264331584,-315.8262937979,396.2697634031,0.5406739711999999,0.0,-315.7409003768,397.5826197854,0.3862125587,-2.1157821772,0.0,0.0,1520,1750,40.047023,-88.2307045,0.0,0.0,0.0,0.0,0.0,0.0,0.0,0.0,0.0,0.0,0.0,0.0,0.0,0,0.0399999619,0.5,0.5873012543,0.4940466881,90.0,57.0,57.0,88.55381011959999,122.5493011475,120.7031021118,24.4640007019,16.1640853882,6.4300003052,2,-1,10,1,74,0
6,1531767892899,27899, AUTO,0,40.0434592604,-88.2344147,0,-313.6203767609,396.48358591769994,505.5264331584,-315.8262937979,396.2697634031,0.5314772725,0.0,-315.7409003768,397.5826197854,0.3862125587,-2.1157821772,0.0,0.0,1480,1750,40.047023,-88.2307045,0.0,0.0,0.0,0.0,0.0,0.0,0.0,0.0,0.0,0.0,0.0,0.0,0.0,0,-0.040000021499999996,0.5,0.5861976147,0.47675690049999997,90.0,57.0,57.0,89.5724029541,122.10367584229999,122.4219894409,24.4640007019,16.1640853882,6.4300003052,2,-1,10,1,74,0
7,1531767893099,28099, AUTO,0,40.0434592604,-88.2344147,0,-313.6203767609,396.48358591769994,505.5264331584,-315.8262937979,396.2697634031,0.5522618294,0.0,-315.7409003768,397.5826197854,0.3862125587,-2.1157821772,0.0,0.0,1440,1750,40.047023,-88.2307045,0.0,0.0,0.0,0.0,0.0,0.0,0.0,0.0,0.0,0.0,0.0,0.0,0.0,0,-0.1200000048,0.5,0.6064303517,0.4980932474,90.0,57.0,57.0,90.0816955566,122.8039627075,121.7853622437,24.4640007019,16.1640853882,6.4300003052,2,-1,10,1,74,0
8,1531767893300,28300, AUTO,0,40.0434592604,-88.2344147,0,-313.6203767609,396.48358591769994,505.5264331584,-315.8262937979,396.2697634031,0.5396623611,0.0,-315.7409003768,397.5826197854,0.3862125587,-2.1157821772,0.0,0.0,1490,1750,40.047023,-88.2307045,0.0,0.0,0.0,0.0,0.0,0.0,0.0,0.0,0.0,0.0,0.0,0.0,0.0,0,-0.019999980900000002,0.5,0.6130520105,0.4662726521,90.0,57.0,57.0,89.9543762207,122.10367584229999,122.6129760742,24.4640007019,16.1640853882,6.4300003052,2,-1,10,1,74,0
9,1531767893501,28501, AUTO,0,40.0434592604,-88.2344147,0,-313.6203767609,396.48358591769994,505.5264331584,-315.8263046076,395.7508537453,0.5569521189,0.0,-315.7409003768,397.5826197854,0.3862125587,-2.1157821772,0.0,0.0,1540,1750,40.0470183333,-88.2307045,0.0,0.0,0.0,0.0,0.0,0.0,0.0,0.0,0.0,0.0,0.0,0.0,0.0,0,0.0800000429,0.5,0.5481233001,0.5657809377,90.0,57.0,57.0,89.6997299194,123.6952209473,120.2574768066,24.4640007019,16.1640853882,6.4300003052,2,-1,10,1,74,0
10,1531767893701,28701, AUTO,0,40.0434592604,-88.2344147,0,-313.5540616756,395.70198516629995,504.8724696969,-315.8263046076,395.7508537453,0.5741499662,0.0,-315.6745852915,396.80101903400003,0.6628449465999999,-0.9456314939,0.0,0.0,1420,1750,40.0470183333,-88.2307045,0.0,0.0,0.0,0.0,0.0,0.0,0.0,0.0,0.0,0.0,0.0,0.0,0.0,0,-0.16000002619999998,0.5,0.5613665581,0.5869333743999999,90.0,57.0,57.0,88.8084564209,120.8940887451,123.56790161129999,24.4640007019,16.1316204071,32.5499992371,2,-1,10,1,74,0
11,1531767893902,28902, AUTO,0,40.0434592604,-88.2344147,0,-313.5540616756,395.70198516629995,504.8724696969,-315.8263046076,395.7508537453,0.5757133960999999,0.0,-315.6745852915,396.80101903400003,0.6628449465999999,-0.9456314939,0.0,0.0,1380,1750,40.0470183333,-88.2307045,0.0,0.0,0.0,0.0,0.0,0.0,0.0,0.0,0.0,0.0,0.0,0.0,0.0,0,-0.2400000095,0.5,0.5363515019,0.6150752306,90.0,57.0,57.0,88.6174697876,121.467048645,122.6129760742,24.4640007019,16.1316204071,32.5499992371,2,-1,10,1,74,0
12,1531767894102,29102, AUTO,0,40.0434592604,-88.2344147,0,-313.5540616756,395.70198516629995,504.8724696969,-315.8263046076,395.7508537453,0.5454562306,0.0,-315.6745852915,396.80101903400003,0.6628449465999999,-0.9456314939,0.0,0.0,1440,1750,40.0470183333,-88.2307045,0.0,0.0,0.0,0.0,0.0,0.0,0.0,0.0,0.0,0.0,0.0,0.0,0.0,0,-0.1200000048,0.5,0.5056345463,0.585277915,90.0,57.0,57.0,88.8084564209,121.7853622437,121.91268920899999,24.4640007019,16.1316204071,32.5499992371,2,-1,10,1,74,0
13,1531767894303,29303, AUTO,0,40.0434592604,-88.2344147,0,-313.5540616756,395.70198516629995,504.8724696969,-315.8263046076,395.7508537453,0.5569521189,0.0,-315.6745852915,396.80101903400003,0.6628449465999999,-0.9456314939,0.0,0.0,1510,1750,40.0470183333,-88.2307045,0.0,0.0,0.0,0.0,0.0,0.0,0.0,0.0,0.0,0.0,0.0,0.0,0.0,0,0.019999980900000002,0.5,0.5231083035,0.5907959938,90.0,57.0,57.0,89.63606262209998,120.9577560425,121.84902954100001,24.4640007019,16.1316204071,32.5499992371,2,-1,10,1,74,0
14,1531767894503,29503, AUTO,0,40.0434592604,-88.2344147,0,-313.5540616756,395.70198516629995,504.8724696969,-315.8263046076,395.7508537453,0.5593432188,0.0,-315.6745852915,396.80101903400003,0.6628449465999999,-0.9456314939,0.0,0.0,1470,1750,40.0470183333,-88.2307045,0.0,0.0,0.0,0.0,0.0,0.0,0.0,0.0,0.0,0.0,0.0,0.0,0.0,0,-0.0600000024,0.5,0.4815391898,0.6371473074,90.0,57.0,57.0,89.63606262209998,122.1673278809,122.5493011475,24.4640007019,16.1316204071,32.5499992371,2,-1,10,1,74,0
15,1531767894704,29704, AUTO,0,40.0434592604,-88.2344147,0,-314.1778257541,395.1031641817,504.7912603661,-315.9823776437,395.13928164839996,0.5315692425,0.0,-316.29834937,396.2021980494,0.6880611784,-2.3765770494,0.0,0.0,1440,1750,40.0470128333,-88.2307026667,0.0,0.0,0.0,0.0,0.0,0.0,0.0,0.0,0.0,0.0,0.0,0.0,0.0,0,-0.1200000048,0.5,0.4984611273,0.5646773577,90.0,57.0,57.0,89.7633895874,122.48564910889999,122.0400161743,26.6150016785,16.0934143066,29.079998016399998,2,-1,10,1,74,0
16,1531767894904,29904, AUTO,0,40.0434592604,-88.2344147,0,-314.1778257541,395.1031641817,504.7912603661,-315.9823776437,395.13928164839996,0.5521698594,0.0,-316.29834937,396.2021980494,0.6880611784,-2.3765770494,0.0,0.0,1460,1750,40.0470128333,-88.2307026667,0.0,0.0,0.0,0.0,0.0,0.0,0.0,0.0,0.0,0.0,0.0,0.0,0.0,0,-0.07999998330000001,0.5,0.4909197986,0.6134198904,90.0,57.0,57.0,89.3814163208,122.5493011475,121.976348877,26.6150016785,16.0934143066,29.079998016399998,2,-1,10,1,74,0
17,1531767895105,30105, AUTO,0,40.0434592604,-88.2344147,0,-314.1778257541,395.1031641817,504.7912603661,-315.9823776437,395.13928164839996,0.5186938643,0.0,-316.29834937,396.2021980494,0.6880611784,-2.3765770494,0.0,0.0,1480,1750,40.0470128333,-88.2307026667,0.0,0.0,0.0,0.0,0.0,0.0,0.0,0.0,0.0,0.0,0.0,0.0,0.0,0,-0.040000021499999996,0.5,0.3974813521,0.6399063468,90.0,57.0,57.0,89.7633895874,122.6766281128,121.91268920899999,26.6150016785,16.0934143066,29.079998016399998,2,-1,10,1,74,0
18,1531767895305,30305, AUTO,0,40.0434592604,-88.2344147,0,-314.1778257541,395.1031641817,504.7912603661,-315.9823776437,395.13928164839996,0.5167625546,0.0,-316.29834937,396.2021980494,0.6880611784,-2.3765770494,0.0,0.0,1600,1750,40.0470128333,-88.2307026667,0.0,0.0,0.0,0.0,0.0,0.0,0.0,0.0,0.0,0.0,0.0,0.0,0.0,0,0.2000000477,0.5,0.4955181479,0.5380069613,90.0,57.0,57.0,91.73690795899999,121.84902954100001,122.8676147461,26.6150016785,16.0934143066,29.079998016399998,2,-1,10,1,74,0
19,1531767895506,30506, AUTO,0,40.0434592604,-88.2344147,0,-313.39211062,394.5794898243,503.8924377175,-315.89725693509996,394.9910217473,0.5216368437,0.0,-315.5126342359,395.67852369199994,0.7757943748,-0.7330357289,0.0,0.0,1500,1750,40.0470115,-88.2307036667,0.0,0.0,0.0,0.0,0.0,0.0,0.0,0.0,0.0,0.0,0.0,0.0,0.0,0,0.0,0.5,0.5282584429,0.5150151849,90.0,57.0,57.0,90.2726821899,122.9949493408,122.48564910889999,26.6150016785,16.0934143066,29.079998016399998,2,-1,10,1,74,0
20,1531767895706,30706, AUTO,0,40.0434592604,-88.2344147,0,-313.39211062,394.5794898243,503.8924377175,-315.89725693509996,394.9910217473,0.5799438357,0.0,-315.5126342359,395.67852369199994,0.7757943748,-0.7330357289,0.0,0.0,1770,1750,40.0470115,-88.2307036667,0.0,0.0,0.0,0.0,0.0,0.0,0.0,0.0,0.0,0.0,0.0,0.0,0.0,0,0.5399999619,0.5,0.5260511636999999,0.6338365078,90.0,57.0,57.0,89.63606262209998,122.1673278809,121.2124023438,26.6150016785,16.0582695007,21.6100006104,2,-1,10,1,74,0
21,1531767895907,30907, AUTO,0,40.0434592604,-88.2344147,0,-313.39211062,394.5794898243,503.8924377175,-315.89725693509996,394.9910217473,0.4565241635,0.0,-315.5126342359,395.67852369199994,0.7757943748,-0.7330357289,0.0,0.0,1360,1750,40.0470115,-88.2307036667,0.0,0.0,0.0,0.0,0.0,0.0,0.0,0.0,0.0,0.0,0.0,0.0,0.0,0,-0.2799999714,0.5,0.5238440037,0.3892043233,90.0,57.0,57.0,89.12677001950001,120.7031021118,124.3955001831,26.6150016785,16.0582695007,21.6100006104,2,-1,10,1,74,0
22,1531767896107,31107, AUTO,0,40.0434592604,-88.2344147,0,-313.39211062,394.5794898243,503.8924377175,-315.89725693509996,394.9910217473,0.4652610421,0.0,-315.5126342359,395.67852369199994,0.7757943748,-0.7330357289,0.0,0.0,1440,1750,40.0470115,-88.2307036667,0.0,0.0,0.0,0.0,0.0,0.0,0.0,0.0,0.0,0.0,0.0,0.0,0.0,0,-0.1200000048,0.5,0.4085174203,0.5220046639,90.0,57.0,57.0,88.8721160889,123.504234314,120.8940887451,26.6150016785,16.0582695007,21.6100006104,2,-1,10,1,74,0
23,1531767896308,31308, AUTO,0,40.0434592604,-88.2344147,0,-313.39211062,394.5794898243,503.8924377175,-315.89725693509996,394.9910217473,0.5080256462,0.0,-315.5126342359,395.67852369199994,0.7757943748,-0.7330357289,0.0,0.0,1920,1750,40.0470115,-88.2307036667,0.0,0.0,0.0,0.0,0.0,0.0,0.0,0.0,0.0,0.0,0.0,0.0,0.0,0,0.8400000334000001,0.5,0.46811199189999997,0.5479393601,90.0,57.0,57.0,87.7262039185,121.5307159424,121.59437561040001,26.6150016785,16.0582695007,21.6100006104,2,-1,10,1,74,0
24,1531767896508,31508, AUTO,0,40.0434592604,-88.2344147,0,-314.2715319229,393.93914109860003,503.9391259533,-315.8405243369,394.1941247725,0.5488590002,0.0,-316.39205553880004,395.03817496629995,0.780305725,-2.6643216002,0.0,0.0,1360,1750,40.0470043333,-88.2307043333,0.0,0.0,0.0,0.0,0.0,0.0,0.0,0.0,0.0,0.0,0.0,0.0,0.0,0,-0.2799999714,0.5,0.6831308006999999,0.41458722950000004,90.0,57.0,57.0,89.0631027222,121.1487426758,123.1222610474,26.6150016785,16.0582695007,21.6100006104,2,-1,10,1,74,0
25,1531767896708,31708, AUTO,0,40.0434592604,-88.2344147,0,-314.2715319229,393.93914109860003,503.9391259533,-315.8405243369,394.1941247725,0.534972012,0.0,-316.39205553880004,395.03817496629995,0.780305725,-2.6643216002,0.0,0.0,1550,1750,40.0470043333,-88.2307043333,0.0,0.0,0.0,0.0,0.0,0.0,0.0,0.0,0.0,0.0,0.0,0.0,0.0,0,0.1000000238,0.5,0.4934948981,0.5764490962,90.0,57.0,57.0,88.9994430542,122.6766281128,121.59437561040001,26.6150016785,16.0630970001,9.9400005341,2,-1,10,1,74,0
26,1531767896909,31909, AUTO,0,40.0434592604,-88.2344147,0,-314.2715319229,393.93914109860003,503.9391259533,-315.8405243369,394.1941247725,0.521728754,0.0,-316.39205553880004,395.03817496629995,0.780305725,-2.6643216002,0.0,0.0,1200,1750,40.0470043333,-88.2307043333,0.0,0.0,0.0,0.0,0.0,0.0,0.0,0.0,0.0,0.0,0.0,0.0,0.0,0,-0.6000000238000001,0.5,0.446407795,0.5970497727,90.0,57.0,57.0,90.2726821899,121.2760620117,122.2310028076,26.6150016785,16.0630970001,9.9400005341,2,-1,10,1,74,0
27,1531767897109,32109, AUTO,0,40.0434592604,-88.2344147,0,-314.2715319229,393.93914109860003,503.9391259533,-315.8405243369,394.1941247725,0.4921153784,0.0,-316.39205553880004,395.03817496629995,0.780305725,-2.6643216002,0.0,0.0,1390,1750,40.0470043333,-88.2307043333,0.0,0.0,0.0,0.0,0.0,0.0,0.0,0.0,0.0,0.0,0.0,0.0,0.0,0,-0.22000002859999998,0.5,0.3316330016,0.652597785,90.0,57.0,57.0,91.9279022217,125.03211975100001,119.42987060549999,26.6150016785,16.0630970001,9.9400005341,2,-1,10,1,74,0
28,1531767897309,32309, AUTO,0,40.0434592604,-88.2344147,0,-314.2715319229,393.93914109860003,503.9391259533,-315.8405243369,394.1941247725,0.5436168909,0.0,-316.39205553880004,395.03817496629995,0.780305725,-2.6643216002,0.0,0.0,1390,1750,40.0470043333,-88.2307043333,0.0,0.0,0.0,0.0,0.0,0.0,0.0,0.0,0.0,0.0,0.0,0.0,0.0,0,-0.22000002859999998,0.5,0.3498424292,0.7373913527,90.0,57.0,57.0,89.25408935549999,120.8940887451,122.8039627075,26.6150016785,16.0630970001,9.9400005341,2,-1,10,1,74,0
29,1531767897510,32510, AUTO,0,40.0434592604,-88.2344147,0,-313.44287204740004,393.2071280871,502.8501562253,-315.7270305622,393.971734919,0.5592513084,0.0,-315.5633956633,394.3061619548,0.7202605320000001,-0.3180259194,0.0,0.0,1390,1750,40.0470023333,-88.2307056667,0.0,0.0,0.0,0.0,0.0,0.0,0.0,0.0,0.0,0.0,0.0,0.0,0.0,0,-0.22000002859999998,0.5,0.3538889885,0.7646136284,90.0,57.0,57.0,89.3177566528,121.976348877,121.84902954100001,26.077999115,16.0630970001,9.9400005341,2,-1,10,1,74,0
30,1531767897710,32710, AUTO,0,40.0434592604,-88.2344147,0,-313.44287204740004,393.2071280871,502.8501562253,-315.7270305622,393.971734919,0.5306495428,0.0,-315.5633956633,394.3061619548,0.7202605320000001,-0.3180259194,0.0,0.0,1520,1750,40.0470023333,-88.2307056667,0.0,0.0,0.0,0.0,0.0,0.0,0.0,0.0,0.0,0.0,0.0,0.0,0.0,0,0.0399999619,0.5,0.4618582428,0.5994408727,90.0,57.0,57.0,90.5909881592,121.2124023438,122.7402877808,26.077999115,16.0562953949,25.900001525900002,2,-1,10,1,74,0
31,1531767897911,32911, AUTO,0,40.0434592604,-88.2344147,0,-313.44287204740004,393.2071280871,502.8501562253,-315.7270305622,393.971734919,0.5142794251,0.0,-315.5633956633,394.3061619548,0.7202605320000001,-0.3180259194,0.0,0.0,1530,1750,40.0470023333,-88.2307056667,0.0,0.0,0.0,0.0,0.0,0.0,0.0,0.0,0.0,0.0,0.0,0.0,0.0,0,0.059999942800000004,0.5,0.5621022582,0.4664565921,90.0,57.0,57.0,91.9279022217,122.0400161743,123.0586013794,26.077999115,16.0562953949,25.900001525900002,2,-1,10,1,74,0
32,1531767898111,33111, AUTO,0,40.0434592604,-88.2344147,0,-313.44287204740004,393.2071280871,502.8501562253,-315.7270305622,393.971734919,0.5431570411,0.0,-315.5633956633,394.3061619548,0.7202605320000001,-0.3180259194,0.0,0.0,1570,1750,40.0470023333,-88.2307056667,0.0,0.0,0.0,0.0,0.0,0.0,0.0,0.0,0.0,0.0,0.0,0.0,0.0,0,0.1399999857,0.5,0.660874784,0.4254392982,90.0,57.0,57.0,87.47155761719999,121.2124023438,122.6129760742,26.077999115,16.0562953949,25.900001525900002,2,-1,10,1,74,0
33,1531767898311,33311, AUTO,0,40.0434592604,-88.2344147,0,-313.44287204740004,393.2071280871,502.8501562253,-315.7270305622,393.971734919,0.5425133109,0.0,-315.5633956633,394.3061619548,0.7202605320000001,-0.3180259194,0.0,0.0,1600,1750,40.0470023333,-88.2307056667,0.0,0.0,0.0,0.0,0.0,0.0,0.0,0.0,0.0,0.0,0.0,0.0,0.0,0,0.2000000477,0.5,0.6754056215,0.40962100030000004,90.0,57.0,57.0,88.1718444824,121.84902954100001,122.3583145142,26.077999115,16.0562953949,25.900001525900002,2,-1,10,1,74,0
34,1531767898512,33512, AUTO,0,40.0434592604,-88.2344147,0,-313.44287204740004,393.2071280871,502.8501562253,-315.4007222566,393.9902674064,0.5497786999000001,0.0,-315.5633956633,394.3061619548,0.7202605320000001,-0.3180259194,0.0,0.0,1700,1750,40.0470025,-88.2307095,0.0,0.0,0.0,0.0,0.0,0.0,0.0,0.0,0.0,0.0,0.0,0.0,0.0,0,0.3999999762,0.5,0.7143996358,0.38515779380000004,90.0,57.0,57.0,91.9279022217,122.48564910889999,121.7853622437,26.077999115,16.0562953949,25.900001525900002,2,-1,10,1,74,0
35,1531767898712,33712, AUTO,0,40.0434592604,-88.2344147,0,-313.8102696889,392.6248056046,502.62423671989995,-315.4007222566,393.9902674064,0.5419614911,0.0,-315.9307933048,393.7238394723,0.5656451183,-3.1929556942,0.0,0.0,1520,1750,40.0470025,-88.2307095,0.0,0.0,0.0,0.0,0.0,0.0,0.0,0.0,0.0,0.0,0.0,0.0,0.0,0,0.0399999619,0.5,0.6452404261,0.43868255619999996,90.0,57.0,57.0,89.5087432861,121.84902954100001,122.7402877808,26.077999115,16.0739459991,15.279999733,2,-1,10,1,74,0
36,1531767898913,33913, AUTO,0,40.0434592604,-88.2344147,0,-313.8102696889,392.6248056046,502.62423671989995,-315.4007222566,393.9902674064,0.5599870682,0.0,-315.9307933048,393.7238394723,0.5656451183,-3.1929556942,0.0,0.0,1570,1750,40.0470025,-88.2307095,0.0,0.0,0.0,0.0,0.0,0.0,0.0,0.0,0.0,0.0,0.0,0.0,0.0,0,0.1399999857,0.5,0.6169146299,0.5030594468,90.0,57.0,57.0,91.8642349243,120.9577560425,123.504234314,26.077999115,16.0739459991,15.279999733,2,-1,10,1,74,0
37,1531767899113,34113, AUTO,0,40.0434592604,-88.2344147,0,-313.8102696889,392.6248056046,502.62423671989995,-315.4007222566,393.9902674064,0.5550208092,0.0,-315.9307933048,393.7238394723,0.5656451183,-3.1929556942,0.0,0.0,1570,1750,40.0470025,-88.2307095,0.0,0.0,0.0,0.0,0.0,0.0,0.0,0.0,0.0,0.0,0.0,0.0,0.0,0,0.1399999857,0.5,0.5990729928,0.5109686255,90.0,57.0,57.0,87.66254425049999,123.0586013794,120.8940887451,26.077999115,16.0739459991,15.279999733,2,-1,10,1,74,0
38,1531767899313,34313, AUTO,0,40.0434592604,-88.2344147,0,-313.8102696889,392.6248056046,502.62423671989995,-315.4007222566,393.9902674064,0.5472955704,0.0,-315.9307933048,393.7238394723,0.5656451183,-3.1929556942,0.0,0.0,1440,1750,40.0470025,-88.2307095,0.0,0.0,0.0,0.0,0.0,0.0,0.0,0.0,0.0,0.0,0.0,0.0,0.0,0,-0.1200000048,0.5,0.5690917373,0.5254994631000001,90.0,57.0,57.0,88.8084564209,121.7217025757,122.9312744141,26.077999115,16.0739459991,15.279999733,2,-1,10,1,74,0
39,1531767899514,34514, AUTO,0,40.0434592604,-88.2344147,0,-313.8391522149,392.249399371,502.3490865622,-315.1027977991,393.5640201882,0.555480659,0.0,-315.9596758308,393.3484332387,0.30877873829999997,0.5031232573,0.0,0.0,1500,1750,40.0469986667,-88.230713,0.0,0.0,0.0,0.0,0.0,0.0,0.0,0.0,0.0,0.0,0.0,0.0,0.0,0,0.0,0.5,0.5803117752,0.5306495428,90.0,57.0,57.0,88.36282348629999,122.10367584229999,122.1673278809,26.077999115,16.0739459991,15.279999733,2,-1,10,1,74,0
40,1531767899714,34714, AUTO,0,40.0434592604,-88.2344147,0,-313.8391522149,392.249399371,502.3490865622,-315.1027977991,393.5640201882,0.5331326722999999,0.0,-315.9596758308,393.3484332387,0.30877873829999997,0.5031232573,0.0,0.0,1480,1750,40.0469986667,-88.230713,0.0,0.0,0.0,0.0,0.0,0.0,0.0,0.0,0.0,0.0,0.0,0.0,0.0,0,-0.040000021499999996,0.5,0.5433409810000001,0.5229243635999999,90.0,57.0,57.0,89.44507598879999,120.7031021118,123.3132476807,26.077999115,16.0845031738,10.4300003052,2,-1,10,1,74,0
41,1531767899915,34915, AUTO,0,40.0434592604,-88.2344147,0,-313.8391522149,392.249399371,502.3490865622,-315.1027977991,393.5640201882,0.5484911799000001,0.0,-315.9596758308,393.3484332387,0.30877873829999997,0.5031232573,0.0,0.0,1500,1750,40.0469986667,-88.230713,0.0,0.0,0.0,0.0,0.0,0.0,0.0,0.0,0.0,0.0,0.0,0.0,0.0,0,0.0,0.5,0.5779206157,0.5190617442000001,90.0,57.0,57.0,89.3814163208,123.88619995120001,120.83042907709999,26.077999115,16.0845031738,10.4300003052,2,-1,10,1,74,0
42,1531767900115,35115, AUTO,0,40.0434592604,-88.2344147,0,-313.8391522149,392.249399371,502.3490865622,-315.1027977991,393.5640201882,0.5422374010000001,0.0,-315.9596758308,393.3484332387,0.30877873829999997,0.5031232573,0.0,0.0,1500,1750,40.0469986667,-88.230713,0.0,0.0,0.0,0.0,0.0,0.0,0.0,0.0,0.0,0.0,0.0,0.0,0.0,0,0.0,0.5,0.5731382965999999,0.5113365054,90.0,57.0,57.0,89.1904296875,120.57579040530001,123.0586013794,26.077999115,16.0845031738,10.4300003052,2,-1,10,1,74,0
43,1531767900315,35315, AUTO,0,40.0434592604,-88.2344147,0,-313.8391522149,392.249399371,502.3490865622,-315.1027977991,393.5640201882,0.4875170588,0.0,-315.9596758308,393.3484332387,0.30877873829999997,0.5031232573,0.0,0.0,1550,1750,40.0469986667,-88.230713,0.0,0.0,0.0,0.0,0.0,0.0,0.0,0.0,0.0,0.0,0.0,0.0,0.0,0,0.1000000238,0.5,0.486505419,0.4885286987,90.0,57.0,57.0,88.1718444824,121.6580352783,121.84902954100001,26.077999115,16.0845031738,10.4300003052,2,-1,10,1,74,0
44,1531767900516,35516, AUTO,0,40.0434592604,-88.2344147,0,-313.008140283,394.03561318830003,503.2277420256,-315.3298073393,392.9524480914,0.4894483387,0.0,-315.1286638989,395.134647056,0.2789043737,-3.6538160916000004,0.0,0.0,1510,1750,40.0469931667,-88.2307103333,0.0,0.0,0.0,0.0,0.0,0.0,0.0,0.0,0.0,0.0,0.0,0.0,0.0,0,0.019999980900000002,0.5,0.4826427698,0.49625390770000005,90.0,57.0,57.0,89.1904296875,122.5493011475,122.5493011475,26.6150016785,16.0845031738,10.4300003052,2,-1,10,1,74,0
45,1531767900716,35716, AUTO,0,40.0434592604,-88.2344147,0,-313.008140283,394.03561318830003,503.2277420256,-315.3298073393,392.9524480914,0.5108766556000001,0.0,-315.1286638989,395.134647056,0.2789043737,-3.6538160916000004,0.0,0.0,1510,1750,40.0469931667,-88.2307103333,0.0,0.0,0.0,0.0,0.0,0.0,0.0,0.0,0.0,0.0,0.0,0.0,0.0,0,0.019999980900000002,0.5,0.5181420445,0.5036112666,90.0,57.0,57.0,89.8907089233,122.2310028076,122.6766281128,26.6150016785,16.0836219788,16.1100006104,2,-1,10,1,74,0
46,1531767900916,35916, AUTO,0,40.0434592604,-88.2344147,0,-313.008140283,394.03561318830003,503.2277420256,-315.3298073393,392.9524480914,0.5581476688,0.0,-315.1286638989,395.134647056,0.2789043737,-3.6538160916000004,0.0,0.0,1480,1750,40.0469931667,-88.2307103333,0.0,0.0,0.0,0.0,0.0,0.0,0.0,0.0,0.0,0.0,0.0,0.0,0.0,0,-0.040000021499999996,0.5,0.5595271587,0.5567681789,90.0,57.0,57.0,91.2276153564,122.4219894409,122.0400161743,26.6150016785,16.0836219788,16.1100006104,2,-1,10,1,74,0
47,1531767901117,36117, AUTO,0,40.0434592604,-88.2344147,0,-313.008140283,394.03561318830003,503.2277420256,-315.3298073393,392.9524480914,0.5391105413,0.0,-315.1286638989,395.134647056,0.2789043737,-3.6538160916000004,0.0,0.0,1500,1750,40.0469931667,-88.2307103333,0.0,0.0,0.0,0.0,0.0,0.0,0.0,0.0,0.0,0.0,0.0,0.0,0.0,0,0.0,0.5,0.5611826181,0.5170384645,90.0,57.0,57.0,90.01803588870001,121.6580352783,122.4219894409,26.6150016785,16.0836219788,16.1100006104,2,-1,10,1,74,0
48,1531767901317,36317, AUTO,0,40.0434592604,-88.2344147,0,-313.008140283,394.03561318830003,503.2277420256,-315.3298073393,392.9524480914,0.5186938643,0.0,-315.1286638989,395.134647056,0.2789043737,-3.6538160916000004,0.0,0.0,1520,1750,40.0469931667,-88.2307103333,0.0,0.0,0.0,0.0,0.0,0.0,0.0,0.0,0.0,0.0,0.0,0.0,0.0,0,0.0399999619,0.5,0.5056345463,0.5317531824,90.0,57.0,57.0,89.44507598879999,122.6129760742,121.0214157104,26.6150016785,16.0836219788,16.1100006104,2,-1,10,1,74,0
49,1531767901518,36518, AUTO,0,40.0434592604,-88.2344147,0,-313.008140283,394.03561318830003,503.2277420256,-314.80487717299997,392.9524480914,0.5402141809000001,0.0,-315.1286638989,395.134647056,0.2789043737,-3.6538160916000004,0.0,0.0,1500,1750,40.0469931667,-88.2307165,0.0,0.0,0.0,0.0,0.0,0.0,0.0,0.0,0.0,0.0,0.0,0.0,0.0,0,0.0,0.5,0.5464679003,0.5339604020000001,90.0,57.0,57.0,89.63606262209998,122.3583145142,121.976348877,26.6150016785,16.0836219788,16.1100006104,2,-1,10,1,74,0
50,1531767901718,36718, AUTO,0,40.0434592604,-88.2344147,0,-314.13217007869997,393.9013652307,503.8226928286,-314.80487717299997,392.9524480914,0.5065541863,0.0,-316.2526936946,395.00039909839995,0.16695469300000002,-0.3127409734,0.0,0.0,1460,1750,40.0469931667,-88.2307165,0.0,0.0,0.0,0.0,0.0,0.0,0.0,0.0,0.0,0.0,0.0,0.0,0.0,0,-0.07999998330000001,0.5,0.4977253675,0.5153830051,90.0,57.0,57.0,87.3442306519,120.6394424438,122.4219894409,27.1539993286,16.1095256805,10.7700004578,2,-1,10,1,74,0
51,1531767901918,36918, AUTO,0,40.0434592604,-88.2344147,0,-314.13217007869997,393.9013652307,503.8226928286,-314.80487717299997,392.9524480914,0.5310174227000001,0.0,-316.2526936946,395.00039909839995,0.16695469300000002,-0.3127409734,0.0,0.0,1490,1750,40.0469931667,-88.2307165,0.0,0.0,0.0,0.0,0.0,0.0,0.0,0.0,0.0,0.0,0.0,0.0,0.0,0,-0.019999980900000002,0.5,0.5440767407,0.5179581046,90.0,57.0,57.0,88.36282348629999,121.59437561040001,121.91268920899999,27.1539993286,16.1095256805,10.7700004578,2,-1,10,1,74,0
52,1531767902119,37119, AUTO,0,40.0434592604,-88.2344147,0,-314.13217007869997,393.9013652307,503.8226928286,-314.80487717299997,392.9524480914,0.5238440037,0.0,-316.2526936946,395.00039909839995,0.16695469300000002,-0.3127409734,0.0,0.0,1510,1750,40.0469931667,-88.2307165,0.0,0.0,0.0,0.0,0.0,0.0,0.0,0.0,0.0,0.0,0.0,0.0,0.0,0,0.019999980900000002,0.5,0.5354318619,0.5122561455,90.0,57.0,57.0,89.82704925540001,123.3132476807,121.1487426758,27.1539993286,16.1095256805,10.7700004578,2,-1,10,1,74,0
53,1531767902320,37320, AUTO,0,40.0434592604,-88.2344147,0,-314.13217007869997,393.9013652307,503.8226928286,-314.80487717299997,392.9524480914,0.561458528,0.0,-316.2526936946,395.00039909839995,0.16695469300000002,-0.3127409734,0.0,0.0,1400,1750,40.0469931667,-88.2307165,0.0,0.0,0.0,0.0,0.0,0.0,0.0,0.0,0.0,0.0,0.0,0.0,0.0,0,-0.1999999881,0.5,0.5001165271,0.6228005289999999,90.0,57.0,57.0,90.7819747925,121.7217025757,122.9312744141,27.1539993286,16.1095256805,10.7700004578,2,-1,10,1,74,0
54,1531767902520,37520, AUTO,0,40.0434592604,-88.2344147,0,-313.1739367531,393.5322329794,502.93690762870006,-314.62044455669997,392.841253165,0.5156589746,0.0,-315.29446036900003,394.6312668471,0.7322020126000001,-2.6920253802999996,0.0,0.0,1470,1750,40.0469921667,-88.2307186667,0.0,0.0,0.0,0.0,0.0,0.0,0.0,0.0,0.0,0.0,0.0,0.0,0.0,0,-0.0600000024,0.5,0.5001165271,0.5312013626,90.0,57.0,57.0,91.8642349243,121.0214157104,121.0214157104,27.1539993286,16.1095256805,10.7700004578,2,-1,10,1,74,0
55,1531767902721,37721, AUTO,0,40.0434592604,-88.2344147,0,-313.1739367531,393.5322329794,502.93690762870006,-314.62044455669997,392.841253165,0.5246716738,0.0,-315.29446036900003,394.6312668471,0.7322020126000001,-2.6920253802999996,0.0,0.0,1450,1750,40.0469921667,-88.2307186667,0.0,0.0,0.0,0.0,0.0,0.0,0.0,0.0,0.0,0.0,0.0,0.0,0.0,0,-0.1000000238,0.5,0.5135436654,0.5357996821000001,90.0,57.0,57.0,90.8456420898,121.4033889771,122.9312744141,25.540000915500002,16.1042404175,25.290000915500002,2,-1,10,1,74,0
56,1531767902922,37922, AUTO,0,40.0434592604,-88.2344147,0,-313.1739367531,393.5322329794,502.93690762870006,-314.62044455669997,392.841253165,0.5250395536,0.0,-315.29446036900003,394.6312668471,0.7322020126000001,-2.6920253802999996,0.0,0.0,1420,1750,40.0469921667,-88.2307186667,0.0,0.0,0.0,0.0,0.0,0.0,0.0,0.0,0.0,0.0,0.0,0.0,0.0,0,-0.16000002619999998,0.5,0.43040552740000004,0.6196736097,90.0,57.0,57.0,89.25408935549999,121.91268920899999,123.94987487790002,25.540000915500002,16.1042404175,25.290000915500002,2,-1,10,1,74,0
57,1531767903122,38122, AUTO,0,40.0434592604,-88.2344147,0,-313.1739367531,393.5322329794,502.93690762870006,-314.62044455669997,392.841253165,0.5249476433,0.0,-315.29446036900003,394.6312668471,0.7322020126000001,-2.6920253802999996,0.0,0.0,1440,1750,40.0469921667,-88.2307186667,0.0,0.0,0.0,0.0,0.0,0.0,0.0,0.0,0.0,0.0,0.0,0.0,0.0,0,-0.1200000048,0.5,0.437946856,0.6119483709,90.0,57.0,57.0,87.9171905518,123.440574646,120.8940887451,25.540000915500002,16.1042404175,25.290000915500002,2,-1,10,1,74,0
58,1531767903323,38323, AUTO,0,40.0434592604,-88.2344147,0,-313.1739367531,393.5322329794,502.93690762870006,-314.62044455669997,392.841253165,0.5720347165999999,0.0,-315.29446036900003,394.6312668471,0.7322020126000001,-2.6920253802999996,0.0,0.0,1570,1750,40.0469921667,-88.2307186667,0.0,0.0,0.0,0.0,0.0,0.0,0.0,0.0,0.0,0.0,0.0,0.0,0.0,0,0.1399999857,0.5,0.5185099244,0.6255595088,90.0,57.0,57.0,87.7898712158,122.6766281128,122.0400161743,25.540000915500002,16.1042404175,25.290000915500002,2,-1,10,1,74,0
59,1531767903524,38524, AUTO,0,40.0434592604,-88.2344147,0,-312.627405467,390.7841108418,500.44791530730004,-314.1664566572,392.563265848,0.5509742498,0.0,-314.7479290829,391.88314470949996,0.5337181359000001,0.44551167189999996,0.0,0.0,1410,1750,40.0469896667,-88.230724,0.0,0.0,0.0,0.0,0.0,0.0,0.0,0.0,0.0,0.0,0.0,0.0,0.0,0,-0.18000000719999998,0.5,0.4771247804,0.6248237490999999,90.0,57.0,57.0,88.36282348629999,120.38480377200001,125.0957870483,25.540000915500002,16.1042404175,25.290000915500002,2,-1,10,1,30,7
60,1531767903724,38724, AUTO,0,40.0434592604,-88.2344147,0,-312.627405467,390.7841108418,500.44791530730004,-314.1664566572,392.563265848,0.5332245827000001,0.0,-314.7479290829,391.88314470949996,0.5337181359000001,0.44551167189999996,0.0,0.0,1490,1750,40.0469896667,-88.230724,0.0,0.0,0.0,0.0,0.0,0.0,0.0,0.0,0.0,0.0,0.0,0.0,0.0,0,-0.019999980900000002,0.5,0.42580717799999995,0.6406420468999999,90.0,57.0,57.0,91.73690795899999,123.6952209473,118.9205703735,25.540000915500002,16.1151542664,16.2099990845,2,-1,10,1,45,17
61,1531767903925,38925, AUTO,0,40.0434592604,-88.2344147,0,-312.627405467,390.7841108418,500.44791530730004,-314.1664566572,392.563265848,0.5595271587,0.0,-314.7479290829,391.88314470949996,0.5337181359000001,0.44551167189999996,0.0,0.0,1460,1750,40.0469896667,-88.230724,0.0,0.0,0.0,0.0,0.0,0.0,0.0,0.0,0.0,0.0,0.0,0.0,0.0,0,-0.07999998330000001,0.5,0.5339604020000001,0.5850939750999999,90.0,57.0,57.0,90.145362854,121.4033889771,122.9949493408,25.540000915500002,16.1151542664,16.2099990845,2,-1,10,1,74,27
62,1531767904126,39126, AUTO,0,40.0434592604,-88.2344147,0,-312.627405467,390.7841108418,500.44791530730004,-314.1664566572,392.563265848,0.5422374010000001,0.0,-314.7479290829,391.88314470949996,0.5337181359000001,0.44551167189999996,0.0,0.0,1440,1750,40.0469896667,-88.230724,0.0,0.0,0.0,0.0,0.0,0.0,0.0,0.0,0.0,0.0,0.0,0.0,0.0,0,-0.1200000048,0.5,0.5188778043,0.5655969977,90.0,57.0,57.0,90.9093093872,121.5307159424,121.7853622437,25.540000915500002,16.1151542664,16.2099990845,2,-1,10,1,45,37
63,1531767904326,39326, AUTO,0,40.0434592604,-88.2344147,0,-312.627405467,390.7841108418,500.44791530730004,-314.1664566572,392.563265848,0.583070755,0.0,-314.7479290829,391.88314470949996,0.5337181359000001,0.44551167189999996,0.0,0.0,1510,1750,40.0469896667,-88.230724,0.0,0.0,0.0,0.0,0.0,0.0,0.0,0.0,0.0,0.0,0.0,0.0,0.0,0,0.019999980900000002,0.5,0.5249476433,0.6411938667,90.0,57.0,57.0,89.6997299194,121.976348877,121.7853622437,25.540000915500002,16.1151542664,16.2099990845,2,-1,10,1,69,47
64,1531767904527,39527, AUTO,0,40.0434592604,-88.2344147,0,-312.627405467,390.7841108418,500.44791530730004,-313.8969109612,391.93316126379995,0.5796679854,0.0,-314.7479290829,391.88314470949996,0.5337181359000001,0.44551167189999996,0.0,0.0,1510,1750,40.046984,-88.2307271667,0.0,0.0,0.0,0.0,0.0,0.0,0.0,0.0,0.0,0.0,0.0,0.0,0.0,0,0.019999980900000002,0.5,0.5536413193,0.6056946515999999,90.0,57.0,57.0,89.1904296875,121.5307159424,122.7402877808,25.540000915500002,16.1044902802,6.4200000763,2,-1,10,1,96,57
65,1531767904728,39728, AUTO,0,40.0434592604,-88.2344147,0,-311.8280964574,390.7418379053,499.9159385636,-313.8969109612,391.93316126379995,0.588037014,0.0,-313.9486200733,391.840871773,0.3568431893,-4.2918764613,0.0,0.0,1530,1750,40.046984,-88.2307271667,0.0,0.0,0.0,0.0,0.0,0.0,0.0,0.0,0.0,0.0,0.0,0.0,0.0,0,0.059999942800000004,0.5,0.5966818929,0.5793920754999999,90.0,57.0,57.0,90.4636688232,121.7853622437,122.9949493408,25.540000915500002,16.1044902802,6.4200000763,2,-1,10,1,141,67
66,1531767904929,39929, AUTO,0,40.0434592604,-88.2344147,0,-311.8280964574,390.7418379053,499.9159385636,-313.8969109612,391.93316126379995,0.5916236639,0.0,-313.9486200733,391.840871773,0.3568431893,-4.2918764613,0.0,0.0,1560,1750,40.046984,-88.2307271667,0.0,0.0,0.0,0.0,0.0,0.0,0.0,0.0,0.0,0.0,0.0,0.0,0.0,0,0.1200000048,0.5,0.6421135664000001,0.5411338210000001,90.0,57.0,57.0,91.8642349243,123.3132476807,121.59437561040001,25.540000915500002,16.1044902802,6.4200000763,2,-1,10,1,117,77
67,1531767905129,40129, AUTO,0,40.0434592604,-88.2344147,0,-311.8280964574,390.7418379053,499.9159385636,-313.8969109612,391.93316126379995,0.5645853877,0.0,-313.9486200733,391.840871773,0.3568431893,-4.2918764613,0.0,0.0,1480,1750,40.046984,-88.2307271667,0.0,0.0,0.0,0.0,0.0,0.0,0.0,0.0,0.0,0.0,0.0,0.0,0.0,0,-0.040000021499999996,0.5,0.6411938667,0.4879768789,90.0,57.0,57.0,89.25408935549999,120.8940887451,123.6952209473,25.540000915500002,16.1044902802,6.4200000763,2,-1,10,1,170,87
68,1531767905330,40330, AUTO,0,40.0434592604,-88.2344147,0,-311.8280964574,390.7418379053,499.9159385636,-313.8969109612,391.93316126379995,0.5582396388,0.0,-313.9486200733,391.840871773,0.3568431893,-4.2918764613,0.0,0.0,1560,1750,40.046984,-88.2307271667,0.0,0.0,0.0,0.0,0.0,0.0,0.0,0.0,0.0,0.0,0.0,0.0,0.0,0,0.1200000048,0.5,0.6448725462,0.47160676119999995,90.0,57.0,57.0,89.44507598879999,122.8676147461,121.2760620117,25.540000915500002,16.1044902802,6.4200000763,2,-1,10,1,164,97
69,1531767905531,40531, AUTO,0,40.0434592604,-88.2344147,0,-313.20892414419995,393.16930534849996,502.6747783923,-313.7550456029,391.5625115085,0.590244174,0.0,-315.3294477601,394.26833921620005,0.0045826651,-4.0897208988,0.0,0.0,1640,1750,40.0469806667,-88.2307288333,0.0,0.0,0.0,0.0,0.0,0.0,0.0,0.0,0.0,0.0,0.0,0.0,0.0,0,0.2799999714,0.5,0.7311376333,0.4493507445,90.0,57.0,57.0,86.7712783813,122.4219894409,121.2124023438,26.077999115,16.1135406494,17.8099994659,2,-1,10,1,233,107
70,1531767905731,40731, AUTO,0,40.0434592604,-88.2344147,0,-313.20892414419995,393.16930534849996,502.6747783923,-313.7550456029,391.5625115085,0.5787483454,0.0,-315.3294477601,394.26833921620005,0.0045826651,-4.0897208988,0.0,0.0,1750,1750,40.0469806667,-88.2307288333,0.0,0.0,0.0,0.0,0.0,0.0,0.0,0.0,0.0,0.0,0.0,0.0,0.0,0,0.5,0.5,0.6730145216,0.4844821393,90.0,57.0,57.0,87.9171905518,122.29466247559999,121.2760620117,26.077999115,16.1135406494,17.8099994659,2,-1,10,1,223,117
71,1531767905932,40932, AUTO,0,40.0434592604,-88.2344147,0,-313.20892414419995,393.16930534849996,502.6747783923,-313.7550456029,391.5625115085,0.5561244488,0.0,-315.3294477601,394.26833921620005,0.0045826651,-4.0897208988,0.0,0.0,1540,1750,40.0469806667,-88.2307288333,0.0,0.0,0.0,0.0,0.0,0.0,0.0,0.0,0.0,0.0,0.0,0.0,0.0,0,0.0800000429,0.5,0.6638177633,0.44843107460000003,90.0,57.0,57.0,88.6174697876,121.6580352783,122.4219894409,26.077999115,16.1135406494,17.8099994659,2,-1,10,1,165,127
72,1531767906132,41132, AUTO,0,40.0434592604,-88.2344147,0,-313.20892414419995,393.16930534849996,502.6747783923,-313.7550456029,391.5625115085,0.5724945068,0.0,-315.3294477601,394.26833921620005,0.0045826651,-4.0897208988,0.0,0.0,1490,1750,40.0469806667,-88.2307288333,0.0,0.0,0.0,0.0,0.0,0.0,0.0,0.0,0.0,0.0,0.0,0.0,0.0,0,-0.019999980900000002,0.5,0.6410099268,0.5039791465,90.0,57.0,57.0,88.4264831543,122.1673278809,120.6394424438,26.077999115,16.1135406494,17.8099994659,2,-1,10,1,122,136
73,1531767906333,41333, AUTO,0,40.0434592604,-88.2344147,0,-313.20892414419995,393.16930534849996,502.6747783923,-313.7550456029,391.5625115085,0.5705632567,0.0,-315.3294477601,394.26833921620005,0.0045826651,-4.0897208988,0.0,0.0,1440,1750,40.0469806667,-88.2307288333,0.0,0.0,0.0,0.0,0.0,0.0,0.0,0.0,0.0,0.0,0.0,0.0,0.0,0,-0.1200000048,0.5,0.6090054511999999,0.5321210623,90.0,57.0,57.0,88.4901504517,120.4484634399,124.07718658450001,26.077999115,16.1135406494,17.8099994659,2,-1,10,1,84,147
74,1531767906534,41534, AUTO,0,40.0434592604,-88.2344147,0,-313.0888820659,392.7907356354,502.3039021093,-314.138115459,390.9509394124,0.5745178461,0.0,-315.2094056818,393.88976950309996,0.0150789752,-4.0730476759,0.0,0.0,1490,1750,40.0469751667,-88.2307243333,0.0,0.0,0.0,0.0,0.0,0.0,0.0,0.0,0.0,0.0,0.0,0.0,0.0,0,-0.019999980900000002,0.5,0.49423062799999995,0.6548050046,90.0,57.0,57.0,90.145362854,123.18592834469999,119.87550354,25.540000915500002,16.1043968201,13.3600006104,2,-1,10,1,41,157
75,1531767906735,41735, AUTO,0,40.0434592604,-88.2344147,0,-313.0888820659,392.7907356354,502.3039021093,-314.138115459,390.9509394124,0.5489510298,0.0,-315.2094056818,393.88976950309996,0.0150789752,-4.0730476759,0.0,0.0,1440,1750,40.0469751667,-88.2307243333,0.0,0.0,0.0,0.0,0.0,0.0,0.0,0.0,0.0,0.0,0.0,0.0,0.0,0,-0.1200000048,0.5,0.5249476433,0.5729543567000001,90.0,57.0,57.0,89.9543762207,120.13014221190001,123.6315612793,25.540000915500002,16.1043968201,13.3600006104,2,-1,10,1,113,167
76,1531767906936,41936, AUTO,0,40.0434592604,-88.2344147,0,-313.0888820659,392.7907356354,502.3039021093,-314.138115459,390.9509394124,0.5155669451,0.0,-315.2094056818,393.88976950309996,0.0150789752,-4.0730476759,0.0,0.0,1560,1750,40.0469751667,-88.2307243333,0.0,0.0,0.0,0.0,0.0,0.0,0.0,0.0,0.0,0.0,0.0,0.0,0.0,0,0.1200000048,0.5,0.4723424911,0.5587914586,90.0,57.0,57.0,91.3549346924,124.45915985110001,117.5200195312,25.540000915500002,16.1043968201,13.3600006104,2,-1,10,1,32,176
77,1531767907136,42136, AUTO,0,40.0434592604,-88.2344147,0,-313.0888820659,392.7907356354,502.3039021093,-314.138115459,390.9509394124,0.5473875403,0.0,-315.2094056818,393.88976950309996,0.0150789752,-4.0730476759,0.0,0.0,1500,1750,40.0469751667,-88.2307243333,0.0,0.0,0.0,0.0,0.0,0.0,0.0,0.0,0.0,0.0,0.0,0.0,0.0,0,0.0,0.5,0.535063982,0.5597110987,90.0,57.0,57.0,90.40000915530001,122.0400161743,122.10367584229999,25.540000915500002,16.1043968201,13.3600006104,2,-1,10,1,68,186
78,1531767907337,42337, AUTO,0,40.0434592604,-88.2344147,0,-313.0888820659,392.7907356354,502.3039021093,-314.138115459,390.9509394124,0.5701034068999999,0.0,-315.2094056818,393.88976950309996,0.0150789752,-4.0730476759,0.0,0.0,1440,1750,40.0469751667,-88.2307243333,0.0,0.0,0.0,0.0,0.0,0.0,0.0,0.0,0.0,0.0,0.0,0.0,0.0,0,-0.1200000048,0.5,0.5168545246,0.6233522892,90.0,57.0,57.0,87.7262039185,122.4219894409,122.10367584229999,25.540000915500002,16.1043968201,13.3600006104,2,-1,10,1,57,197
79,1531767907538,42538, AUTO,0,40.0434592604,-88.2344147,0,-313.0029997147,392.3740033551,501.9245325139,-314.1948804213,390.19110741300005,0.5330407023,0.0,-315.1235233306,393.4730372228,0.0080319188,-4.0155278944,0.0,0.0,1460,1750,40.0469683333,-88.2307236667,0.0,0.0,0.0,0.0,0.0,0.0,0.0,0.0,0.0,0.0,0.0,0.0,0.0,0,-0.07999998330000001,0.5,0.4787801802,0.5873012543,90.0,57.0,57.0,87.02591705319999,122.9949493408,121.6580352783,25.540000915500002,16.131496429400002,14.300000190699999,2,-1,10,1,44,207
80,1531767907739,42739, AUTO,0,40.0434592604,-88.2344147,0,-313.0029997147,392.3740033551,501.9245325139,-314.1948804213,390.19110741300005,0.5414097309,0.0,-315.1235233306,393.4730372228,0.0080319188,-4.0155278944,0.0,0.0,1550,1750,40.0469683333,-88.2307236667,0.0,0.0,0.0,0.0,0.0,0.0,0.0,0.0,0.0,0.0,0.0,0.0,0.0,0,0.1000000238,0.5,0.4800677299,0.6027516722999999,90.0,57.0,57.0,88.8084564209,121.84902954100001,122.6129760742,25.540000915500002,16.131496429400002,14.300000190699999,2,-1,10,1,145,216
81,1531767907940,42940, AUTO,0,40.0434592604,-88.2344147,0,-313.0029997147,392.3740033551,501.9245325139,-314.1948804213,390.19110741300005,0.5538252592,0.0,-315.1235233306,393.4730372228,0.0080319188,-4.0155278944,0.0,0.0,1500,1750,40.0469683333,-88.2307236667,0.0,0.0,0.0,0.0,0.0,0.0,0.0,0.0,0.0,0.0,0.0,0.0,0.0,0,0.0,0.5,0.5232921839,0.5843583345000001,90.0,57.0,57.0,90.6546554565,122.4219894409,122.3583145142,25.540000915500002,16.131496429400002,14.300000190699999,2,-1,10,1,136,226
82,1531767908141,43141, AUTO,0,40.0434592604,-88.2344147,0,-313.0029997147,392.3740033551,501.9245325139,-314.1948804213,390.19110741300005,0.543249011,0.0,-315.1235233306,393.4730372228,0.0080319188,-4.0155278944,0.0,0.0,1450,1750,40.0469683333,-88.2307236667,0.0,0.0,0.0,0.0,0.0,0.0,0.0,0.0,0.0,0.0,0.0,0.0,0.0,0,-0.1000000238,0.5,0.5223725438,0.5641255379,90.0,57.0,57.0,90.7183227539,121.467048645,123.1222610474,25.540000915500002,16.131496429400002,14.300000190699999,2,-1,10,1,87,237
83,1531767908341,43341, AUTO,0,40.0434592604,-88.2344147,0,-313.0029997147,392.3740033551,501.9245325139,-314.1948804213,390.19110741300005,0.5096811056,0.0,-315.1235233306,393.4730372228,0.0080319188,-4.0155278944,0.0,0.0,1480,1750,40.0469683333,-88.2307236667,0.0,0.0,0.0,0.0,0.0,0.0,0.0,0.0,0.0,0.0,0.0,0.0,0.0,0,-0.040000021499999996,0.5,0.47418180109999997,0.5451803803,90.0,57.0,57.0,89.82704925540001,121.6580352783,122.8676147461,25.540000915500002,16.131496429400002,14.300000190699999,2,-1,10,1,84,246
84,1531767908542,43542, AUTO,0,40.0434592604,-88.2344147,0,-312.8965523772,391.98403095410004,501.5533202089,-314.0388227581,390.06137999919997,0.5758053064,0.0,-315.01707599310004,393.0830648218,0.0151324105,-3.9776235460000002,0.0,0.0,1470,1750,40.0469671667,-88.2307255,0.0,0.0,0.0,0.0,0.0,0.0,0.0,0.0,0.0,0.0,0.0,0.0,0.0,0,-0.0600000024,0.5,0.4653530121,0.6862576604,90.0,57.0,57.0,90.3363494873,122.1673278809,121.3397293091,25.540000915500002,16.1200122833,9.3400001526,2,-1,10,1,78,256
85,1531767908743,43743, AUTO,0,40.0434592604,-88.2344147,0,-312.8965523772,391.98403095410004,501.5533202089,-314.0388227581,390.06137999919997,0.4975414276,0.0,-315.01707599310004,393.0830648218,0.0151324105,-3.9776235460000002,0.0,0.0,1480,1750,40.0469671667,-88.2307255,0.0,0.0,0.0,0.0,0.0,0.0,0.0,0.0,0.0,0.0,0.0,0.0,0.0,0,-0.040000021499999996,0.5,0.460018903,0.535063982,90.0,57.0,57.0,90.20902252200001,121.976348877,122.9312744141,26.077999115,16.1200122833,9.3400001526,2,-1,10,1,107,266
86,1531767908944,43944, AUTO,0,40.0434592604,-88.2344147,0,-312.8965523772,391.98403095410004,501.5533202089,-314.0388227581,390.06137999919997,0.5007603168,0.0,-315.01707599310004,393.0830648218,0.0151324105,-3.9776235460000002,0.0,0.0,1580,1750,40.0469671667,-88.2307255,0.0,0.0,0.0,0.0,0.0,0.0,0.0,0.0,0.0,0.0,0.0,0.0,0.0,0,0.15999996660000002,0.5,0.4813552499,0.5201653242000001,90.0,57.0,57.0,88.4264831543,123.2495880127,121.0214157104,26.077999115,16.1200122833,9.3400001526,2,-1,10,1,55,276
87,1531767909145,44145, AUTO,0,40.0434592604,-88.2344147,0,-312.8965523772,391.98403095410004,501.5533202089,-314.0388227581,390.06137999919997,0.5304656029,0.0,-315.01707599310004,393.0830648218,0.0151324105,-3.9776235460000002,0.0,0.0,1510,1750,40.0469671667,-88.2307255,0.0,0.0,0.0,0.0,0.0,0.0,0.0,0.0,0.0,0.0,0.0,0.0,0.0,0,0.019999980900000002,0.5,0.5413177609000001,0.5196135044,90.0,57.0,57.0,89.82704925540001,121.6580352783,121.91268920899999,26.077999115,16.1200122833,9.3400001526,2,-1,10,1,62,286
88,1531767909345,44345, AUTO,0,40.0434592604,-88.2344147,0,-312.8965523772,391.98403095410004,501.5533202089,-314.0388227581,390.06137999919997,0.5568602085000001,0.0,-315.01707599310004,393.0830648218,0.0151324105,-3.9776235460000002,0.0,0.0,1480,1750,40.0469671667,-88.2307255,0.0,0.0,0.0,0.0,0.0,0.0,0.0,0.0,0.0,0.0,0.0,0.0,0.0,0,-0.040000021499999996,0.5,0.5422374010000001,0.5714829564,90.0,57.0,57.0,90.2726821899,122.9949493408,121.976348877,26.077999115,16.1200122833,9.3400001526,2,-1,10,1,47,296
89,1531767909546,44546, AUTO,0,40.0434592604,-88.2344147,0,-312.8094238654,391.6001498096,501.19897544779997,-314.2516396262,389.7092627313,0.5684480071,0.0,-314.9299474813,392.6991836773,0.0251668426,-3.8911052230000003,0.0,0.0,1530,1750,40.046964,-88.230723,0.0,0.0,0.0,0.0,0.0,0.0,0.0,0.0,0.0,0.0,0.0,0.0,0.0,0,0.059999942800000004,0.5,0.5703793168,0.5665166974,90.0,57.0,57.0,88.0445098877,123.440574646,120.51211547850001,25.540000915500002,16.105358123800002,11.8199996948,2,-1,10,1,103,306
90,1531767909747,44747, AUTO,0,40.0434592604,-88.2344147,0,-312.8094238654,391.6001498096,501.19897544779997,-314.2516396262,389.7092627313,0.5888646840999999,0.0,-314.9299474813,392.6991836773,0.0251668426,-3.8911052230000003,0.0,0.0,1510,1750,40.046964,-88.230723,0.0,0.0,0.0,0.0,0.0,0.0,0.0,0.0,0.0,0.0,0.0,0.0,0.0,0,0.019999980900000002,0.5,0.6270310283,0.5506983995,90.0,57.0,57.0,89.3814163208,122.0400161743,122.9949493408,25.540000915500002,16.105358123800002,11.8199996948,2,-1,10,1,61,316
91,1531767909948,44948, AUTO,0,40.0434592604,-88.2344147,0,-312.8094238654,391.6001498096,501.19897544779997,-314.2516396262,389.7092627313,0.5518019795,0.0,-314.9299474813,392.6991836773,0.0251668426,-3.8911052230000003,0.0,0.0,1500,1750,40.046964,-88.230723,0.0,0.0,0.0,0.0,0.0,0.0,0.0,0.0,0.0,0.0,0.0,0.0,0.0,0,0.0,0.5,0.5527216196,0.5508823395,90.0,57.0,57.0,89.12677001950001,122.29466247559999,122.3583145142,25.540000915500002,16.105358123800002,11.8199996948,2,-1,10,1,65,326
92,1531767910149,45149, AUTO,0,40.0434592604,-88.2344147,0,-312.8094238654,391.6001498096,501.19897544779997,-314.2516396262,389.7092627313,0.5720347165999999,0.0,-314.9299474813,392.6991836773,0.0251668426,-3.8911052230000003,0.0,0.0,1540,1750,40.046964,-88.230723,0.0,0.0,0.0,0.0,0.0,0.0,0.0,0.0,0.0,0.0,0.0,0.0,0.0,0,0.0800000429,0.5,0.5771848559,0.5668845773,90.0,57.0,57.0,87.7898712158,121.7217025757,122.2310028076,25.540000915500002,16.105358123800002,11.8199996948,2,-1,10,1,57,336
93,1531767910349,45349, AUTO,0,40.0434592604,-88.2344147,0,-312.8094238654,391.6001498096,501.19897544779997,-314.2516396262,389.7092627313,0.5525376797,0.0,-314.9299474813,392.6991836773,0.0251668426,-3.8911052230000003,0.0,0.0,1540,1750,40.046964,-88.230723,0.0,0.0,0.0,0.0,0.0,0.0,0.0,0.0,0.0,0.0,0.0,0.0,0.0,0,0.0800000429,0.5,0.6069821715,0.4980932474,90.0,57.0,57.0,87.7262039185,122.9949493408,121.7217025757,25.540000915500002,16.105358123800002,11.8199996948,2,-1,10,1,56,346
94,1531767910550,45550, AUTO,0,40.0434592604,-88.2344147,0,-312.69466724389997,391.2041464787,500.8179700698,-313.7976581448,389.11622312260005,0.5418695211,0.0,-314.8151908598,392.3031803464,0.0356515624,-3.6954415502999995,0.0,0.0,1450,1750,40.0469586667,-88.2307283333,0.0,0.0,0.0,0.0,0.0,0.0,0.0,0.0,0.0,0.0,0.0,0.0,0.0,0,-0.1000000238,0.5,0.6180182099,0.4657208622,90.0,57.0,57.0,88.55381011959999,121.7217025757,122.4219894409,25.540000915500002,16.104434967,12.420000076300001,2,-1,10,1,132,356
95,1531767910751,45751, AUTO,0,40.0434592604,-88.2344147,0,-312.69466724389997,391.2041464787,500.8179700698,-313.7976581448,389.11622312260005,0.527798593,0.0,-314.8151908598,392.3031803464,0.0356515624,-3.6954415502999995,0.0,0.0,1520,1750,40.0469586667,-88.2307283333,0.0,0.0,0.0,0.0,0.0,0.0,0.0,0.0,0.0,0.0,0.0,0.0,0.0,0,0.0399999619,0.5,0.583070755,0.4725264013,90.0,57.0,57.0,89.5087432861,122.8039627075,120.83042907709999,25.540000915500002,16.104434967,12.420000076300001,2,-1,10,1,137,366
96,1531767910951,45951, AUTO,0,40.0434592604,-88.2344147,0,-312.69466724389997,391.2041464787,500.8179700698,-313.7976581448,389.11622312260005,0.5460080504,0.0,-314.8151908598,392.3031803464,0.0356515624,-3.6954415502999995,0.0,0.0,1510,1750,40.0469586667,-88.2307283333,0.0,0.0,0.0,0.0,0.0,0.0,0.0,0.0,0.0,0.0,0.0,0.0,0.0,0,0.019999980900000002,0.5,0.6042231917,0.48779293890000003,90.0,57.0,57.0,88.681137085,122.6766281128,121.7853622437,25.540000915500002,16.104434967,12.420000076300001,2,-1,10,1,133,376
97,1531767911152,46152, AUTO,0,40.0434592604,-88.2344147,0,-312.69466724389997,391.2041464787,500.8179700698,-313.7976581448,389.11622312260005,0.5858297348,0.0,-314.8151908598,392.3031803464,0.0356515624,-3.6954415502999995,0.0,0.0,1590,1750,40.0469586667,-88.2307283333,0.0,0.0,0.0,0.0,0.0,0.0,0.0,0.0,0.0,0.0,0.0,0.0,0.0,0,0.1799999475,0.5,0.6621623635,0.5094971657,90.0,57.0,57.0,88.4901504517,122.8676147461,121.59437561040001,25.540000915500002,16.104434967,12.420000076300001,2,-1,10,1,145,386
98,1531767911353,46353, AUTO,0,40.0434592604,-88.2344147,0,-312.69466724389997,391.2041464787,500.8179700698,-313.7976581448,389.11622312260005,0.5764491558,0.0,-314.8151908598,392.3031803464,0.0356515624,-3.6954415502999995,0.0,0.0,1530,1750,40.0469586667,-88.2307283333,0.0,0.0,0.0,0.0,0.0,0.0,0.0,0.0,0.0,0.0,0.0,0.0,0.0,0,0.059999942800000004,0.5,0.6367794871,0.5161187649,90.0,57.0,57.0,90.145362854,122.2310028076,122.3583145142,25.540000915500002,16.104434967,12.420000076300001,2,-1,10,1,124,396
99,1531767911554,46554, AUTO,0,40.0434592604,-88.2344147,0,-312.6046657247,390.7809354492,500.4312305836,-313.7267258367,388.91236575650004,0.5404900311999999,0.0,-314.7251893406,391.87996931690003,0.0982932823,-3.2981947603,0.0,0.0,1530,1750,40.0469568333,-88.2307291667,0.0,0.0,0.0,0.0,0.0,0.0,0.0,0.0,0.0,0.0,0.0,0.0,0.0,0,0.059999942800000004,0.5,0.5648612976,0.5161187649,90.0,57.0,57.0,90.7819747925,121.3397293091,123.2495880127,25.540000915500002,16.0779953003,25.010000228899997,2,-1,10,1,143,406
100,1531767911754,46754, AUTO,0,40.0434592604,-88.2344147,0,-312.6046657247,390.7809354492,500.4312305836,-313.7267258367,388.91236575650004,0.5671604872,0.0,-314.7251893406,391.87996931690003,0.0982932823,-3.2981947603,0.0,0.0,1440,1750,40.0469568333,-88.2307291667,0.0,0.0,0.0,0.0,0.0,0.0,0.0,0.0,0.0,0.0,0.0,0.0,0.0,0,-0.1200000048,0.5,0.5793920754999999,0.5549288988000001,90.0,57.0,57.0,91.29127502440001,123.0586013794,121.5307159424,25.540000915500002,16.0779953003,25.010000228899997,2,-1,10,1,78,416
101,1531767911955,46955, AUTO,0,40.0434592604,-88.2344147,0,-312.6046657247,390.7809354492,500.4312305836,-313.7267258367,388.91236575650004,0.5345121622,0.0,-314.7251893406,391.87996931690003,0.0982932823,-3.2981947603,0.0,0.0,1440,1750,40.0469568333,-88.2307291667,0.0,0.0,0.0,0.0,0.0,0.0,0.0,0.0,0.0,0.0,0.0,0.0,0.0,0,-0.1200000048,0.5,0.6443207264,0.42470359799999996,90.0,57.0,57.0,90.01803588870001,124.07718658450001,121.5307159424,25.540000915500002,16.0779953003,25.010000228899997,2,-1,10,1,91,426
102,1531767912156,47156, AUTO,0,40.0434592604,-88.2344147,0,-312.6046657247,390.7809354492,500.4312305836,-313.7267258367,388.91236575650004,0.5203492640999999,0.0,-314.7251893406,391.87996931690003,0.0982932823,-3.2981947603,0.0,0.0,1470,1750,40.0469568333,-88.2307291667,0.0,0.0,0.0,0.0,0.0,0.0,0.0,0.0,0.0,0.0,0.0,0.0,0.0,0,-0.0600000024,0.5,0.5416856408,0.49901291729999997,90.0,57.0,57.0,89.6997299194,120.51211547850001,123.3132476807,25.540000915500002,16.0779953003,25.010000228899997,2,-1,10,1,70,436
103,1531767912357,47357, AUTO,0,40.0434592604,-88.2344147,0,-312.6046657247,390.7809354492,500.4312305836,-313.7267258367,388.91236575650004,0.5321210623,0.0,-314.7251893406,391.87996931690003,0.0982932823,-3.2981947603,0.0,0.0,1460,1750,40.0469568333,-88.2307291667,0.0,0.0,0.0,0.0,0.0,0.0,0.0,0.0,0.0,0.0,0.0,0.0,0.0,0,-0.07999998330000001,0.5,0.5573199986999999,0.5069220662,90.0,57.0,57.0,89.3177566528,121.91268920899999,121.467048645,25.540000915500002,16.0779953003,25.010000228899997,2,-1,10,1,82,446
104,1531767912557,47557, AUTO,0,40.0434592604,-88.2344147,0,-312.5960909434,390.15618398199996,499.9381601483,-314.2516638266,388.54171600120003,0.5389266014,0.0,-314.7166145593,391.2552178497,0.2890754774,-1.6936419005,0.0,0.0,1460,1750,40.0469535,-88.230723,0.0,0.0,0.0,0.0,0.0,0.0,0.0,0.0,0.0,0.0,0.0,0.0,0.0,0,-0.07999998330000001,0.5,0.5385587215,0.5392944217,90.0,57.0,57.0,90.20902252200001,122.48564910889999,121.0850753784,25.540000915500002,16.0799980164,13.2999992371,2,-1,10,1,73,456
105,1531767912758,47758, AUTO,0,40.0434592604,-88.2344147,0,-312.5960909434,390.15618398199996,499.9381601483,-314.2516638266,388.54171600120003,0.5433410406,0.0,-314.7166145593,391.2552178497,0.2890754774,-1.6936419005,0.0,0.0,1470,1750,40.0469535,-88.230723,0.0,0.0,0.0,0.0,0.0,0.0,0.0,0.0,0.0,0.0,0.0,0.0,0.0,0,-0.0600000024,0.5,0.5293620229,0.5573199986999999,90.0,57.0,57.0,88.4901504517,122.8039627075,121.2760620117,25.540000915500002,16.0799980164,13.2999992371,2,-1,10,1,27,466
106,1531767912958,47958, AUTO,0,40.0434592604,-88.2344147,0,-312.5960909434,390.15618398199996,499.9381601483,-314.2516638266,388.54171600120003,0.5297299027000001,0.0,-314.7166145593,391.2552178497,0.2890754774,-1.6936419005,0.0,0.0,1490,1750,40.0469535,-88.230723,0.0,0.0,0.0,0.0,0.0,0.0,0.0,0.0,0.0,0.0,0.0,0.0,0.0,0,-0.019999980900000002,0.5,0.4738139808,0.5856457949,90.0,57.0,57.0,93.07381439209999,121.5307159424,122.9312744141,25.540000915500002,16.0799980164,13.2999992371,2,-1,10,1,33,476
107,1531767913158,48158, AUTO,0,40.0434592604,-88.2344147,0,-312.5960909434,390.15618398199996,499.9381601483,-314.2516638266,388.54171600120003,0.5380989313,0.0,-314.7166145593,391.2552178497,0.2890754774,-1.6936419005,0.0,0.0,1460,1750,40.0469535,-88.230723,0.0,0.0,0.0,0.0,0.0,0.0,0.0,0.0,0.0,0.0,0.0,0.0,0.0,0,-0.07999998330000001,0.5,0.4984611273,0.5777366757,90.0,57.0,57.0,88.36282348629999,122.6766281128,120.8940887451,25.540000915500002,16.0799980164,13.2999992371,2,-1,10,1,53,486
108,1531767913359,48359, AUTO,0,40.0434592604,-88.2344147,0,-312.5960909434,390.15618398199996,499.9381601483,-314.2516638266,388.54171600120003,0.5688158870000001,0.0,-314.7166145593,391.2552178497,0.2890754774,-1.6936419005,0.0,0.0,1380,1750,40.0469535,-88.230723,0.0,0.0,0.0,0.0,0.0,0.0,0.0,0.0,0.0,0.0,0.0,0.0,0.0,0,-0.2400000095,0.5,0.5111525655,0.6264792085,90.0,57.0,57.0,90.6546554565,121.7853622437,122.8039627075,25.540000915500002,16.0799980164,13.2999992371,2,-1,10,1,73,496
109,1531767913559,48559, AUTO,0,40.0434592604,-88.2344147,0,-312.0026588031,389.3172258073,498.9123784899,-314.4219184145,388.2081312213,0.561458528,0.0,-314.123182419,390.416259675,0.9930729308,-0.23411401780000002,0.0,0.0,1470,1750,40.0469505,-88.230721,0.0,0.0,0.0,0.0,0.0,0.0,0.0,0.0,0.0,0.0,0.0,0.0,0.0,0,-0.0600000024,0.5,0.46093860270000003,0.6619784236,90.0,57.0,57.0,89.5724029541,124.14086151120001,119.6845169067,26.6150016785,16.0786914825,10.989999771099999,2,-1,10,1,34,506
110,1531767913760,48760, AUTO,0,40.0434592604,-88.2344147,0,-312.0026588031,389.3172258073,498.9123784899,-314.4219184145,388.2081312213,0.5449963808,0.0,-314.123182419,390.416259675,0.9930729308,-0.23411401780000002,0.0,0.0,1450,1750,40.0469505,-88.230721,0.0,0.0,0.0,0.0,0.0,0.0,0.0,0.0,0.0,0.0,0.0,0.0,0.0,0,-0.1000000238,0.5,0.45781168340000006,0.6321811079999999,90.0,57.0,57.0,88.4901504517,122.10367584229999,121.7853622437,26.6150016785,16.0786914825,10.989999771099999,2,-1,10,1,80,516
111,1531767913960,48960, AUTO,0,40.0434592604,-88.2344147,0,-312.0026588031,389.3172258073,498.9123784899,-314.4219184145,388.2081312213,0.5607227683,0.0,-314.123182419,390.416259675,0.9930729308,-0.23411401780000002,0.0,0.0,1510,1750,40.0469505,-88.230721,0.0,0.0,0.0,0.0,0.0,0.0,0.0,0.0,0.0,0.0,0.0,0.0,0.0,0,0.019999980900000002,0.5,0.48484998939999996,0.6365955472,90.0,57.0,57.0,89.44507598879999,123.1222610474,121.3397293091,26.6150016785,16.0786914825,10.989999771099999,2,-1,10,1,62,526
112,1531767914160,49160, AUTO,0,40.0434592604,-88.2344147,0,-312.0026588031,389.3172258073,498.9123784899,-314.4219184145,388.2081312213,0.5413177013,0.0,-314.123182419,390.416259675,0.9930729308,-0.23411401780000002,0.0,0.0,1470,1750,40.0469505,-88.230721,0.0,0.0,0.0,0.0,0.0,0.0,0.0,0.0,0.0,0.0,0.0,0.0,0.0,0,-0.0600000024,0.5,0.48356246950000004,0.5990729928,90.0,57.0,57.0,88.8721160889,121.84902954100001,122.48564910889999,26.6150016785,16.0786914825,10.989999771099999,2,-1,10,1,76,536
113,1531767914361,49361, AUTO,0,40.0434592604,-88.2344147,0,-312.0026588031,389.3172258073,498.9123784899,-314.4219184145,388.2081312213,0.5415016413,0.0,-314.123182419,390.416259675,0.9930729308,-0.23411401780000002,0.0,0.0,1460,1750,40.0469505,-88.230721,0.0,0.0,0.0,0.0,0.0,0.0,0.0,0.0,0.0,0.0,0.0,0.0,0.0,0,-0.07999998330000001,0.5,0.530097723,0.5529055595,90.0,57.0,57.0,87.1532516479,120.6394424438,123.6315612793,26.6150016785,16.0786914825,10.989999771099999,2,-1,10,1,66,546
114,1531767914561,49561, AUTO,0,40.0434592604,-88.2344147,0,-311.8593141989,386.40296071589995,496.5515883597,-313.6841915286,387.5780266371,0.5597110987,0.0,-313.9798378148,387.5019945836,0.7839759054000001,-2.677451643,0.0,0.0,1450,1750,40.046944833299996,-88.2307296667,0.0,0.0,0.0,0.0,0.0,0.0,0.0,0.0,0.0,0.0,0.0,0.0,0.0,0,-0.1000000238,0.5,0.5267869234,0.5926353335,90.0,57.0,57.0,89.8907089233,123.1222610474,121.2760620117,26.6150016785,16.1069812775,19.5699996948,2,-1,10,1,101,556
115,1531767914762,49762, AUTO,0,40.0434592604,-88.2344147,0,-311.8593141989,386.40296071589995,496.5515883597,-313.6841915286,387.5780266371,0.5479393601,0.0,-313.9798378148,387.5019945836,0.7839759054000001,-2.677451643,0.0,0.0,1510,1750,40.046944833299996,-88.2307296667,0.0,0.0,0.0,0.0,0.0,0.0,0.0,0.0,0.0,0.0,0.0,0.0,0.0,0,0.019999980900000002,0.5,0.5128079653000001,0.583070755,90.0,57.0,57.0,90.7819747925,121.0214157104,123.1222610474,26.6150016785,16.1069812775,19.5699996948,2,-1,10,1,80,566
116,1531767914962,49962, AUTO,0,40.0434592604,-88.2344147,0,-311.8593141989,386.40296071589995,496.5515883597,-313.6841915286,387.5780266371,0.5220046639,0.0,-313.9798378148,387.5019945836,0.7839759054000001,-2.677451643,0.0,0.0,1490,1750,40.046944833299996,-88.2307296667,0.0,0.0,0.0,0.0,0.0,0.0,0.0,0.0,0.0,0.0,0.0,0.0,0.0,0,-0.019999980900000002,0.5,0.5159348249,0.5280745029,90.0,57.0,57.0,92.1825408936,120.51211547850001,123.37691497799999,26.6150016785,16.1069812775,19.5699996948,2,-1,10,1,36,576
117,1531767915163,50163, AUTO,0,40.0434592604,-88.2344147,0,-311.8593141989,386.40296071589995,496.5515883597,-313.6841915286,387.5780266371,0.5569521189,0.0,-313.9798378148,387.5019945836,0.7839759054000001,-2.677451643,0.0,0.0,1500,1750,40.046944833299996,-88.2307296667,0.0,0.0,0.0,0.0,0.0,0.0,0.0,0.0,0.0,0.0,0.0,0.0,0.0,0,0.0,0.5,0.5442606807,0.5696435571,90.0,57.0,57.0,88.36282348629999,122.3583145142,121.2760620117,26.6150016785,16.1069812775,19.5699996948,2,-1,10,1,36,586
