,(0)linux time (ms),    (1)uptime  (ms),      (2)drive mode,(3)mpc step counter,(4)mpc origin latitude  (deg),(5)mpc origin longitude  (deg),(6)closest trajectory point index to robot,(7)mpc error x (W;E)  (m),(8)mpc error y (W;E)  (m),(9)abs mpc error (m),(10)input [x] for mhe (m),(11)input [y] for mhe (m),(12)input [speed] for mhe (m/s),(13)input [vyaw] for mhe (rad/s),(14)mhe output x  (m),(15)mhe output y  (m),(16)mhe output speed  (m/s),(17)mhe output yaw  (rad),(18)mpc reference heading (rad),(19)mpc turn rate command (rad/s),(20)turn rate command as PWM,(21)throttle command as PWM,(22)primary gps latitude (deg),(23)primary gps longitude (deg),(24)secondary gps latitude  (deg),(25)secondary gps longitude (deg),(26)accelerometer x (m/s^2),(27)accelerometer y (m/s^2),(28)accelerometer z (m/s^2),(29)gyro yaw rate (rad/s),(30)gyro pitch rate   (rad/s),(31)gyro roll rate (rad/s),      (32)yaw (rad),  (33)pitch   (rad),     (34)roll (rad),(35)sonar1 measurement (m),(36)ultrasonic sensor measurement (m),(37)primary gps time (s),(38)normalized turn rate command,(39)normalized throttle command,(40)speed calculation from encoder left (m/s),(41)speed calculation from encoder right (m/s),(42)front gimbal target angle (degrees from straight down),(43)left gimbal target angle  (degrees from straight down),(44)right gimbal target angle  (degrees from straight down),(45)front gimbal measured angle  (degrees from straight down),(46)left gimbal measured angle    (degrees from straight down),(47)right gimbal measured angle  (degrees from straight down),(48)internal temperature (C),(49)battery voltage (V),(50)primary gps type,(51)secondary gps type,    (52)MPC R value, (53)MPC Q[0] value,Unnamed: 54,weed_num,start
0,1531768164097,299097, AUTO,0,40.0434592604,-88.2344147,0,-316.9107740577,273.2712188803,418.4609871687,-320.05666742380004,275.0672933602,0.5305576324,0.0,-319.0312976736,274.370252748,1.250639991,-15.0243941937,0.0,0.0,1490,1750,40.045933,-88.2306548333,0.0,0.0,0.0,0.0,0.0,0.0,0.0,0.0,0.0,0.0,0.0,0.0,0.0,0,-0.019999980900000002,0.5,0.5567681789,0.5043470263000001,90.0,57.0,57.0,89.0631027222,123.6315612793,122.0400161743,31.995998382600003,16.047145843499997,8.779999733,2,-1,10,1,207,15
1,1531768164297,299297, AUTO,0,40.0434592604,-88.2344147,0,-316.9107740577,273.2712188803,418.4609871687,-320.05666742380004,275.0672933602,0.5452722907,0.0,-319.0312976736,274.370252748,1.250639991,-15.0243941937,0.0,0.0,1490,1750,40.045933,-88.2306548333,0.0,0.0,0.0,0.0,0.0,0.0,0.0,0.0,0.0,0.0,0.0,0.0,0.0,0,-0.019999980900000002,0.5,0.5644934177,0.5260511636999999,90.0,57.0,57.0,89.25408935549999,120.57579040530001,123.88619995120001,31.995998382600003,16.047145843499997,8.779999733,2,-1,10,1,265,24
2,1531768164498,299498, AUTO,0,40.0434592604,-88.2344147,0,-317.40015789439997,273.6939290646,419.1076556664,-319.54591121330003,275.5120730671,0.5558484793,0.0,-319.5206815103,274.7929629323,1.2255796125,-15.401288146199999,0.0,0.0,1510,1750,40.045937,-88.23066083329999,0.0,0.0,0.0,0.0,0.0,0.0,0.0,0.0,0.0,0.0,0.0,0.0,0.0,0,0.019999980900000002,0.5,0.5898762941,0.521820724,90.0,57.0,57.0,89.82704925540001,123.0586013794,120.38480377200001,32.533000946,16.047145843499997,8.779999733,2,-1,10,1,197,33
3,1531768164698,299698, AUTO,0,40.0434592604,-88.2344147,0,-317.40015789439997,273.6939290646,419.1076556664,-319.54591121330003,275.5120730671,0.5425133109,0.0,-319.5206815103,274.7929629323,1.2255796125,-15.401288146199999,0.0,0.0,1490,1750,40.045937,-88.23066083329999,0.0,0.0,0.0,0.0,0.0,0.0,0.0,0.0,0.0,0.0,0.0,0.0,0.0,0,-0.019999980900000002,0.5,0.5622861981,0.5227404237,90.0,57.0,57.0,89.12677001950001,122.8039627075,122.6766281128,32.533000946,16.035419464100002,15.440000534100001,2,-1,10,1,263,42
4,1531768164899,299899, AUTO,0,40.0434592604,-88.2344147,0,-317.40015789439997,273.6939290646,419.1076556664,-319.54591121330003,275.5120730671,0.5481232404999999,0.0,-319.5206815103,274.7929629323,1.2255796125,-15.401288146199999,0.0,0.0,1470,1750,40.045937,-88.23066083329999,0.0,0.0,0.0,0.0,0.0,0.0,0.0,0.0,0.0,0.0,0.0,0.0,0.0,0,-0.0600000024,0.5,0.5407659411,0.5554805993999999,90.0,57.0,57.0,88.4901504517,121.3397293091,123.3132476807,32.533000946,16.035419464100002,15.440000534100001,2,-1,10,1,263,52
5,1531768165099,300099, AUTO,0,40.0434592604,-88.2344147,0,-317.40015789439997,273.6939290646,419.1076556664,-319.54591121330003,275.5120730671,0.590244174,0.0,-319.5206815103,274.7929629323,1.2255796125,-15.401288146199999,0.0,0.0,1470,1750,40.045937,-88.23066083329999,0.0,0.0,0.0,0.0,0.0,0.0,0.0,0.0,0.0,0.0,0.0,0.0,0.0,0,-0.0600000024,0.5,0.5617344379,0.6187539101,90.0,57.0,57.0,89.7633895874,122.10367584229999,121.3397293091,32.533000946,16.035419464100002,15.440000534100001,2,-1,10,1,256,61
6,1531768165300,300300, AUTO,0,40.0434592604,-88.2344147,0,-317.40015789439997,273.6939290646,419.1076556664,-319.54591121330003,275.5120730671,0.5658729076,0.0,-319.5206815103,274.7929629323,1.2255796125,-15.401288146199999,0.0,0.0,1500,1750,40.045937,-88.23066083329999,0.0,0.0,0.0,0.0,0.0,0.0,0.0,0.0,0.0,0.0,0.0,0.0,0.0,0,0.0,0.5,0.563757658,0.5679882169,90.0,57.0,57.0,90.0816955566,123.3132476807,121.5307159424,32.533000946,16.035419464100002,15.440000534100001,2,-1,10,1,269,71
7,1531768165501,300501, AUTO,0,40.0434592604,-88.2344147,0,-317.4667819666,273.4929199609,419.02689045089994,-319.9857209753,275.5120730671,0.5856458545000001,0.0,-319.5873055825,274.5919538286,1.1933950656999999,-15.2772821462,0.0,0.0,1510,1750,40.045937,-88.2306556667,0.0,0.0,0.0,0.0,0.0,0.0,0.0,0.0,0.0,0.0,0.0,0.0,0.0,0,0.019999980900000002,0.5,0.6036713719,0.567620337,90.0,57.0,57.0,90.20902252200001,123.0586013794,121.59437561040001,31.995998382600003,16.035419464100002,15.440000534100001,2,-1,10,1,304,80
8,1531768165701,300701, AUTO,0,40.0434592604,-88.2344147,0,-317.4667819666,273.4929199609,419.02689045089994,-319.9857209753,275.5120730671,0.5541930795000001,0.0,-319.5873055825,274.5919538286,1.1933950656999999,-15.2772821462,0.0,0.0,1490,1750,40.045937,-88.2306556667,0.0,0.0,0.0,0.0,0.0,0.0,0.0,0.0,0.0,0.0,0.0,0.0,0.0,0,-0.019999980900000002,0.5,0.5655969977,0.5427891612,90.0,57.0,57.0,88.681137085,119.3025436401,124.904800415,31.995998382600003,16.022138595599998,9.2900009155,2,-1,10,1,20,89
9,1531768165902,300902, AUTO,0,40.0434592604,-88.2344147,0,-317.4667819666,273.4929199609,419.02689045089994,-319.9857209753,275.5120730671,0.55060637,0.0,-319.5873055825,274.5919538286,1.1933950656999999,-15.2772821462,0.0,0.0,1940,1750,40.045937,-88.2306556667,0.0,0.0,0.0,0.0,0.0,0.0,0.0,0.0,0.0,0.0,0.0,0.0,0.0,0,0.8799999951999999,0.5,0.5622861981,0.5389265418,90.0,57.0,57.0,88.4901504517,124.45915985110001,121.3397293091,31.995998382600003,16.022138595599998,9.2900009155,2,-1,10,1,14,99
10,1531768166102,301102, AUTO,0,40.0434592604,-88.2344147,0,-317.4667819666,273.4929199609,419.02689045089994,-319.9857209753,275.5120730671,0.5220046639,0.0,-319.5873055825,274.5919538286,1.1933950656999999,-15.2772821462,0.0,0.0,1540,1750,40.045937,-88.2306556667,0.0,0.0,0.0,0.0,0.0,0.0,0.0,0.0,0.0,0.0,0.0,0.0,0.0,0,0.0800000429,0.5,0.7267231941,0.3172861338,90.0,57.0,57.0,87.7898712158,123.3132476807,122.10367584229999,31.995998382600003,16.022138595599998,9.2900009155,2,-1,10,1,26,108
11,1531768166302,301302, AUTO,0,40.0434592604,-88.2344147,0,-317.4667819666,273.4929199609,419.02689045089994,-319.9857209753,275.5120730671,0.5380069017,0.0,-319.5873055825,274.5919538286,1.1933950656999999,-15.2772821462,0.0,0.0,1480,1750,40.045937,-88.2306556667,0.0,0.0,0.0,0.0,0.0,0.0,0.0,0.0,0.0,0.0,0.0,0.0,0.0,0,-0.040000021499999996,0.5,0.6257434487,0.4502704144,90.0,57.0,57.0,90.7819747925,122.2310028076,122.10367584229999,31.995998382600003,16.022138595599998,9.2900009155,2,-1,10,1,53,118
12,1531768166504,301504, AUTO,0,40.0434592604,-88.2344147,0,-317.7420234371,273.8770333075,419.4861414054,-319.560091203,275.864190335,0.5481233001,0.0,-319.862547053,274.9760671752,1.0837281076,-15.548883948399999,0.0,0.0,1350,1750,40.0459401667,-88.2306606667,0.0,0.0,0.0,0.0,0.0,0.0,0.0,0.0,0.0,0.0,0.0,0.0,0.0,0,-0.30000001190000003,0.5,0.6652892232000001,0.4309573472,90.0,57.0,57.0,89.82704925540001,122.10367584229999,122.0400161743,33.0719985962,16.022138595599998,9.2900009155,2,-1,10,1,14,128
13,1531768166704,301704, AUTO,0,40.0434592604,-88.2344147,0,-317.7420234371,273.8770333075,419.4861414054,-319.560091203,275.864190335,0.4882527888,0.0,-319.862547053,274.9760671752,1.0837281076,-15.548883948399999,0.0,0.0,1560,1750,40.0459401667,-88.2306606667,0.0,0.0,0.0,0.0,0.0,0.0,0.0,0.0,0.0,0.0,0.0,0.0,0.0,0,0.1200000048,0.5,0.5238440037,0.4526615739,90.0,57.0,57.0,92.11888122559999,122.7402877808,120.9577560425,33.0719985962,16.0201454163,6.0900001526,2,-1,10,1,180,137
14,1531768166904,301904, AUTO,0,40.0434592604,-88.2344147,0,-317.7420234371,273.8770333075,419.4861414054,-319.560091203,275.864190335,0.5245797634,0.0,-319.862547053,274.9760671752,1.0837281076,-15.548883948399999,0.0,0.0,1520,1750,40.0459401667,-88.2306606667,0.0,0.0,0.0,0.0,0.0,0.0,0.0,0.0,0.0,0.0,0.0,0.0,0.0,0,0.0399999619,0.5,0.4710549414,0.5781045556000001,90.0,57.0,57.0,90.7183227539,122.0400161743,122.6129760742,33.0719985962,16.0201454163,6.0900001526,2,-1,10,1,206,146
15,1531768167105,302105, AUTO,0,40.0434592604,-88.2344147,0,-317.7420234371,273.8770333075,419.4861414054,-319.560091203,275.864190335,0.5369033217,0.0,-319.862547053,274.9760671752,1.0837281076,-15.548883948399999,0.0,0.0,1610,1750,40.0459401667,-88.2306606667,0.0,0.0,0.0,0.0,0.0,0.0,0.0,0.0,0.0,0.0,0.0,0.0,0.0,0,0.22000002859999998,0.5,0.459099263,0.6147073507,90.0,57.0,57.0,87.9171905518,123.37691497799999,121.976348877,33.0719985962,16.0201454163,6.0900001526,2,-1,10,1,164,155
16,1531768167305,302305, AUTO,0,40.0434592604,-88.2344147,0,-317.7420234371,273.8770333075,419.4861414054,-319.560091203,275.864190335,0.5613665581,0.0,-319.862547053,274.9760671752,1.0837281076,-15.548883948399999,0.0,0.0,1450,1750,40.0459401667,-88.2306606667,0.0,0.0,0.0,0.0,0.0,0.0,0.0,0.0,0.0,0.0,0.0,0.0,0.0,0,-0.1000000238,0.5,0.45744383340000006,0.6652892232000001,90.0,57.0,57.0,85.8163452148,123.1222610474,120.9577560425,33.0719985962,16.0201454163,6.0900001526,2,-1,10,1,159,165
17,1531768167506,302506, AUTO,0,40.0434592604,-88.2344147,0,-317.8604877254,274.0585536914,419.6943894174,-319.8863922808,276.3089700412,0.5520778894,0.0,-319.9810113413,275.1575875591,1.0069757242,-15.696616603699999,0.0,0.0,1420,1750,40.045944166700004,-88.2306568333,0.0,0.0,0.0,0.0,0.0,0.0,0.0,0.0,0.0,0.0,0.0,0.0,0.0,0,-0.16000002619999998,0.5,0.5019558668,0.6021998525,90.0,57.0,57.0,89.6997299194,121.7853622437,121.84902954100001,33.0719985962,16.0201454163,6.0900001526,2,-1,10,1,185,174
18,1531768167706,302706, AUTO,0,40.0434592604,-88.2344147,0,-317.8604877254,274.0585536914,419.6943894174,-319.8863922808,276.3089700412,0.5737820864000001,0.0,-319.9810113413,275.1575875591,1.0069757242,-15.696616603699999,0.0,0.0,1480,1750,40.045944166700004,-88.2306568333,0.0,0.0,0.0,0.0,0.0,0.0,0.0,0.0,0.0,0.0,0.0,0.0,0.0,0,-0.040000021499999996,0.5,0.4885286987,0.6590355039,90.0,57.0,57.0,89.7633895874,123.504234314,120.76677703860001,33.0719985962,15.980257988,27.210000991799998,2,-1,10,1,152,184
19,1531768167906,302906, AUTO,0,40.0434592604,-88.2344147,0,-317.8604877254,274.0585536914,419.6943894174,-319.8863922808,276.3089700412,0.5608147383,0.0,-319.9810113413,275.1575875591,1.0069757242,-15.696616603699999,0.0,0.0,1410,1750,40.045944166700004,-88.2306568333,0.0,0.0,0.0,0.0,0.0,0.0,0.0,0.0,0.0,0.0,0.0,0.0,0.0,0,-0.18000000719999998,0.5,0.5148312449,0.6067982316,90.0,57.0,57.0,92.69184112549999,121.5307159424,124.33184814450001,33.0719985962,15.980257988,27.210000991799998,2,-1,10,1,90,193
20,1531768168107,303107, AUTO,0,40.0434592604,-88.2344147,0,-317.8604877254,274.0585536914,419.6943894174,-319.8863922808,276.3089700412,0.5632058978,0.0,-319.9810113413,275.1575875591,1.0069757242,-15.696616603699999,0.0,0.0,1450,1750,40.045944166700004,-88.2306568333,0.0,0.0,0.0,0.0,0.0,0.0,0.0,0.0,0.0,0.0,0.0,0.0,0.0,0,-0.1000000238,0.5,0.48871263859999997,0.6376991272,90.0,57.0,57.0,90.9093093872,121.3397293091,123.56790161129999,33.0719985962,15.980257988,27.210000991799998,2,-1,10,1,64,202
21,1531768168307,303307, AUTO,0,40.0434592604,-88.2344147,0,-317.8604877254,274.0585536914,419.6943894174,-319.8863922808,276.3089700412,0.5837144852,0.0,-319.9810113413,275.1575875591,1.0069757242,-15.696616603699999,0.0,0.0,1520,1750,40.045944166700004,-88.2306568333,0.0,0.0,0.0,0.0,0.0,0.0,0.0,0.0,0.0,0.0,0.0,0.0,0.0,0,0.0399999619,0.5,0.5048987865,0.6625302434,90.0,57.0,57.0,91.5459213257,122.10367584229999,122.8039627075,33.0719985962,15.980257988,27.210000991799998,2,-1,10,1,97,211
22,1531768168507,303507, AUTO,0,40.0434592604,-88.2344147,0,-318.0058329125,274.4576071646,420.0650995939,-320.11338616,276.5313598947,0.5730463861999999,0.0,-320.1263565284,275.5566410323,0.9385077212,-16.0137899551,0.0,0.0,1500,1750,40.0459461667,-88.2306541667,0.0,0.0,0.0,0.0,0.0,0.0,0.0,0.0,0.0,0.0,0.0,0.0,0.0,0,0.0,0.5,0.5679882169,0.5781045556000001,90.0,57.0,57.0,86.8349304199,120.9577560425,123.6315612793,33.0719985962,15.980257988,27.210000991799998,2,-1,10,1,134,221
23,1531768168708,303708, AUTO,0,40.0434592604,-88.2344147,0,-318.0058329125,274.4576071646,420.0650995939,-320.11338616,276.5313598947,0.5487670898,0.0,-320.1263565284,275.5566410323,0.9385077212,-16.0137899551,0.0,0.0,1600,1750,40.0459461667,-88.2306541667,0.0,0.0,0.0,0.0,0.0,0.0,0.0,0.0,0.0,0.0,0.0,0.0,0.0,0,0.2000000477,0.5,0.5299137831,0.567620337,90.0,57.0,57.0,88.9994430542,123.18592834469999,120.32112884520001,33.0719985962,15.9625701904,17.1499996185,2,-1,10,1,57,229
24,1531768168908,303908, AUTO,0,40.0434592604,-88.2344147,0,-318.0058329125,274.4576071646,420.0650995939,-320.11338616,276.5313598947,0.5476634502000001,0.0,-320.1263565284,275.5566410323,0.9385077212,-16.0137899551,0.0,0.0,1190,1750,40.0459461667,-88.2306541667,0.0,0.0,0.0,0.0,0.0,0.0,0.0,0.0,0.0,0.0,0.0,0.0,0.0,0,-0.6200000048,0.5,0.5424213409,0.5529055595,90.0,57.0,57.0,93.58310699459999,122.0400161743,123.1222610474,33.0719985962,15.9625701904,17.1499996185,2,-1,10,1,62,239
25,1531768169109,304109, AUTO,0,40.0434592604,-88.2344147,0,-318.0058329125,274.4576071646,420.0650995939,-320.11338616,276.5313598947,0.4842981696,0.0,-320.1263565284,275.5566410323,0.9385077212,-16.0137899551,0.0,0.0,1550,1750,40.0459461667,-88.2306541667,0.0,0.0,0.0,0.0,0.0,0.0,0.0,0.0,0.0,0.0,0.0,0.0,0.0,0,0.1000000238,0.5,0.5234761238000001,0.44512024520000004,90.0,57.0,57.0,90.6546554565,123.8225479126,120.32112884520001,33.0719985962,15.9625701904,17.1499996185,2,-1,10,1,70,248
26,1531768169309,304309, AUTO,0,40.0434592604,-88.2344147,0,-318.0058329125,274.4576071646,420.0650995939,-320.11338616,276.5313598947,0.515658915,0.0,-320.1263565284,275.5566410323,0.9385077212,-16.0137899551,0.0,0.0,1500,1750,40.0459461667,-88.2306541667,0.0,0.0,0.0,0.0,0.0,0.0,0.0,0.0,0.0,0.0,0.0,0.0,0.0,0,0.0,0.5,0.5391104817,0.49220734829999996,90.0,57.0,57.0,85.94367218020001,121.5307159424,123.75888824459999,33.0719985962,15.9625701904,17.1499996185,2,-1,10,1,80,260
27,1531768169509,304509, AUTO,0,40.0434592604,-88.2344147,0,-318.0319471427,274.7843566555,420.29842025150003,-320.0708141466,276.99467208830004,0.5212689042,0.0,-320.15247075860003,275.8833905232,0.8801655181,-16.269266709,0.0,0.0,1530,1750,40.0459503333,-88.2306546667,0.0,0.0,0.0,0.0,0.0,0.0,0.0,0.0,0.0,0.0,0.0,0.0,0.0,0,0.059999942800000004,0.5,0.5271548033,0.5153830051,90.0,57.0,57.0,85.4343795776,124.14086151120001,120.8940887451,33.0719985962,15.9625701904,17.1499996185,2,-1,10,1,82,270
28,1531768169710,304710, AUTO,0,40.0434592604,-88.2344147,0,-318.0319471427,274.7843566555,420.29842025150003,-320.0708141466,276.99467208830004,0.542329371,0.0,-320.15247075860003,275.8833905232,0.8801655181,-16.269266709,0.0,0.0,1510,1750,40.0459503333,-88.2306546667,0.0,0.0,0.0,0.0,0.0,0.0,0.0,0.0,0.0,0.0,0.0,0.0,0.0,0,0.019999980900000002,0.5,0.5898762941,0.4947824478,90.0,57.0,57.0,89.3177566528,121.467048645,122.48564910889999,33.0719985962,15.9517211914,8.5200004578,2,-1,10,1,57,280
29,1531768169910,304910, AUTO,0,40.0434592604,-88.2344147,0,-318.0319471427,274.7843566555,420.29842025150003,-320.0708141466,276.99467208830004,0.5720347165999999,0.0,-320.15247075860003,275.8833905232,0.8801655181,-16.269266709,0.0,0.0,1500,1750,40.0459503333,-88.2306546667,0.0,0.0,0.0,0.0,0.0,0.0,0.0,0.0,0.0,0.0,0.0,0.0,0.0,0,0.0,0.5,0.6435850859000001,0.5004843473,90.0,57.0,57.0,89.63606262209998,121.467048645,122.4219894409,33.0719985962,15.9517211914,8.5200004578,2,-1,10,1,37,289
30,1531768170111,305111, AUTO,0,40.0434592604,-88.2344147,0,-318.0319471427,274.7843566555,420.29842025150003,-320.0708141466,276.99467208830004,0.5737820864000001,0.0,-320.15247075860003,275.8833905232,0.8801655181,-16.269266709,0.0,0.0,1510,1750,40.0459503333,-88.2306546667,0.0,0.0,0.0,0.0,0.0,0.0,0.0,0.0,0.0,0.0,0.0,0.0,0.0,0,0.019999980900000002,0.5,0.5941067934,0.5534573793,90.0,57.0,57.0,91.9279022217,121.4033889771,122.9949493408,33.0719985962,15.9517211914,8.5200004578,2,-1,10,1,32,298
31,1531768170312,305312, AUTO,0,40.0434592604,-88.2344147,0,-318.0319471427,274.7843566555,420.29842025150003,-320.0708141466,276.99467208830004,0.5590673685,0.0,-320.15247075860003,275.8833905232,0.8801655181,-16.269266709,0.0,0.0,1540,1750,40.0459503333,-88.2306546667,0.0,0.0,0.0,0.0,0.0,0.0,0.0,0.0,0.0,0.0,0.0,0.0,0.0,0,0.0800000429,0.5,0.5961300731,0.5220046639,90.0,57.0,57.0,89.25408935549999,122.10367584229999,122.6766281128,33.0719985962,15.9517211914,8.5200004578,2,-1,10,1,13,307
32,1531768170512,305512, AUTO,0,40.0434592604,-88.2344147,0,-318.0329419181,275.130138611,420.52532066120006,-320.2268783988,276.8649446745,0.5409498215,0.0,-320.153465534,276.2291724787,0.8666630048,-16.585793081400002,0.0,0.0,1530,1750,40.0459491667,-88.2306528333,0.0,0.0,0.0,0.0,0.0,0.0,0.0,0.0,0.0,0.0,0.0,0.0,0.0,0,0.059999942800000004,0.5,0.5722185969,0.5096811056,90.0,57.0,57.0,88.235496521,122.7402877808,122.10367584229999,32.533000946,15.9517211914,8.5200004578,2,-1,10,1,77,317
33,1531768170713,305713, AUTO,0,40.0434592604,-88.2344147,0,-318.0329419181,275.130138611,420.52532066120006,-320.2268783988,276.8649446745,0.5319370627000001,0.0,-320.153465534,276.2291724787,0.8666630048,-16.585793081400002,0.0,0.0,1490,1750,40.0459491667,-88.2306528333,0.0,0.0,0.0,0.0,0.0,0.0,0.0,0.0,0.0,0.0,0.0,0.0,0.0,0,-0.019999980900000002,0.5,0.6150752306,0.4487989247,90.0,57.0,57.0,89.12677001950001,121.0214157104,122.8676147461,32.533000946,15.930157661400001,27.2599983215,2,-1,10,1,227,328
34,1531768170914,305914, AUTO,0,40.0434592604,-88.2344147,0,-318.0329419181,275.130138611,420.52532066120006,-320.2268783988,276.8649446745,0.5082096457,0.0,-320.153465534,276.2291724787,0.8666630048,-16.585793081400002,0.0,0.0,1580,1750,40.0459491667,-88.2306528333,0.0,0.0,0.0,0.0,0.0,0.0,0.0,0.0,0.0,0.0,0.0,0.0,0.0,0,0.15999996660000002,0.5,0.5376390815,0.4787801802,90.0,57.0,57.0,89.0631027222,124.65014648440001,119.62085723879999,32.533000946,15.930157661400001,27.2599983215,2,-1,10,1,147,338
35,1531768171114,306114, AUTO,0,40.0434592604,-88.2344147,0,-318.0329419181,275.130138611,420.52532066120006,-320.2268783988,276.8649446745,0.520625174,0.0,-320.153465534,276.2291724787,0.8666630048,-16.585793081400002,0.0,0.0,1540,1750,40.0459491667,-88.2306528333,0.0,0.0,0.0,0.0,0.0,0.0,0.0,0.0,0.0,0.0,0.0,0.0,0.0,0,0.0800000429,0.5,0.5793920754999999,0.4618582428,90.0,57.0,57.0,92.4371948242,121.2760620117,121.0850753784,32.533000946,15.930157661400001,27.2599983215,2,-1,10,1,135,347
36,1531768171315,306315, AUTO,0,40.0434592604,-88.2344147,0,-318.0329419181,275.130138611,420.52532066120006,-320.2268783988,276.8649446745,0.5632978678,0.0,-320.153465534,276.2291724787,0.8666630048,-16.585793081400002,0.0,0.0,1490,1750,40.0459491667,-88.2306528333,0.0,0.0,0.0,0.0,0.0,0.0,0.0,0.0,0.0,0.0,0.0,0.0,0.0,0,-0.019999980900000002,0.5,0.6362276673,0.49036803840000004,90.0,57.0,57.0,88.9994430542,122.29466247559999,123.0586013794,32.533000946,15.930157661400001,27.2599983215,2,-1,10,1,157,356
37,1531768171515,306515, AUTO,0,40.0434592604,-88.2344147,0,-317.91817777849997,275.5987991456,420.74536937730005,-320.0424193751,277.939828965,0.5523537993,0.0,-320.0387013944,276.6978330133,0.9937194282999999,-16.9607819537,0.0,0.0,1510,1750,40.0459588333,-88.230655,0.0,0.0,0.0,0.0,0.0,0.0,0.0,0.0,0.0,0.0,0.0,0.0,0.0,0,0.019999980900000002,0.5,0.5968658328,0.5078417659000001,90.0,57.0,57.0,86.7712783813,123.56790161129999,121.976348877,32.533000946,15.930157661400001,27.2599983215,2,-1,10,1,234,365
38,1531768171716,306716, AUTO,0,40.0434592604,-88.2344147,0,-317.91817777849997,275.5987991456,420.74536937730005,-320.0424193751,277.939828965,0.535063982,0.0,-320.0387013944,276.6978330133,0.9937194282999999,-16.9607819537,0.0,0.0,1480,1750,40.0459588333,-88.230655,0.0,0.0,0.0,0.0,0.0,0.0,0.0,0.0,0.0,0.0,0.0,0.0,0.0,0,-0.040000021499999996,0.5,0.567620337,0.5025076270000001,90.0,57.0,57.0,88.2991638184,121.91268920899999,122.0400161743,32.533000946,15.926699638399999,17.5900001526,2,-1,10,1,93,374
39,1531768171916,306916, AUTO,0,40.0434592604,-88.2344147,0,-317.91817777849997,275.5987991456,420.74536937730005,-320.0424193751,277.939828965,0.5567681789,0.0,-320.0387013944,276.6978330133,0.9937194282999999,-16.9607819537,0.0,0.0,1510,1750,40.0459588333,-88.230655,0.0,0.0,0.0,0.0,0.0,0.0,0.0,0.0,0.0,0.0,0.0,0.0,0.0,0,0.019999980900000002,0.5,0.5735061765,0.5400301814,90.0,57.0,57.0,89.7633895874,123.2495880127,121.4033889771,32.533000946,15.926699638399999,17.5900001526,2,-1,10,1,116,382
40,1531768172117,307117, AUTO,0,40.0434592604,-88.2344147,0,-317.91817777849997,275.5987991456,420.74536937730005,-320.0424193751,277.939828965,0.5696435571,0.0,-320.0387013944,276.6978330133,0.9937194282999999,-16.9607819537,0.0,0.0,1520,1750,40.0459588333,-88.230655,0.0,0.0,0.0,0.0,0.0,0.0,0.0,0.0,0.0,0.0,0.0,0.0,0.0,0,0.0399999619,0.5,0.5751615763,0.5641255379,90.0,57.0,57.0,89.7633895874,121.1487426758,123.0586013794,32.533000946,15.926699638399999,17.5900001526,2,-1,10,1,184,392
41,1531768172317,307317, AUTO,0,40.0434592604,-88.2344147,0,-317.91817777849997,275.5987991456,420.74536937730005,-320.0424193751,277.939828965,0.5727704763,0.0,-320.0387013944,276.6978330133,0.9937194282999999,-16.9607819537,0.0,0.0,1550,1750,40.0459588333,-88.230655,0.0,0.0,0.0,0.0,0.0,0.0,0.0,0.0,0.0,0.0,0.0,0.0,0.0,0,0.1000000238,0.5,0.5880369543999999,0.5575039386999999,90.0,57.0,57.0,89.3177566528,124.45915985110001,120.83042907709999,32.533000946,15.926699638399999,17.5900001526,2,-1,10,1,237,401
42,1531768172517,307517, AUTO,0,40.0434592604,-88.2344147,0,-317.9687883294,275.95438048830005,421.0165916711,-320.1133442917,278.51433608630003,0.582978785,0.0,-320.0893119453,277.05341435599996,1.1831387951,-16.996990431300002,0.0,0.0,1490,1750,40.045964,-88.2306541667,0.0,0.0,0.0,0.0,0.0,0.0,0.0,0.0,0.0,0.0,0.0,0.0,0.0,0,-0.019999980900000002,0.5,0.6014641522999999,0.5644934177,90.0,57.0,57.0,91.9279022217,118.0929718018,125.54141998290001,33.0719985962,15.926699638399999,17.5900001526,2,-1,10,1,213,410
43,1531768172718,307718, AUTO,0,40.0434592604,-88.2344147,0,-317.9687883294,275.95438048830005,421.0165916711,-320.1133442917,278.51433608630003,0.5560324788000001,0.0,-320.0893119453,277.05341435599996,1.1831387951,-16.996990431300002,0.0,0.0,1550,1750,40.045964,-88.2306541667,0.0,0.0,0.0,0.0,0.0,0.0,0.0,0.0,0.0,0.0,0.0,0.0,0.0,0,0.1000000238,0.5,0.5580557585,0.5540091991,90.0,57.0,57.0,93.1374740601,125.4140930176,119.939163208,33.0719985962,15.9069824219,10.6000003815,2,-1,10,1,243,419
44,1531768172918,307918, AUTO,0,40.0434592604,-88.2344147,0,-317.9687883294,275.95438048830005,421.0165916711,-320.1133442917,278.51433608630003,0.5680800676,0.0,-320.0893119453,277.05341435599996,1.1831387951,-16.996990431300002,0.0,0.0,1440,1750,40.045964,-88.2306541667,0.0,0.0,0.0,0.0,0.0,0.0,0.0,0.0,0.0,0.0,0.0,0.0,0.0,0,-0.1200000048,0.5,0.569827497,0.554377079,90.0,57.0,57.0,88.4901504517,118.856918335,122.8676147461,33.0719985962,15.9069824219,10.6000003815,2,-1,10,1,146,428
45,1531768173118,308118, AUTO,0,40.0434592604,-88.2344147,0,-317.9687883294,275.95438048830005,421.0165916711,-320.1133442917,278.51433608630003,0.542145431,0.0,-320.0893119453,277.05341435599996,1.1831387951,-16.996990431300002,0.0,0.0,1440,1750,40.045964,-88.2306541667,0.0,0.0,0.0,0.0,0.0,0.0,0.0,0.0,0.0,0.0,0.0,0.0,0.0,0,-0.1200000048,0.5,0.4898162186,0.5944746733,90.0,57.0,57.0,86.7712783813,124.2045211792,120.76677703860001,33.0719985962,15.9069824219,10.6000003815,2,-1,10,1,124,438
46,1531768173319,308319, AUTO,0,40.0434592604,-88.2344147,0,-317.9687883294,275.95438048830005,421.0165916711,-320.1133442917,278.51433608630003,0.5378230214,0.0,-320.0893119453,277.05341435599996,1.1831387951,-16.996990431300002,0.0,0.0,1440,1750,40.045964,-88.2306541667,0.0,0.0,0.0,0.0,0.0,0.0,0.0,0.0,0.0,0.0,0.0,0.0,0.0,0,-0.1200000048,0.5,0.5080257058,0.567620337,90.0,57.0,57.0,88.8721160889,121.0850753784,123.6952209473,33.0719985962,15.9069824219,10.6000003815,2,-1,10,1,133,447
47,1531768173519,308519, AUTO,0,40.0434592604,-88.2344147,0,-318.0847004138,276.47439831689996,421.44509673510004,-320.92200541520003,279.5150904259,0.5377310514,0.0,-320.2052240297,277.5734321846,1.3782567209,-17.047839604500002,0.0,0.0,1440,1750,40.045973,-88.2306446667,0.0,0.0,0.0,0.0,0.0,0.0,0.0,0.0,0.0,0.0,0.0,0.0,0.0,0,-0.1200000048,0.5,0.46277791259999995,0.6126841307,90.0,57.0,57.0,90.20902252200001,123.75888824459999,121.2124023438,33.0719985962,15.9069824219,10.6000003815,2,-1,10,1,128,456
48,1531768173720,308720, AUTO,0,40.0434592604,-88.2344147,0,-318.0847004138,276.47439831689996,421.44509673510004,-320.92200541520003,279.5150904259,0.5762651563000001,0.0,-320.2052240297,277.5734321846,1.3782567209,-17.047839604500002,0.0,0.0,1470,1750,40.045973,-88.2306446667,0.0,0.0,0.0,0.0,0.0,0.0,0.0,0.0,0.0,0.0,0.0,0.0,0.0,0,-0.0600000024,0.5,0.49165555829999996,0.660874784,90.0,57.0,57.0,89.8907089233,121.3397293091,123.504234314,33.0719985962,15.899294853199999,18.0299987793,2,-1,10,1,171,465
49,1531768173920,308920, AUTO,0,40.0434592604,-88.2344147,0,-318.0847004138,276.47439831689996,421.44509673510004,-320.92200541520003,279.5150904259,0.5622862577000001,0.0,-320.2052240297,277.5734321846,1.3782567209,-17.047839604500002,0.0,0.0,1460,1750,40.045973,-88.2306446667,0.0,0.0,0.0,0.0,0.0,0.0,0.0,0.0,0.0,0.0,0.0,0.0,0.0,0,-0.07999998330000001,0.5,0.5039791465,0.6205933094,90.0,57.0,57.0,90.40000915530001,120.2574768066,124.26817321780001,33.0719985962,15.899294853199999,18.0299987793,2,-1,10,1,156,474
50,1531768174120,309120, AUTO,0,40.0434592604,-88.2344147,0,-318.0847004138,276.47439831689996,421.44509673510004,-320.92200541520003,279.5150904259,0.5464679003,0.0,-320.2052240297,277.5734321846,1.3782567209,-17.047839604500002,0.0,0.0,1440,1750,40.045973,-88.2306446667,0.0,0.0,0.0,0.0,0.0,0.0,0.0,0.0,0.0,0.0,0.0,0.0,0.0,0,-0.1200000048,0.5,0.47565332060000004,0.6172825098,90.0,57.0,57.0,89.7633895874,122.6129760742,122.6129760742,33.0719985962,15.899294853199999,18.0299987793,2,-1,10,1,124,483
51,1531768174321,309321, AUTO,0,40.0434592604,-88.2344147,0,-318.0847004138,276.47439831689996,421.44509673510004,-320.92200541520003,279.5150904259,0.5438928008,0.0,-320.2052240297,277.5734321846,1.3782567209,-17.047839604500002,0.0,0.0,1490,1750,40.045973,-88.2306446667,0.0,0.0,0.0,0.0,0.0,0.0,0.0,0.0,0.0,0.0,0.0,0.0,0.0,0,-0.019999980900000002,0.5,0.5104168057,0.5773687959,90.0,57.0,57.0,90.0816955566,122.9949493408,120.0664901733,33.0719985962,15.899294853199999,18.0299987793,2,-1,10,1,183,495
52,1531768174521,309521, AUTO,0,40.0434592604,-88.2344147,0,-318.3035082248,276.9750616577,421.93874926169997,-321.0638704685,279.9413376454,0.5642174482,0.0,-320.4240318407,278.0740955254,1.5435094263999998,-17.0029920041,0.0,0.0,1440,1750,40.045976833299996,-88.230643,0.0,0.0,0.0,0.0,0.0,0.0,0.0,0.0,0.0,0.0,0.0,0.0,0.0,0,-0.1200000048,0.5,0.5722185969,0.5562163591,90.0,57.0,57.0,90.9093093872,120.32112884520001,125.1594467163,33.6100006104,15.899294853199999,18.0299987793,2,-1,10,1,250,505
53,1531768174721,309721, AUTO,0,40.0434592604,-88.2344147,0,-318.3035082248,276.9750616577,421.93874926169997,-321.0638704685,279.9413376454,0.5545610189,0.0,-320.4240318407,278.0740955254,1.5435094263999998,-17.0029920041,0.0,0.0,1510,1750,40.045976833299996,-88.230643,0.0,0.0,0.0,0.0,0.0,0.0,0.0,0.0,0.0,0.0,0.0,0.0,0.0,0,0.019999980900000002,0.5,0.562654078,0.5464679003,90.0,57.0,57.0,90.5909881592,122.1673278809,122.6129760742,33.6100006104,15.8933076859,11.4799995422,2,-1,10,1,237,515
54,1531768174922,309922, AUTO,0,40.0434592604,-88.2344147,0,-318.3035082248,276.9750616577,421.93874926169997,-321.0638704685,279.9413376454,0.5469276905,0.0,-320.4240318407,278.0740955254,1.5435094263999998,-17.0029920041,0.0,0.0,1520,1750,40.045976833299996,-88.230643,0.0,0.0,0.0,0.0,0.0,0.0,0.0,0.0,0.0,0.0,0.0,0.0,0.0,0,0.0399999619,0.5,0.5372712016,0.556584239,90.0,57.0,57.0,86.26197814940001,121.467048645,122.4219894409,33.6100006104,15.8933076859,11.4799995422,2,-1,10,1,232,525
55,1531768175123,310123, AUTO,0,40.0434592604,-88.2344147,0,-318.3035082248,276.9750616577,421.93874926169997,-321.0638704685,279.9413376454,0.5357997417,0.0,-320.4240318407,278.0740955254,1.5435094263999998,-17.0029920041,0.0,0.0,1480,1750,40.045976833299996,-88.230643,0.0,0.0,0.0,0.0,0.0,0.0,0.0,0.0,0.0,0.0,0.0,0.0,0.0,0,-0.040000021499999996,0.5,0.5468357205,0.5247637033,90.0,57.0,57.0,89.8907089233,123.6952209473,121.2124023438,33.6100006104,15.8933076859,11.4799995422,2,-1,10,1,214,535
56,1531768175323,310323, AUTO,0,40.0434592604,-88.2344147,0,-318.3035082248,276.9750616577,421.93874926169997,-321.0638704685,279.9413376454,0.5430650711,0.0,-320.4240318407,278.0740955254,1.5435094263999998,-17.0029920041,0.0,0.0,1470,1750,40.045976833299996,-88.230643,0.0,0.0,0.0,0.0,0.0,0.0,0.0,0.0,0.0,0.0,0.0,0.0,0.0,0,-0.0600000024,0.5,0.5177741647,0.5683559775,90.0,57.0,57.0,88.8084564209,120.51211547850001,123.2495880127,33.6100006104,15.8933076859,11.4799995422,2,-1,10,1,203,545
57,1531768175524,310524, AUTO,0,40.0434592604,-88.2344147,0,-318.3251548307,277.4829229383,422.2886177964,-320.9503661072,280.1822599862,0.5413177609000001,0.0,-320.44567844659997,278.581956806,1.6230061436,-17.0767255702,0.0,0.0,1480,1750,40.045979,-88.2306443333,0.0,0.0,0.0,0.0,0.0,0.0,0.0,0.0,0.0,0.0,0.0,0.0,0.0,0,-0.040000021499999996,0.5,0.5319371223,0.5506983995,90.0,57.0,57.0,92.81916046139999,121.0214157104,123.94987487790002,33.6100006104,15.8933076859,11.4799995422,2,-1,10,1,148,555
58,1531768175725,310725, AUTO,0,40.0434592604,-88.2344147,0,-318.3251548307,277.4829229383,422.2886177964,-320.9503661072,280.1822599862,0.5507903099,0.0,-320.44567844659997,278.581956806,1.6230061436,-17.0767255702,0.0,0.0,1480,1750,40.045979,-88.2306443333,0.0,0.0,0.0,0.0,0.0,0.0,0.0,0.0,0.0,0.0,0.0,0.0,0.0,0,-0.040000021499999996,0.5,0.562654078,0.5389265418,90.0,57.0,57.0,93.20113372799999,124.0135345459,118.72959136959999,33.6100006104,15.8840208054,12.149999618499999,2,-1,10,1,154,565
59,1531768175925,310925, AUTO,0,40.0434592604,-88.2344147,0,-318.3251548307,277.4829229383,422.2886177964,-320.9503661072,280.1822599862,0.5163946748,0.0,-320.44567844659997,278.581956806,1.6230061436,-17.0767255702,0.0,0.0,1480,1750,40.045979,-88.2306443333,0.0,0.0,0.0,0.0,0.0,0.0,0.0,0.0,0.0,0.0,0.0,0.0,0.0,0,-0.040000021499999996,0.5,0.5260511636999999,0.5067381859000001,90.0,57.0,57.0,85.8800048828,119.1752166748,124.45915985110001,33.6100006104,15.8840208054,12.149999618499999,2,-1,10,1,144,575
60,1531768176126,311126, AUTO,0,40.0434592604,-88.2344147,0,-318.3251548307,277.4829229383,422.2886177964,-320.9503661072,280.1822599862,0.5437088609,0.0,-320.44567844659997,278.581956806,1.6230061436,-17.0767255702,0.0,0.0,1550,1750,40.045979,-88.2306443333,0.0,0.0,0.0,0.0,0.0,0.0,0.0,0.0,0.0,0.0,0.0,0.0,0.0,0,0.1000000238,0.5,0.5481233001,0.5392944217,90.0,57.0,57.0,88.6174697876,124.33184814450001,120.2574768066,33.6100006104,15.8840208054,12.149999618499999,2,-1,10,1,139,585
61,1531768176327,311327, AUTO,0,40.0434592604,-88.2344147,0,-318.3251548307,277.4829229383,422.2886177964,-320.9503661072,280.1822599862,0.5678042173,0.0,-320.44567844659997,278.581956806,1.6230061436,-17.0767255702,0.0,0.0,1550,1750,40.045979,-88.2306443333,0.0,0.0,0.0,0.0,0.0,0.0,0.0,0.0,0.0,0.0,0.0,0.0,0.0,0,0.1000000238,0.5,0.6123162508,0.5232921839,90.0,57.0,57.0,92.81916046139999,121.59437561040001,122.6129760742,33.6100006104,15.8840208054,12.149999618499999,2,-1,10,1,154,595
62,1531768176527,311527, AUTO,0,40.0434592604,-88.2344147,0,-318.5368580596,277.858410832,422.6949566917,-321.0780559134,280.0340000837,0.5906120539,0.0,-320.6573816755,278.95744469970003,1.6278728607,-17.028909021700002,0.0,0.0,1510,1750,40.045977666700004,-88.2306428333,0.0,0.0,0.0,0.0,0.0,0.0,0.0,0.0,0.0,0.0,0.0,0.0,0.0,0,0.019999980900000002,0.5,0.6128680706,0.5683559775,90.0,57.0,57.0,88.235496521,120.32112884520001,123.88619995120001,33.0719985962,15.8840208054,12.149999618499999,2,-1,10,1,160,605
63,1531768176728,311728, AUTO,0,40.0434592604,-88.2344147,0,-318.5368580596,277.858410832,422.6949566917,-321.0780559134,280.0340000837,0.5805876255,0.0,-320.6573816755,278.95744469970003,1.6278728607,-17.028909021700002,0.0,0.0,1500,1750,40.045977666700004,-88.2306428333,0.0,0.0,0.0,0.0,0.0,0.0,0.0,0.0,0.0,0.0,0.0,0.0,0.0,0,0.0,0.5,0.6656571031,0.4955181479,90.0,57.0,57.0,85.7526855469,122.5493011475,123.1222610474,33.0719985962,15.8687648773,25.0699996948,2,-1,10,1,120,615
64,1531768176928,311928, AUTO,0,40.0434592604,-88.2344147,0,-318.5368580596,277.858410832,422.6949566917,-321.0780559134,280.0340000837,0.5790241957,0.0,-320.6573816755,278.95744469970003,1.6278728607,-17.028909021700002,0.0,0.0,1520,1750,40.045977666700004,-88.2306428333,0.0,0.0,0.0,0.0,0.0,0.0,0.0,0.0,0.0,0.0,0.0,0.0,0.0,0,0.0399999619,0.5,0.6413778067,0.5166705846999999,90.0,57.0,57.0,88.8721160889,122.3583145142,122.8039627075,33.0719985962,15.8687648773,25.0699996948,2,-1,10,1,128,624
65,1531768177128,312128, AUTO,0,40.0434592604,-88.2344147,0,-318.5368580596,277.858410832,422.6949566917,-321.0780559134,280.0340000837,0.5836225748,0.0,-320.6573816755,278.95744469970003,1.6278728607,-17.028909021700002,0.0,0.0,1570,1750,40.045977666700004,-88.2306428333,0.0,0.0,0.0,0.0,0.0,0.0,0.0,0.0,0.0,0.0,0.0,0.0,0.0,0,0.1399999857,0.5,0.6397224665,0.5275226831000001,90.0,57.0,57.0,92.5645141602,122.8039627075,121.6580352783,33.0719985962,15.8687648773,25.0699996948,2,-1,10,1,146,632
66,1531768177329,312329, AUTO,0,40.0434592604,-88.2344147,0,-318.5368580596,277.858410832,422.6949566917,-321.0780559134,280.0340000837,0.5632978678,0.0,-320.6573816755,278.95744469970003,1.6278728607,-17.028909021700002,0.0,0.0,1490,1750,40.045977666700004,-88.2306428333,0.0,0.0,0.0,0.0,0.0,0.0,0.0,0.0,0.0,0.0,0.0,0.0,0.0,0,-0.019999980900000002,0.5,0.6023837924000001,0.5242118835,90.0,57.0,57.0,89.7633895874,121.2124023438,123.8225479126,33.0719985962,15.8687648773,25.0699996948,2,-1,10,1,113,641
67,1531768177529,312529, AUTO,0,40.0434592604,-88.2344147,0,-318.67623697240003,278.1445359881,422.98809310769997,-321.3476241182,279.6818828158,0.5785643457999999,0.0,-320.7967605883,279.2435698558,1.5470855743,-17.005849713499998,0.0,0.0,1490,1750,40.0459745,-88.2306396667,0.0,0.0,0.0,0.0,0.0,0.0,0.0,0.0,0.0,0.0,0.0,0.0,0.0,0,-0.019999980900000002,0.5,0.5782884359,0.5788402557,90.0,57.0,57.0,90.40000915530001,122.8676147461,123.37691497799999,33.0719985962,15.8687648773,25.0699996948,2,-1,10,1,94,650
68,1531768177730,312730, AUTO,0,40.0434592604,-88.2344147,0,-318.67623697240003,278.1445359881,422.98809310769997,-321.3476241182,279.6818828158,0.5919915438000001,0.0,-320.7967605883,279.2435698558,1.5470855743,-17.005849713499998,0.0,0.0,1500,1750,40.0459745,-88.2306396667,0.0,0.0,0.0,0.0,0.0,0.0,0.0,0.0,0.0,0.0,0.0,0.0,0.0,0,0.0,0.5,0.5821510553,0.6018319726,90.0,57.0,57.0,84.7977523804,122.48564910889999,121.2124023438,33.0719985962,15.8938779831,27.659999847399998,2,-1,10,1,81,659
69,1531768177930,312930, AUTO,0,40.0434592604,-88.2344147,0,-318.67623697240003,278.1445359881,422.98809310769997,-321.3476241182,279.6818828158,0.5657809973,0.0,-320.7967605883,279.2435698558,1.5470855743,-17.005849713499998,0.0,0.0,1520,1750,40.0459745,-88.2306396667,0.0,0.0,0.0,0.0,0.0,0.0,0.0,0.0,0.0,0.0,0.0,0.0,0.0,0,0.0399999619,0.5,0.5668845773,0.5646773577,90.0,57.0,57.0,89.5087432861,122.7402877808,122.4219894409,33.0719985962,15.8938779831,27.659999847399998,2,-1,10,1,137,670
70,1531768178130,313130, AUTO,0,40.0434592604,-88.2344147,0,-318.67623697240003,278.1445359881,422.98809310769997,-321.3476241182,279.6818828158,0.5739660263,0.0,-320.7967605883,279.2435698558,1.5470855743,-17.005849713499998,0.0,0.0,1480,1750,40.0459745,-88.2306396667,0.0,0.0,0.0,0.0,0.0,0.0,0.0,0.0,0.0,0.0,0.0,0.0,0.0,0,-0.040000021499999996,0.5,0.5873012543,0.5606307983,90.0,57.0,57.0,90.7183227539,121.467048645,122.6129760742,33.0719985962,15.8938779831,27.659999847399998,2,-1,10,1,110,680
71,1531768178331,313331, AUTO,0,40.0434592604,-88.2344147,0,-318.67623697240003,278.1445359881,422.98809310769997,-321.3476241182,279.6818828158,0.5792081356000001,0.0,-320.7967605883,279.2435698558,1.5470855743,-17.005849713499998,0.0,0.0,1490,1750,40.0459745,-88.2306396667,0.0,0.0,0.0,0.0,0.0,0.0,0.0,0.0,0.0,0.0,0.0,0.0,0.0,0,-0.019999980900000002,0.5,0.5398462414999999,0.6185700297,90.0,57.0,57.0,92.0552215576,122.6766281128,121.84902954100001,33.0719985962,15.8938779831,27.659999847399998,2,-1,10,1,147,691
72,1531768178531,313531, AUTO,0,40.0434592604,-88.2344147,0,-318.9401204175,278.3701772278,423.3352760895,-321.63137109400003,279.73748027930003,0.5512502193,0.0,-321.0606440334,279.4692110955,1.4906530187,-16.9073182493,0.0,0.0,1500,1750,40.045975,-88.2306363333,0.0,0.0,0.0,0.0,0.0,0.0,0.0,0.0,0.0,0.0,0.0,0.0,0.0,0,0.0,0.5,0.5056345463,0.5968658328,90.0,57.0,57.0,87.4078979492,122.9312744141,121.59437561040001,33.0719985962,15.8938779831,27.659999847399998,2,-1,10,1,168,701
73,1531768178731,313731, AUTO,0,40.0434592604,-88.2344147,0,-318.9401204175,278.3701772278,423.3352760895,-321.63137109400003,279.73748027930003,0.5369952917,0.0,-321.0606440334,279.4692110955,1.4906530187,-16.9073182493,0.0,0.0,1480,1750,40.045975,-88.2306363333,0.0,0.0,0.0,0.0,0.0,0.0,0.0,0.0,0.0,0.0,0.0,0.0,0.0,0,-0.040000021499999996,0.5,0.5155669451,0.5584236383,90.0,57.0,57.0,88.6174697876,123.18592834469999,121.4033889771,33.0719985962,15.8850879669,21.989999771100003,2,-1,10,1,173,710
74,1531768178932,313932, AUTO,0,40.0434592604,-88.2344147,0,-318.9401204175,278.3701772278,423.3352760895,-321.63137109400003,279.73748027930003,0.5380988717,0.0,-321.0606440334,279.4692110955,1.4906530187,-16.9073182493,0.0,0.0,1430,1750,40.045975,-88.2306363333,0.0,0.0,0.0,0.0,0.0,0.0,0.0,0.0,0.0,0.0,0.0,0.0,0.0,0,-0.1399999857,0.5,0.5164866446999999,0.5597110987,90.0,57.0,57.0,88.0445098877,120.00283050540001,123.8225479126,33.0719985962,15.8850879669,21.989999771100003,2,-1,10,1,126,720
75,1531768179132,314132, AUTO,0,40.0434592604,-88.2344147,0,-318.9401204175,278.3701772278,423.3352760895,-321.63137109400003,279.73748027930003,0.5686318874,0.0,-321.0606440334,279.4692110955,1.4906530187,-16.9073182493,0.0,0.0,1510,1750,40.045975,-88.2306363333,0.0,0.0,0.0,0.0,0.0,0.0,0.0,0.0,0.0,0.0,0.0,0.0,0.0,0,0.019999980900000002,0.5,0.5052666664,0.6319971681000001,90.0,57.0,57.0,87.28057098389999,122.6766281128,121.976348877,33.0719985962,15.8850879669,21.989999771100003,2,-1,10,1,101,729
76,1531768179332,314332, AUTO,0,40.0434592604,-88.2344147,0,-318.9401204175,278.3701772278,423.3352760895,-321.63137109400003,279.73748027930003,0.5772768259000001,0.0,-321.0606440334,279.4692110955,1.4906530187,-16.9073182493,0.0,0.0,1490,1750,40.045975,-88.2306363333,0.0,0.0,0.0,0.0,0.0,0.0,0.0,0.0,0.0,0.0,0.0,0.0,0.0,0,-0.019999980900000002,0.5,0.5310174227000001,0.6235362291,90.0,57.0,57.0,90.7183227539,123.88619995120001,120.9577560425,33.0719985962,15.8850879669,21.989999771100003,2,-1,10,1,81,738
77,1531768179533,314533, AUTO,0,40.0434592604,-88.2344147,0,-319.1549224097,278.611330971,423.6556835967,-321.9860499903,280.0340000837,0.5721266866,0.0,-321.2754460256,279.7103648387,1.4706245322,-16.8404516634,0.0,0.0,1480,1750,40.045977666700004,-88.2306321667,0.0,0.0,0.0,0.0,0.0,0.0,0.0,0.0,0.0,0.0,0.0,0.0,0.0,0,-0.040000021499999996,0.5,0.5374551415,0.6067982316,90.0,57.0,57.0,90.8456420898,122.10367584229999,122.2310028076,33.6100006104,15.8850879669,21.989999771100003,2,-1,10,1,159,747
78,1531768179733,314733, AUTO,0,40.0434592604,-88.2344147,0,-319.1549224097,278.611330971,423.6556835967,-321.9860499903,280.0340000837,0.5120722055,0.0,-321.2754460256,279.7103648387,1.4706245322,-16.8404516634,0.0,0.0,1530,1750,40.045977666700004,-88.2306321667,0.0,0.0,0.0,0.0,0.0,0.0,0.0,0.0,0.0,0.0,0.0,0.0,0.0,0,0.059999942800000004,0.5,0.4966217875,0.5275226831000001,90.0,57.0,57.0,91.6095809937,122.6129760742,121.3397293091,33.6100006104,15.8775463104,18.359998703,2,-1,10,1,187,757
79,1531768179934,314934, AUTO,0,40.0434592604,-88.2344147,0,-319.1549224097,278.611330971,423.6556835967,-321.9860499903,280.0340000837,0.5149232149,0.0,-321.2754460256,279.7103648387,1.4706245322,-16.8404516634,0.0,0.0,1490,1750,40.045977666700004,-88.2306321667,0.0,0.0,0.0,0.0,0.0,0.0,0.0,0.0,0.0,0.0,0.0,0.0,0.0,0,-0.019999980900000002,0.5,0.5037952065,0.5260511636999999,90.0,57.0,57.0,90.9093093872,120.38480377200001,124.3955001831,33.6100006104,15.8775463104,18.359998703,2,-1,10,1,149,767
80,1531768180135,315135, AUTO,0,40.0434592604,-88.2344147,0,-319.1549224097,278.611330971,423.6556835967,-321.9860499903,280.0340000837,0.5551127791,0.0,-321.2754460256,279.7103648387,1.4706245322,-16.8404516634,0.0,0.0,1530,1750,40.045977666700004,-88.2306321667,0.0,0.0,0.0,0.0,0.0,0.0,0.0,0.0,0.0,0.0,0.0,0.0,0.0,0,0.059999942800000004,0.5,0.5560324192,0.5541931391,90.0,57.0,57.0,86.7712783813,121.2760620117,121.976348877,33.6100006104,15.8775463104,18.359998703,2,-1,10,1,193,775
81,1531768180335,315335, AUTO,0,40.0434592604,-88.2344147,0,-319.1549224097,278.611330971,423.6556835967,-321.9860499903,280.0340000837,0.5380069017,0.0,-321.2754460256,279.7103648387,1.4706245322,-16.8404516634,0.0,0.0,1480,1750,40.045977666700004,-88.2306321667,0.0,0.0,0.0,0.0,0.0,0.0,0.0,0.0,0.0,0.0,0.0,0.0,0.0,0,-0.040000021499999996,0.5,0.5575039386999999,0.5185099244,90.0,57.0,57.0,90.145362854,123.56790161129999,121.467048645,33.6100006104,15.8775463104,18.359998703,2,-1,10,1,41,782
82,1531768180536,315536, AUTO,0,40.0434592604,-88.2344147,0,-319.2869960791,278.9261883429,423.96226767089996,-321.9434743888,280.6641046679,0.5837144852,0.0,-321.407519695,280.0252222106,1.4615456011,-16.847166224400002,0.0,0.0,1530,1750,40.0459833333,-88.2306326667,0.0,0.0,0.0,0.0,0.0,0.0,0.0,0.0,0.0,0.0,0.0,0.0,0.0,0,0.059999942800000004,0.5,0.6244558692000001,0.5429731011,90.0,57.0,57.0,87.66254425049999,122.10367584229999,122.7402877808,33.0719985962,15.8775463104,18.359998703,2,-1,10,1,21,790
83,1531768180736,315736, AUTO,0,40.0434592604,-88.2344147,0,-319.2869960791,278.9261883429,423.96226767089996,-321.9434743888,280.6641046679,0.5823349953,0.0,-321.407519695,280.0252222106,1.4615456011,-16.847166224400002,0.0,0.0,1540,1750,40.0459833333,-88.2306326667,0.0,0.0,0.0,0.0,0.0,0.0,0.0,0.0,0.0,0.0,0.0,0.0,0.0,0,0.0800000429,0.5,0.652597785,0.5120722055,90.0,57.0,57.0,90.01803588870001,122.6766281128,121.91268920899999,33.0719985962,15.8863544464,22.489999771100003,2,-1,10,1,202,797
84,1531768180936,315936, AUTO,0,40.0434592604,-88.2344147,0,-319.2869960791,278.9261883429,423.96226767089996,-321.9434743888,280.6641046679,0.5636657476,0.0,-321.407519695,280.0252222106,1.4615456011,-16.847166224400002,0.0,0.0,1490,1750,40.0459833333,-88.2306326667,0.0,0.0,0.0,0.0,0.0,0.0,0.0,0.0,0.0,0.0,0.0,0.0,0.0,0,-0.019999980900000002,0.5,0.6347562075,0.4925752282,90.0,57.0,57.0,91.10028839110001,120.9577560425,123.56790161129999,33.0719985962,15.8863544464,22.489999771100003,2,-1,10,1,12,805
85,1531768181137,316137, AUTO,0,40.0434592604,-88.2344147,0,-319.2869960791,278.9261883429,423.96226767089996,-321.9434743888,280.6641046679,0.5838065147,0.0,-321.407519695,280.0252222106,1.4615456011,-16.847166224400002,0.0,0.0,1420,1750,40.0459833333,-88.2306326667,0.0,0.0,0.0,0.0,0.0,0.0,0.0,0.0,0.0,0.0,0.0,0.0,0.0,0,-0.16000002619999998,0.5,0.6226165891,0.5449964404,90.0,57.0,57.0,90.8456420898,122.0400161743,123.56790161129999,33.0719985962,15.8863544464,22.489999771100003,2,-1,10,1,42,812
86,1531768181337,316337, AUTO,0,40.0434592604,-88.2344147,0,-319.2869960791,278.9261883429,423.96226767089996,-321.9434743888,280.6641046679,0.5581476688,0.0,-321.407519695,280.0252222106,1.4615456011,-16.847166224400002,0.0,0.0,1580,1750,40.0459833333,-88.2306326667,0.0,0.0,0.0,0.0,0.0,0.0,0.0,0.0,0.0,0.0,0.0,0.0,0.0,0,0.15999996660000002,0.5,0.6182021499,0.4980932474,90.0,57.0,57.0,90.2726821899,122.3583145142,121.0214157104,33.0719985962,15.8863544464,22.489999771100003,2,-1,10,1,202,820
87,1531768181538,316538, AUTO,0,40.0434592604,-88.2344147,0,-319.47134828689997,279.2255171654,424.2980459683,-321.8015889136,281.2015468138,0.5397542715,0.0,-321.5918719028,280.3245510331,1.4415925644,-16.8048929058,0.0,0.0,1510,1750,40.0459881667,-88.2306343333,0.0,0.0,0.0,0.0,0.0,0.0,0.0,0.0,0.0,0.0,0.0,0.0,0.0,0,0.019999980900000002,0.5,0.5760812759,0.5034273267,90.0,57.0,57.0,89.9543762207,121.6580352783,123.37691497799999,33.6100006104,15.8863544464,22.489999771100003,2,-1,10,1,222,828
88,1531768181738,316738, AUTO,0,40.0434592604,-88.2344147,0,-319.47134828689997,279.2255171654,424.2980459683,-321.8015889136,281.2015468138,0.5574119090999999,0.0,-321.5918719028,280.3245510331,1.4415925644,-16.8048929058,0.0,0.0,1520,1750,40.0459881667,-88.2306343333,0.0,0.0,0.0,0.0,0.0,0.0,0.0,0.0,0.0,0.0,0.0,0.0,0.0,0,0.0399999619,0.5,0.5952103734,0.5196135044,90.0,57.0,57.0,88.4901504517,121.6580352783,122.29466247559999,33.6100006104,15.8814926147,18.1399993896,2,-1,10,1,261,835
89,1531768181938,316938, AUTO,0,40.0434592604,-88.2344147,0,-319.47134828689997,279.2255171654,424.2980459683,-321.8015889136,281.2015468138,0.5541931391,0.0,-321.5918719028,280.3245510331,1.4415925644,-16.8048929058,0.0,0.0,1550,1750,40.0459881667,-88.2306343333,0.0,0.0,0.0,0.0,0.0,0.0,0.0,0.0,0.0,0.0,0.0,0.0,0.0,0,0.1000000238,0.5,0.6080857515,0.5003004670000001,90.0,57.0,57.0,88.74479675290002,122.9312744141,121.2124023438,33.6100006104,15.8814926147,18.1399993896,2,-1,10,1,236,843
90,1531768182139,317139, AUTO,0,40.0434592604,-88.2344147,0,-319.47134828689997,279.2255171654,424.2980459683,-321.8015889136,281.2015468138,0.5193376541,0.0,-321.5918719028,280.3245510331,1.4415925644,-16.8048929058,0.0,0.0,1510,1750,40.0459881667,-88.2306343333,0.0,0.0,0.0,0.0,0.0,0.0,0.0,0.0,0.0,0.0,0.0,0.0,0.0,0,0.019999980900000002,0.5,0.5617344379,0.47694084049999996,90.0,57.0,57.0,89.5724029541,122.48564910889999,122.3583145142,33.6100006104,15.8814926147,18.1399993896,2,-1,10,1,257,850
91,1531768182339,317339, AUTO,0,40.0434592604,-88.2344147,0,-319.47134828689997,279.2255171654,424.2980459683,-321.8015889136,281.2015468138,0.5368113518,0.0,-321.5918719028,280.3245510331,1.4415925644,-16.8048929058,0.0,0.0,1460,1750,40.0459881667,-88.2306343333,0.0,0.0,0.0,0.0,0.0,0.0,0.0,0.0,0.0,0.0,0.0,0.0,0.0,0,-0.07999998330000001,0.5,0.5407659411,0.5328567624,90.0,57.0,57.0,90.6546554565,120.76677703860001,124.07718658450001,33.6100006104,15.8814926147,18.1399993896,2,-1,10,1,256,858
92,1531768182539,317539, AUTO,0,40.0434592604,-88.2344147,0,-319.5029578525,279.6032645693,424.57051903580003,-321.8299534976,281.6833914955,0.5220966339,0.0,-321.62348146840003,280.702298437,1.4101463475,-16.8678139851,0.0,0.0,1530,1750,40.0459925,-88.230634,0.0,0.0,0.0,0.0,0.0,0.0,0.0,0.0,0.0,0.0,0.0,0.0,0.0,0,0.059999942800000004,0.5,0.535063982,0.5091292857999999,90.0,57.0,57.0,90.7183227539,123.6315612793,119.6845169067,33.0719985962,15.8814926147,18.1399993896,2,-1,10,1,246,865
93,1531768182740,317740, AUTO,0,40.0434592604,-88.2344147,0,-319.5029578525,279.6032645693,424.57051903580003,-321.8299534976,281.6833914955,0.5419615507,0.0,-321.62348146840003,280.702298437,1.4101463475,-16.8678139851,0.0,0.0,1460,1750,40.0459925,-88.230634,0.0,0.0,0.0,0.0,0.0,0.0,0.0,0.0,0.0,0.0,0.0,0.0,0.0,0,-0.07999998330000001,0.5,0.5678042769,0.5161187649,90.0,57.0,57.0,89.5724029541,122.10367584229999,122.10367584229999,33.0719985962,15.8655748367,26.929998397800002,2,-1,10,1,188,873
94,1531768182940,317940, AUTO,0,40.0434592604,-88.2344147,0,-319.5029578525,279.6032645693,424.57051903580003,-321.8299534976,281.6833914955,0.5540091395000001,0.0,-321.62348146840003,280.702298437,1.4101463475,-16.8678139851,0.0,0.0,1510,1750,40.0459925,-88.230634,0.0,0.0,0.0,0.0,0.0,0.0,0.0,0.0,0.0,0.0,0.0,0.0,0.0,0,0.019999980900000002,0.5,0.5654130578000001,0.5426052213,90.0,57.0,57.0,90.5909881592,123.2495880127,120.4484634399,33.0719985962,15.8655748367,26.929998397800002,2,-1,10,1,59,880
95,1531768183140,318140, AUTO,0,40.0434592604,-88.2344147,0,-319.5029578525,279.6032645693,424.57051903580003,-321.8299534976,281.6833914955,0.5669765472,0.0,-321.62348146840003,280.702298437,1.4101463475,-16.8678139851,0.0,0.0,1520,1750,40.0459925,-88.230634,0.0,0.0,0.0,0.0,0.0,0.0,0.0,0.0,0.0,0.0,0.0,0.0,0.0,0,0.0399999619,0.5,0.5736901164,0.5602629185,90.0,57.0,57.0,88.9994430542,120.6394424438,123.94987487790002,33.0719985962,15.8655748367,26.929998397800002,2,-1,10,1,28,887
96,1531768183341,318341, AUTO,0,40.0434592604,-88.2344147,0,-319.5029578525,279.6032645693,424.57051903580003,-321.8299534976,281.6833914955,0.5895084143,0.0,-321.62348146840003,280.702298437,1.4101463475,-16.8678139851,0.0,0.0,1560,1750,40.0459925,-88.230634,0.0,0.0,0.0,0.0,0.0,0.0,0.0,0.0,0.0,0.0,0.0,0.0,0.0,0,0.1200000048,0.5,0.6636338234,0.5153830051,90.0,57.0,57.0,87.7898712158,122.3583145142,121.976348877,33.0719985962,15.8655748367,26.929998397800002,2,-1,10,1,76,894
97,1531768183541,318541, AUTO,0,40.0434592604,-88.2344147,0,-319.5997893099,279.96822820619997,424.88378897269996,-321.6880664619,282.2949635924,0.5589753985,0.0,-321.72031292580004,281.0672620739,1.3999516909,-16.8823893926,0.0,0.0,1480,1750,40.045998,-88.2306356667,0.0,0.0,0.0,0.0,0.0,0.0,0.0,0.0,0.0,0.0,0.0,0.0,0.0,0,-0.040000021499999996,0.5,0.6204093695,0.4975414276,90.0,57.0,57.0,90.9093093872,121.3397293091,123.504234314,34.1479988098,15.8655748367,26.929998397800002,2,-1,10,1,169,901
98,1531768183741,318741, AUTO,0,40.0434592604,-88.2344147,0,-319.5997893099,279.96822820619997,424.88378897269996,-321.6880664619,282.2949635924,0.5009442568,0.0,-321.72031292580004,281.0672620739,1.3999516909,-16.8823893926,0.0,0.0,1400,1750,40.045998,-88.2306356667,0.0,0.0,0.0,0.0,0.0,0.0,0.0,0.0,0.0,0.0,0.0,0.0,0.0,0,-0.1999999881,0.5,0.46866381170000004,0.5332246423,90.0,57.0,57.0,90.2726821899,122.9312744141,121.84902954100001,34.1479988098,15.8645687103,14.010000228900001,2,-1,10,1,169,909
99,1531768183942,318942, AUTO,0,40.0434592604,-88.2344147,0,-319.5997893099,279.96822820619997,424.88378897269996,-321.6880664619,282.2949635924,0.5606307983,0.0,-321.72031292580004,281.0672620739,1.3999516909,-16.8823893926,0.0,0.0,1420,1750,40.045998,-88.2306356667,0.0,0.0,0.0,0.0,0.0,0.0,0.0,0.0,0.0,0.0,0.0,0.0,0.0,0,-0.16000002619999998,0.5,0.5093132257,0.6119483709,90.0,57.0,57.0,90.7183227539,123.504234314,120.83042907709999,34.1479988098,15.8645687103,14.010000228900001,2,-1,10,1,182,916
100,1531768184142,319142, AUTO,0,40.0434592604,-88.2344147,0,-319.5997893099,279.96822820619997,424.88378897269996,-321.6880664619,282.2949635924,0.5705631971,0.0,-321.72031292580004,281.0672620739,1.3999516909,-16.8823893926,0.0,0.0,1410,1750,40.045998,-88.2306356667,0.0,0.0,0.0,0.0,0.0,0.0,0.0,0.0,0.0,0.0,0.0,0.0,0.0,0,-0.18000000719999998,0.5,0.45744383340000006,0.6836826205,90.0,57.0,57.0,90.5273361206,118.4749450684,124.2045211792,34.1479988098,15.8645687103,14.010000228900001,2,-1,10,1,95,923
101,1531768184343,319343, AUTO,0,40.0434592604,-88.2344147,0,-319.5997893099,279.96822820619997,424.88378897269996,-321.6880664619,282.2949635924,0.5821511149,0.0,-321.72031292580004,281.0672620739,1.3999516909,-16.8823893926,0.0,0.0,1370,1750,40.045998,-88.2306356667,0.0,0.0,0.0,0.0,0.0,0.0,0.0,0.0,0.0,0.0,0.0,0.0,0.0,0,-0.2599999905,0.5,0.4359235764,0.7283786535,90.0,57.0,57.0,90.145362854,122.1673278809,121.84902954100001,34.1479988098,15.8645687103,14.010000228900001,2,-1,10,1,167,935
102,1531768184543,319543, AUTO,0,40.0434592604,-88.2344147,0,-319.6497097344,280.4008474425,425.2065053357,-321.8299251734,283.0177306156,0.5755294561,0.0,-321.7702333503,281.4998813102,1.4024642984,-16.925082801,0.0,0.0,1500,1750,40.0460045,-88.230634,0.0,0.0,0.0,0.0,0.0,0.0,0.0,0.0,0.0,0.0,0.0,0.0,0.0,0,0.0,0.5,0.39490628240000003,0.7561526299,90.0,57.0,57.0,88.4264831543,123.94987487790002,122.3583145142,33.0719985962,15.8645687103,14.010000228900001,2,-1,10,1,78,946
103,1531768184743,319743, AUTO,0,40.0434592604,-88.2344147,0,-319.6497097344,280.4008474425,425.2065053357,-321.8299251734,283.0177306156,0.5947505236,0.0,-321.7702333503,281.4998813102,1.4024642984,-16.925082801,0.0,0.0,1470,1750,40.0460045,-88.230634,0.0,0.0,0.0,0.0,0.0,0.0,0.0,0.0,0.0,0.0,0.0,0.0,0.0,0,-0.0600000024,0.5,0.4923912883,0.6971098185,90.0,57.0,57.0,88.9994430542,121.3397293091,121.7853622437,33.0719985962,15.8468379974,20.5600013733,2,-1,10,1,187,955
104,1531768184944,319944, AUTO,0,40.0434592604,-88.2344147,0,-319.6497097344,280.4008474425,425.2065053357,-321.8299251734,283.0177306156,0.5816912651,0.0,-321.7702333503,281.4998813102,1.4024642984,-16.925082801,0.0,0.0,1450,1750,40.0460045,-88.230634,0.0,0.0,0.0,0.0,0.0,0.0,0.0,0.0,0.0,0.0,0.0,0.0,0.0,0,-0.1000000238,0.5,0.5312013626,0.6321811079999999,90.0,57.0,57.0,88.36282348629999,121.5307159424,121.6580352783,33.0719985962,15.8468379974,20.5600013733,2,-1,10,1,187,965
105,1531768185145,320145, AUTO,0,40.0434592604,-88.2344147,0,-319.6497097344,280.4008474425,425.2065053357,-321.8299251734,283.0177306156,0.5541011691,0.0,-321.7702333503,281.4998813102,1.4024642984,-16.925082801,0.0,0.0,1530,1750,40.0460045,-88.230634,0.0,0.0,0.0,0.0,0.0,0.0,0.0,0.0,0.0,0.0,0.0,0.0,0.0,0,0.059999942800000004,0.5,0.5420535207,0.5661488175,90.0,57.0,57.0,87.4078979492,123.8225479126,123.6315612793,33.0719985962,15.8468379974,20.5600013733,2,-1,10,1,185,973
106,1531768185345,320345, AUTO,0,40.0434592604,-88.2344147,0,-319.6497097344,280.4008474425,425.2065053357,-321.8299251734,283.0177306156,0.521912694,0.0,-321.7702333503,281.4998813102,1.4024642984,-16.925082801,0.0,0.0,1320,1750,40.0460045,-88.230634,0.0,0.0,0.0,0.0,0.0,0.0,0.0,0.0,0.0,0.0,0.0,0.0,0.0,0,-0.3600000143,0.5,0.6833147407,0.3605106175,90.0,57.0,57.0,88.0445098877,121.2124023438,124.5228347778,33.0719985962,15.8468379974,20.5600013733,2,-1,10,1,197,981
107,1531768185546,320546, AUTO,0,40.0434592604,-88.2344147,0,-319.9002160751,280.7022292272,425.59357342190003,-322.6102375555,282.776808274,0.5198894143,0.0,-322.02073969099996,281.80126309490004,1.3825161716999999,-16.858474093199998,0.0,0.0,1460,1750,40.0460023333,-88.2306248333,0.0,0.0,0.0,0.0,0.0,0.0,0.0,0.0,0.0,0.0,0.0,0.0,0.0,0,-0.07999998330000001,0.5,0.530097723,0.5096811056,90.0,57.0,57.0,92.30986785889999,122.10367584229999,122.8039627075,34.1479988098,15.8468379974,20.5600013733,2,-1,10,1,60,989
108,1531768185746,320746, AUTO,0,40.0434592604,-88.2344147,0,-319.9002160751,280.7022292272,425.59357342190003,-322.6102375555,282.776808274,0.48779293890000003,0.0,-322.02073969099996,281.80126309490004,1.3825161716999999,-16.858474093199998,0.0,0.0,1500,1750,40.0460023333,-88.2306248333,0.0,0.0,0.0,0.0,0.0,0.0,0.0,0.0,0.0,0.0,0.0,0.0,0.0,0,0.0,0.5,0.5352479218999999,0.44033795600000003,90.0,57.0,57.0,91.800567627,122.0400161743,122.0400161743,34.1479988098,15.8278474808,36.1800003052,2,-1,10,1,47,997
109,1531768185946,320946, AUTO,0,40.0434592604,-88.2344147,0,-319.9002160751,280.7022292272,425.59357342190003,-322.6102375555,282.776808274,0.5476634502000001,0.0,-322.02073969099996,281.80126309490004,1.3825161716999999,-16.858474093199998,0.0,0.0,1520,1750,40.0460023333,-88.2306248333,0.0,0.0,0.0,0.0,0.0,0.0,0.0,0.0,0.0,0.0,0.0,0.0,0.0,0,0.0399999619,0.5,0.5446285605,0.5506983995,90.0,57.0,57.0,86.70761108399999,122.8039627075,121.7217025757,34.1479988098,15.8278474808,36.1800003052,2,-1,10,1,52,1005
110,1531768186147,321147, AUTO,0,40.0434592604,-88.2344147,0,-319.9002160751,280.7022292272,425.59357342190003,-322.6102375555,282.776808274,0.5824270248,0.0,-322.02073969099996,281.80126309490004,1.3825161716999999,-16.858474093199998,0.0,0.0,1480,1750,40.0460023333,-88.2306248333,0.0,0.0,0.0,0.0,0.0,0.0,0.0,0.0,0.0,0.0,0.0,0.0,0.0,0,-0.040000021499999996,0.5,0.5705632567,0.5942907332999999,90.0,57.0,57.0,83.7791595459,121.0214157104,123.8225479126,34.1479988098,15.8278474808,36.1800003052,2,-1,10,1,54,1018
111,1531768186347,321347, AUTO,0,40.0434592604,-88.2344147,0,-319.9002160751,280.7022292272,425.59357342190003,-322.6102375555,282.776808274,0.5639415979,0.0,-322.02073969099996,281.80126309490004,1.3825161716999999,-16.858474093199998,0.0,0.0,1570,1750,40.0460023333,-88.2306248333,0.0,0.0,0.0,0.0,0.0,0.0,0.0,0.0,0.0,0.0,0.0,0.0,0.0,0,0.1399999857,0.5,0.5729543567000001,0.5549288988000001,90.0,57.0,57.0,91.2276153564,126.36901855469999,117.9019851685,34.1479988098,15.8278474808,36.1800003052,2,-1,10,1,77,1028
112,1531768186548,321548, AUTO,0,40.0434592604,-88.2344147,0,-319.8855187104,281.1278203592,425.8633542118,-322.085285859,283.6107702243,0.4953342378,0.0,-322.0060423263,282.2268542269,1.3410140156,-16.934576858,0.0,0.0,1450,1750,40.0460098333,-88.230631,0.0,0.0,0.0,0.0,0.0,0.0,0.0,0.0,0.0,0.0,0.0,0.0,0.0,0,-0.1000000238,0.5,0.5367193818,0.45394909380000004,90.0,57.0,57.0,92.50085449219999,117.9019851685,125.6687469482,33.6100006104,15.8278474808,36.1800003052,2,-1,10,1,54,1038
113,1531768186748,321748, AUTO,0,40.0434592604,-88.2344147,0,-319.8855187104,281.1278203592,425.8633542118,-322.085285859,283.6107702243,0.5340523124000001,0.0,-322.0060423263,282.2268542269,1.3410140156,-16.934576858,0.0,0.0,1500,1750,40.0460098333,-88.230631,0.0,0.0,0.0,0.0,0.0,0.0,0.0,0.0,0.0,0.0,0.0,0.0,0.0,0,0.0,0.5,0.5652291179,0.5028755068999999,90.0,57.0,57.0,89.9543762207,120.76677703860001,123.75888824459999,33.6100006104,15.8290815353,10.0100002289,2,-1,10,1,83,1048
114,1531768186948,321948, AUTO,0,40.0434592604,-88.2344147,0,-319.8855187104,281.1278203592,425.8633542118,-322.085285859,283.6107702243,0.5420534611,0.0,-322.0060423263,282.2268542269,1.3410140156,-16.934576858,0.0,0.0,1530,1750,40.0460098333,-88.230631,0.0,0.0,0.0,0.0,0.0,0.0,0.0,0.0,0.0,0.0,0.0,0.0,0.0,0,0.059999942800000004,0.5,0.5735061765,0.5106007457,90.0,57.0,57.0,90.01803588870001,124.26817321780001,119.3025436401,33.6100006104,15.8290815353,10.0100002289,2,-1,10,1,158,1058
115,1531768187149,322149, AUTO,0,40.0434592604,-88.2344147,0,-319.8855187104,281.1278203592,425.8633542118,-322.085285859,283.6107702243,0.5635737181,0.0,-322.0060423263,282.2268542269,1.3410140156,-16.934576858,0.0,0.0,1380,1750,40.0460098333,-88.230631,0.0,0.0,0.0,0.0,0.0,0.0,0.0,0.0,0.0,0.0,0.0,0.0,0.0,0,-0.2400000095,0.5,0.6123162508,0.5148312449,90.0,57.0,57.0,89.5087432861,120.57579040530001,123.8225479126,33.6100006104,15.8290815353,10.0100002289,2,-1,10,1,259,1068
116,1531768187349,322349, AUTO,0,40.0434592604,-88.2344147,0,-319.8855187104,281.1278203592,425.8633542118,-322.085285859,283.6107702243,0.591439724,0.0,-322.0060423263,282.2268542269,1.3410140156,-16.934576858,0.0,0.0,1530,1750,40.0460098333,-88.230631,0.0,0.0,0.0,0.0,0.0,0.0,0.0,0.0,0.0,0.0,0.0,0.0,0.0,0,0.059999942800000004,0.5,0.6233522892,0.5595271587,90.0,57.0,57.0,88.235496521,123.0586013794,121.0214157104,33.6100006104,15.8290815353,10.0100002289,2,-1,10,1,267,1078
