,(0)linux time (ms),    (1)uptime  (ms),      (2)drive mode,(3)mpc step counter,(4)mpc origin latitude  (deg),(5)mpc origin longitude  (deg),(6)closest trajectory point index to robot,(7)mpc error x (W;E)  (m),(8)mpc error y (W;E)  (m),(9)abs mpc error (m),(10)input [x] for mhe (m),(11)input [y] for mhe (m),(12)input [speed] for mhe (m/s),(13)input [vyaw] for mhe (rad/s),(14)mhe output x  (m),(15)mhe output y  (m),(16)mhe output speed  (m/s),(17)mhe output yaw  (rad),(18)mpc reference heading (rad),(19)mpc turn rate command (rad/s),(20)turn rate command as PWM,(21)throttle command as PWM,(22)primary gps latitude (deg),(23)primary gps longitude (deg),(24)secondary gps latitude  (deg),(25)secondary gps longitude (deg),(26)accelerometer x (m/s^2),(27)accelerometer y (m/s^2),(28)accelerometer z (m/s^2),(29)gyro yaw rate (rad/s),(30)gyro pitch rate   (rad/s),(31)gyro roll rate (rad/s),      (32)yaw (rad),  (33)pitch   (rad),     (34)roll (rad),(35)sonar1 measurement (m),(36)ultrasonic sensor measurement (m),(37)primary gps time (s),(38)normalized turn rate command,(39)normalized throttle command,(40)speed calculation from encoder left (m/s),(41)speed calculation from encoder right (m/s),(42)front gimbal target angle (degrees from straight down),(43)left gimbal target angle  (degrees from straight down),(44)right gimbal target angle  (degrees from straight down),(45)front gimbal measured angle  (degrees from straight down),(46)left gimbal measured angle    (degrees from straight down),(47)right gimbal measured angle  (degrees from straight down),(48)internal temperature (C),(49)battery voltage (V),(50)primary gps type,(51)secondary gps type,    (52)MPC R value, (53)MPC Q[0] value,Unnamed: 54,weed_num,start
0,1530628786764,699764, RC,0,39.9586186,-88.445067899,0,0.0,0.0,0.0,0.0,0.0,0.0,0.0,0.0,0.0,0.0,0.0,0.0,0.0,1500,1500,0.0,0.0,40.048274,-88.233049,0.0,0.0,0.0,0.0,0.0,0.0,0.0,0.0,0.0,0.0,0.0,0,0.0,0.0,0.0,0.0,90.0,90.0,90.0,88.74479675290002,87.1532516479,91.10028839110001,25.540000915500002,15.7548160553,3.5599999427999998,0,2,25,1,42,7
1,1530628786815,699815, RC,0,39.9586186,-88.445067899,0,0.0,0.0,0.0,0.0,0.0,0.0,0.0,0.0,0.0,0.0,0.0,0.0,0.0,1500,1500,0.0,0.0,40.0482731667,-88.2330515,0.0,0.0,0.0,0.0,0.0,0.0,0.0,0.0,0.0,0.0,0.0,0,0.0,0.0,0.0,0.0,90.0,90.0,90.0,88.74479675290002,89.63606262209998,89.3177566528,25.540000915500002,15.7548160553,3.5599999427999998,0,2,25,1,55,9
2,1530628786865,699865, RC,0,39.9586186,-88.445067899,0,0.0,0.0,0.0,0.0,0.0,0.0,0.0,0.0,0.0,0.0,0.0,0.0,0.0,1500,1500,0.0,0.0,40.0482731667,-88.2330515,0.0,0.0,0.0,0.0,0.0,0.0,0.0,0.0,0.0,0.0,0.0,0,0.0,0.0,0.0,0.0,90.0,90.0,90.0,88.74479675290002,90.6546554565,86.1983184814,25.540000915500002,15.7548160553,3.5599999427999998,0,2,25,1,82,12
3,1530628786916,699916, RC,0,39.9586186,-88.445067899,0,0.0,0.0,0.0,0.0,0.0,0.0,0.0,0.0,0.0,0.0,0.0,0.0,0.0,1500,1500,0.0,0.0,40.0482731667,-88.2330515,0.0,0.0,0.0,0.0,0.0,0.0,0.0,0.0,0.0,0.0,0.0,0,0.0,0.0,0.0,0.0,90.0,90.0,90.0,88.74479675290002,88.1081771851,86.26197814940001,25.540000915500002,15.7548160553,3.5599999427999998,0,2,25,1,110,15
4,1530628786967,699967, RC,0,39.9586186,-88.445067899,0,0.0,0.0,0.0,0.0,0.0,0.0,0.0,0.0,0.0,0.0,0.0,0.0,0.0,1500,1500,0.0,0.0,40.0482731667,-88.2330515,0.0,0.0,0.0,0.0,0.0,0.0,0.0,0.0,0.0,0.0,0.0,0,0.0,0.0,0.0,0.0,90.0,90.0,90.0,88.681137085,88.36282348629999,87.7262039185,25.540000915500002,15.7548160553,3.5599999427999998,0,2,25,1,128,19
5,1530628787018,700018, RC,0,39.9586186,-88.445067899,0,0.0,0.0,0.0,0.0,0.0,0.0,0.0,0.0,0.0,0.0,0.0,0.0,0.0,1500,1500,0.0,0.0,40.0482731667,-88.2330515,0.0,0.0,0.0,0.0,0.0,0.0,0.0,0.0,0.0,0.0,0.0,0,0.0,0.0,0.0,0.0,90.0,90.0,90.0,88.681137085,89.3814163208,89.3177566528,25.540000915500002,15.7548160553,3.5599999427999998,0,2,25,1,157,22
6,1530628787068,700068, RC,0,39.9586186,-88.445067899,0,0.0,0.0,0.0,0.0,0.0,0.0,0.0,0.0,0.0,0.0,0.0,0.0,0.0,1500,1500,0.0,0.0,40.0482731667,-88.2330515,0.0,0.0,0.0,0.0,0.0,0.0,0.0,0.0,0.0,0.0,0.0,0,0.0,0.0,0.0,0.0,90.0,90.0,90.0,88.681137085,88.4264831543,89.3177566528,25.540000915500002,15.7548160553,3.5599999427999998,0,2,25,1,151,24
7,1530628787119,700119, RC,0,39.9586186,-88.445067899,0,0.0,0.0,0.0,0.0,0.0,0.0,0.0,0.0,0.0,0.0,0.0,0.0,0.0,1500,1500,0.0,0.0,40.0482731667,-88.2330515,0.0,0.0,0.0,0.0,0.0,0.0,0.0,0.0,0.0,0.0,0.0,0,0.0,0.0,0.0,0.0,90.0,90.0,90.0,88.681137085,88.235496521,89.3177566528,25.540000915500002,15.7548160553,3.5599999427999998,0,2,25,1,150,27
8,1530628787170,700170, RC,0,39.9586186,-88.445067899,0,0.0,0.0,0.0,0.0,0.0,0.0,0.0,0.0,0.0,0.0,0.0,0.0,0.0,1500,1500,0.0,0.0,40.0482731667,-88.2330515,0.0,0.0,0.0,0.0,0.0,0.0,0.0,0.0,0.0,0.0,0.0,0,0.0,0.0,0.0,0.0,90.0,90.0,90.0,88.681137085,88.1081771851,89.25408935549999,25.540000915500002,15.7548160553,3.5599999427999998,0,2,25,1,156,29
9,1530628787220,700220, RC,0,39.9586186,-88.445067899,0,0.0,0.0,0.0,0.0,0.0,0.0,0.0,0.0,0.0,0.0,0.0,0.0,0.0,1500,1500,0.0,0.0,40.0482731667,-88.2330515,0.0,0.0,0.0,0.0,0.0,0.0,0.0,0.0,0.0,0.0,0.0,0,0.0,0.0,0.0,0.0,90.0,90.0,90.0,88.681137085,87.9808578491,89.25408935549999,25.540000915500002,15.7548160553,3.5599999427999998,0,2,25,1,173,32
10,1530628787271,700271, RC,0,39.9586186,-88.445067899,0,0.0,0.0,0.0,0.0,0.0,0.0,0.0,0.0,0.0,0.0,0.0,0.0,0.0,1500,1500,0.0,0.0,40.0482731667,-88.2330515,0.0,0.0,0.0,0.0,0.0,0.0,0.0,0.0,0.0,0.0,0.0,0,0.0,0.0,0.0,0.0,90.0,90.0,90.0,88.681137085,87.7898712158,89.25408935549999,25.540000915500002,15.7548160553,3.5599999427999998,0,2,25,1,150,34
11,1530628787321,700321, RC,0,39.9586186,-88.445067899,0,0.0,0.0,0.0,0.0,0.0,0.0,0.0,0.0,0.0,0.0,0.0,0.0,0.0,1500,1500,0.0,0.0,40.0482731667,-88.2330515,0.0,0.0,0.0,0.0,0.0,0.0,0.0,0.0,0.0,0.0,0.0,0,0.0,0.0,0.0,0.0,90.0,90.0,90.0,88.681137085,87.66254425049999,89.25408935549999,25.540000915500002,15.7548160553,3.5599999427999998,0,2,25,1,150,37
12,1530628787372,700372, RC,0,39.9586186,-88.445067899,0,0.0,0.0,0.0,0.0,0.0,0.0,0.0,0.0,0.0,0.0,0.0,0.0,0.0,1500,1500,0.0,0.0,40.0482731667,-88.2330515,0.0,0.0,0.0,0.0,0.0,0.0,0.0,0.0,0.0,0.0,0.0,0,0.0,0.0,0.0,0.0,90.0,90.0,90.0,88.681137085,88.1718444824,89.1904296875,25.540000915500002,15.7548160553,3.5599999427999998,0,2,25,1,150,39
13,1530628787422,700422, RC,0,39.9586186,-88.445067899,0,0.0,0.0,0.0,0.0,0.0,0.0,0.0,0.0,0.0,0.0,0.0,0.0,0.0,1500,1500,0.0,0.0,40.0482731667,-88.2330515,0.0,0.0,0.0,0.0,0.0,0.0,0.0,0.0,0.0,0.0,0.0,0,0.0,0.0,0.0,0.0,90.0,90.0,90.0,88.6174697876,89.25408935549999,88.9994430542,25.540000915500002,15.7548160553,3.5599999427999998,0,2,25,1,165,42
14,1530628787473,700473, RC,0,39.9586186,-88.445067899,0,0.0,0.0,0.0,0.0,0.0,0.0,0.0,0.0,0.0,0.0,0.0,0.0,0.0,1500,1500,0.0,0.0,40.0482731667,-88.2330515,0.0,0.0,0.0,0.0,0.0,0.0,0.0,0.0,0.0,0.0,0.0,0,0.0,0.0,0.0,0.0,90.0,90.0,90.0,88.6174697876,89.1904296875,88.9994430542,25.540000915500002,15.7548160553,3.5599999427999998,0,2,25,1,154,44
15,1530628787524,700524, RC,0,39.9586186,-88.445067899,0,0.0,0.0,0.0,0.0,0.0,0.0,0.0,0.0,0.0,0.0,0.0,0.0,0.0,1500,1500,0.0,0.0,40.0482731667,-88.2330515,0.0,0.0,0.0,0.0,0.0,0.0,0.0,0.0,0.0,0.0,0.0,0,0.0,0.0,0.0,0.0,90.0,90.0,90.0,88.6174697876,89.12677001950001,88.93578338620001,25.540000915500002,15.7548160553,3.5599999427999998,0,2,25,1,153,47
16,1530628787574,700574, RC,0,39.9586186,-88.445067899,0,0.0,0.0,0.0,0.0,0.0,0.0,0.0,0.0,0.0,0.0,0.0,0.0,0.0,1500,1500,0.0,0.0,40.0482731667,-88.2330515,0.0,0.0,0.0,0.0,0.0,0.0,0.0,0.0,0.0,0.0,0.0,0,0.0,0.0,0.0,0.0,90.0,90.0,90.0,88.6174697876,89.0631027222,88.93578338620001,25.540000915500002,15.7548160553,3.5599999427999998,0,2,25,1,162,49
17,1530628787625,700625, RC,0,39.9586186,-88.445067899,0,0.0,0.0,0.0,0.0,0.0,0.0,0.0,0.0,0.0,0.0,0.0,0.0,0.0,1500,1500,0.0,0.0,40.0482731667,-88.2330515,0.0,0.0,0.0,0.0,0.0,0.0,0.0,0.0,0.0,0.0,0.0,0,0.0,0.0,0.0,0.0,90.0,90.0,90.0,88.6174697876,88.93578338620001,88.93578338620001,25.540000915500002,15.7548160553,3.5599999427999998,0,2,25,1,157,52
18,1530628787676,700676, RC,0,39.9586186,-88.445067899,0,0.0,0.0,0.0,0.0,0.0,0.0,0.0,0.0,0.0,0.0,0.0,0.0,0.0,1500,1500,0.0,0.0,40.0482731667,-88.2330515,0.0,0.0,0.0,0.0,0.0,0.0,0.0,0.0,0.0,0.0,0.0,0,0.0,0.0,0.0,0.0,90.0,90.0,90.0,88.6174697876,88.93578338620001,88.93578338620001,25.540000915500002,15.7548160553,3.5599999427999998,0,2,25,1,167,54
19,1530628787726,700726, RC,0,39.9586186,-88.445067899,0,0.0,0.0,0.0,0.0,0.0,0.0,0.0,0.0,0.0,0.0,0.0,0.0,0.0,1500,1500,0.0,0.0,40.0482731667,-88.2330515,0.0,0.0,0.0,0.0,0.0,0.0,0.0,0.0,0.0,0.0,0.0,0,0.0,0.0,0.0,0.0,90.0,90.0,90.0,88.6174697876,88.8721160889,88.93578338620001,25.540000915500002,15.7553100586,3.1800000668,0,2,25,1,156,57
20,1530628787777,700777, RC,0,39.9586186,-88.445067899,0,0.0,0.0,0.0,0.0,0.0,0.0,0.0,0.0,0.0,0.0,0.0,0.0,0.0,1500,1500,0.0,0.0,40.0482731667,-88.2330515,0.0,0.0,0.0,0.0,0.0,0.0,0.0,0.0,0.0,0.0,0.0,0,0.0,0.0,0.0,0.0,90.0,90.0,90.0,88.6174697876,88.8084564209,88.8721160889,25.540000915500002,15.7553100586,3.1800000668,0,2,25,1,159,60
21,1530628787828,700828, RC,0,39.9586186,-88.445067899,0,0.0,0.0,0.0,0.0,0.0,0.0,0.0,0.0,0.0,0.0,0.0,0.0,0.0,1500,1500,0.0,0.0,40.0482718333,-88.2330566667,0.0,0.0,0.0,0.0,0.0,0.0,0.0,0.0,0.0,0.0,0.0,0,0.0,0.0,0.0,0.0,90.0,90.0,90.0,88.6174697876,88.74479675290002,88.8721160889,25.540000915500002,15.7553100586,3.1800000668,0,2,25,1,153,62
22,1530628787878,700878, RC,0,39.9586186,-88.445067899,0,0.0,0.0,0.0,0.0,0.0,0.0,0.0,0.0,0.0,0.0,0.0,0.0,0.0,1500,1500,0.0,0.0,40.0482718333,-88.2330566667,0.0,0.0,0.0,0.0,0.0,0.0,0.0,0.0,0.0,0.0,0.0,0,0.0,0.0,0.0,0.0,90.0,90.0,90.0,88.6174697876,88.9994430542,88.8721160889,25.540000915500002,15.7553100586,3.1800000668,0,2,25,1,162,65
23,1530628787929,700929, RC,0,39.9586186,-88.445067899,0,0.0,0.0,0.0,0.0,0.0,0.0,0.0,0.0,0.0,0.0,0.0,0.0,0.0,1500,1500,0.0,0.0,40.0482718333,-88.2330566667,0.0,0.0,0.0,0.0,0.0,0.0,0.0,0.0,0.0,0.0,0.0,0,0.0,0.0,0.0,0.0,90.0,90.0,90.0,88.6174697876,88.93578338620001,88.8721160889,25.540000915500002,15.7553100586,3.1800000668,0,2,25,1,154,67
24,1530628787979,700979, RC,0,39.9586186,-88.445067899,0,0.0,0.0,0.0,0.0,0.0,0.0,0.0,0.0,0.0,0.0,0.0,0.0,0.0,1500,1500,0.0,0.0,40.0482718333,-88.2330566667,0.0,0.0,0.0,0.0,0.0,0.0,0.0,0.0,0.0,0.0,0.0,0,0.0,0.0,0.0,0.0,90.0,90.0,90.0,88.6174697876,88.93578338620001,88.8721160889,25.540000915500002,15.7553100586,3.1800000668,0,2,25,1,152,70
25,1530628788030,701030, RC,0,39.9586186,-88.445067899,0,0.0,0.0,0.0,0.0,0.0,0.0,0.0,0.0,0.0,0.0,0.0,0.0,0.0,1500,1500,0.0,0.0,40.0482718333,-88.2330566667,0.0,0.0,0.0,0.0,0.0,0.0,0.0,0.0,0.0,0.0,0.0,0,0.0,0.0,0.0,0.0,90.0,90.0,90.0,88.6174697876,88.8721160889,88.8721160889,25.540000915500002,15.7553100586,3.1800000668,0,2,25,1,170,72
26,1530628788081,701081, RC,0,39.9586186,-88.445067899,0,0.0,0.0,0.0,0.0,0.0,0.0,0.0,0.0,0.0,0.0,0.0,0.0,0.0,1500,1500,0.0,0.0,40.0482718333,-88.2330566667,0.0,0.0,0.0,0.0,0.0,0.0,0.0,0.0,0.0,0.0,0.0,0,0.0,0.0,0.0,0.0,90.0,90.0,90.0,88.6174697876,88.8084564209,88.8721160889,25.540000915500002,15.7553100586,3.1800000668,0,2,25,1,151,75
27,1530628788131,701131, RC,0,39.9586186,-88.445067899,0,0.0,0.0,0.0,0.0,0.0,0.0,0.0,0.0,0.0,0.0,0.0,0.0,0.0,1500,1500,0.0,0.0,40.0482718333,-88.2330566667,0.0,0.0,0.0,0.0,0.0,0.0,0.0,0.0,0.0,0.0,0.0,0,0.0,0.0,0.0,0.0,90.0,90.0,90.0,88.6174697876,88.8084564209,88.8721160889,25.540000915500002,15.7553100586,3.1800000668,0,2,25,1,163,77
28,1530628788182,701182, RC,0,39.9586186,-88.445067899,0,0.0,0.0,0.0,0.0,0.0,0.0,0.0,0.0,0.0,0.0,0.0,0.0,0.0,1500,1500,0.0,0.0,40.0482718333,-88.2330566667,0.0,0.0,0.0,0.0,0.0,0.0,0.0,0.0,0.0,0.0,0.0,0,0.0,0.0,0.0,0.0,90.0,90.0,90.0,88.6174697876,88.74479675290002,88.8721160889,25.540000915500002,15.7553100586,3.1800000668,0,2,25,1,166,80
29,1530628788233,701233, RC,0,39.9586186,-88.445067899,0,0.0,0.0,0.0,0.0,0.0,0.0,0.0,0.0,0.0,0.0,0.0,0.0,0.0,1500,1500,0.0,0.0,40.0482718333,-88.2330566667,0.0,0.0,0.0,0.0,0.0,0.0,0.0,0.0,0.0,0.0,0.0,0,0.0,0.0,0.0,0.0,90.0,90.0,90.0,88.6174697876,88.74479675290002,88.8721160889,25.540000915500002,15.7553100586,3.1800000668,0,2,25,1,151,82
30,1530628788283,701283, RC,0,39.9586186,-88.445067899,0,0.0,0.0,0.0,0.0,0.0,0.0,0.0,0.0,0.0,0.0,0.0,0.0,0.0,1500,1500,0.0,0.0,40.0482718333,-88.2330566667,0.0,0.0,0.0,0.0,0.0,0.0,0.0,0.0,0.0,0.0,0.0,0,0.0,0.0,0.0,0.0,90.0,90.0,90.0,88.6174697876,88.681137085,88.8721160889,25.540000915500002,15.7553100586,3.1800000668,0,2,25,1,154,85
31,1530628788334,701334, RC,0,39.9586186,-88.445067899,0,0.0,0.0,0.0,0.0,0.0,0.0,0.0,0.0,0.0,0.0,0.0,0.0,0.0,1500,1500,0.0,0.0,40.0482718333,-88.2330566667,0.0,0.0,0.0,0.0,0.0,0.0,0.0,0.0,0.0,0.0,0.0,0,0.0,0.0,0.0,0.0,90.0,90.0,90.0,88.6174697876,88.681137085,88.8721160889,25.540000915500002,15.7553100586,3.1800000668,0,2,25,1,151,87
32,1530628788384,701384, RC,0,39.9586186,-88.445067899,0,0.0,0.0,0.0,0.0,0.0,0.0,0.0,0.0,0.0,0.0,0.0,0.0,0.0,1500,1500,0.0,0.0,40.0482718333,-88.2330566667,0.0,0.0,0.0,0.0,0.0,0.0,0.0,0.0,0.0,0.0,0.0,0,0.0,0.0,0.0,0.0,90.0,90.0,90.0,88.6174697876,88.681137085,88.8721160889,25.540000915500002,15.7553100586,3.1800000668,0,2,25,1,174,90
33,1530628788435,701435, RC,0,39.9586186,-88.445067899,0,0.0,0.0,0.0,0.0,0.0,0.0,0.0,0.0,0.0,0.0,0.0,0.0,0.0,1500,1500,0.0,0.0,40.0482718333,-88.2330566667,0.0,0.0,0.0,0.0,0.0,0.0,0.0,0.0,0.0,0.0,0.0,0,0.0,0.0,0.0,0.0,90.0,90.0,90.0,88.6174697876,88.6174697876,88.8721160889,25.540000915500002,15.7553100586,3.1800000668,0,2,25,1,157,92
34,1530628788486,701486, RC,0,39.9586186,-88.445067899,0,0.0,0.0,0.0,0.0,0.0,0.0,0.0,0.0,0.0,0.0,0.0,0.0,0.0,1500,1500,0.0,0.0,40.0482718333,-88.2330566667,0.0,0.0,0.0,0.0,0.0,0.0,0.0,0.0,0.0,0.0,0.0,0,0.0,0.0,0.0,0.0,90.0,90.0,90.0,88.6174697876,88.6174697876,88.8721160889,25.540000915500002,15.7553100586,3.1800000668,0,2,25,1,150,95
35,1530628788536,701536, RC,0,39.9586186,-88.445067899,0,0.0,0.0,0.0,0.0,0.0,0.0,0.0,0.0,0.0,0.0,0.0,0.0,0.0,1500,1500,0.0,0.0,40.0482718333,-88.2330566667,0.0,0.0,0.0,0.0,0.0,0.0,0.0,0.0,0.0,0.0,0.0,0,0.0,0.0,0.0,0.0,90.0,90.0,90.0,88.6174697876,88.55381011959999,88.8721160889,25.540000915500002,15.7553100586,3.1800000668,0,2,25,1,156,97
36,1530628788587,701587, RC,0,39.9586186,-88.445067899,0,0.0,0.0,0.0,0.0,0.0,0.0,0.0,0.0,0.0,0.0,0.0,0.0,0.0,1500,1500,0.0,0.0,40.0482718333,-88.2330566667,0.0,0.0,0.0,0.0,0.0,0.0,0.0,0.0,0.0,0.0,0.0,0,0.0,0.0,0.0,0.0,90.0,90.0,90.0,88.6174697876,88.55381011959999,88.8721160889,25.540000915500002,15.7553100586,3.1800000668,0,2,25,1,162,100
37,1530628788638,701638, RC,0,39.9586186,-88.445067899,0,0.0,0.0,0.0,0.0,0.0,0.0,0.0,0.0,0.0,0.0,0.0,0.0,0.0,1500,1500,0.0,0.0,40.0482718333,-88.2330566667,0.0,0.0,0.0,0.0,0.0,0.0,0.0,0.0,0.0,0.0,0.0,0,0.0,0.0,0.0,0.0,90.0,90.0,90.0,88.6174697876,88.55381011959999,88.8721160889,25.540000915500002,15.7553100586,3.1800000668,0,2,25,1,161,102
38,1530628788688,701688, RC,0,39.9586186,-88.445067899,0,0.0,0.0,0.0,0.0,0.0,0.0,0.0,0.0,0.0,0.0,0.0,0.0,0.0,1500,1500,0.0,0.0,40.0482718333,-88.2330566667,0.0,0.0,0.0,0.0,0.0,0.0,0.0,0.0,0.0,0.0,0.0,0,0.0,0.0,0.0,0.0,90.0,90.0,90.0,88.6174697876,88.4901504517,88.8721160889,25.540000915500002,15.7553100586,3.1800000668,0,2,25,1,153,105
39,1530628788739,701739, RC,0,39.9586186,-88.445067899,0,0.0,0.0,0.0,0.0,0.0,0.0,0.0,0.0,0.0,0.0,0.0,0.0,0.0,1500,1500,0.0,0.0,40.0482718333,-88.2330566667,0.0,0.0,0.0,0.0,0.0,0.0,0.0,0.0,0.0,0.0,0.0,0,0.0,0.0,0.0,0.0,90.0,90.0,90.0,88.6174697876,88.4901504517,88.8721160889,25.540000915500002,15.7506284714,3.4600000381,0,2,25,1,163,107
40,1530628788790,701790, RC,0,39.9586186,-88.445067899,0,0.0,0.0,0.0,0.0,0.0,0.0,0.0,0.0,0.0,0.0,0.0,0.0,0.0,1500,1500,0.0,0.0,40.0482718333,-88.2330566667,0.0,0.0,0.0,0.0,0.0,0.0,0.0,0.0,0.0,0.0,0.0,0,0.0,0.0,0.0,0.0,90.0,90.0,90.0,88.6174697876,88.4901504517,88.8721160889,25.540000915500002,15.7506284714,3.4600000381,0,2,25,1,160,110
41,1530628788841,701841, RC,0,39.9586186,-88.445067899,0,0.0,0.0,0.0,0.0,0.0,0.0,0.0,0.0,0.0,0.0,0.0,0.0,0.0,1500,1500,0.0,0.0,40.0482731667,-88.2330606667,0.0,0.0,0.0,0.0,0.0,0.0,0.0,0.0,0.0,0.0,0.0,0,0.0,0.0,0.0,0.0,90.0,90.0,90.0,88.6174697876,88.4264831543,88.8721160889,25.540000915500002,15.7506284714,3.4600000381,0,2,25,1,177,113
42,1530628788891,701891, RC,0,39.9586186,-88.445067899,0,0.0,0.0,0.0,0.0,0.0,0.0,0.0,0.0,0.0,0.0,0.0,0.0,0.0,1500,1500,0.0,0.0,40.0482731667,-88.2330606667,0.0,0.0,0.0,0.0,0.0,0.0,0.0,0.0,0.0,0.0,0.0,0,0.0,0.0,0.0,0.0,90.0,90.0,90.0,88.6174697876,88.4264831543,88.8721160889,25.540000915500002,15.7506284714,3.4600000381,0,2,25,1,163,115
43,1530628788942,701942, RC,0,39.9586186,-88.445067899,0,0.0,0.0,0.0,0.0,0.0,0.0,0.0,0.0,0.0,0.0,0.0,0.0,0.0,1500,1500,0.0,0.0,40.0482731667,-88.2330606667,0.0,0.0,0.0,0.0,0.0,0.0,0.0,0.0,0.0,0.0,0.0,0,0.0,0.0,0.0,0.0,90.0,90.0,90.0,88.6174697876,88.74479675290002,88.8721160889,25.540000915500002,15.7506284714,3.4600000381,0,2,25,1,158,117
44,1530628788993,701993, RC,0,39.9586186,-88.445067899,0,0.0,0.0,0.0,0.0,0.0,0.0,0.0,0.0,0.0,0.0,0.0,0.0,0.0,1500,1500,0.0,0.0,40.0482731667,-88.2330606667,0.0,0.0,0.0,0.0,0.0,0.0,0.0,0.0,0.0,0.0,0.0,0,0.0,0.0,0.0,0.0,90.0,90.0,90.0,88.6174697876,88.681137085,88.8721160889,25.540000915500002,15.7506284714,3.4600000381,0,2,25,1,155,120
45,1530628789051,702051, RC,0,39.9586186,-88.445067899,0,0.0,0.0,0.0,0.0,0.0,0.0,0.0,0.0,0.0,0.0,0.0,0.0,0.0,1500,1500,0.0,0.0,40.0482731667,-88.2330606667,0.0,0.0,0.0,0.0,0.0,0.0,0.0,0.0,0.0,0.0,0.0,0,0.0,0.0,0.0,0.0,90.0,90.0,90.0,88.6174697876,88.681137085,88.8721160889,25.540000915500002,15.7506284714,3.4600000381,0,2,25,1,160,123
46,1530628789103,702103, RC,0,39.9586186,-88.445067899,0,0.0,0.0,0.0,0.0,0.0,0.0,0.0,0.0,0.0,0.0,0.0,0.0,0.0,1500,1500,0.0,0.0,40.0482731667,-88.2330606667,0.0,0.0,0.0,0.0,0.0,0.0,0.0,0.0,0.0,0.0,0.0,0,0.0,0.0,0.0,0.0,90.0,90.0,90.0,88.6174697876,88.681137085,88.8721160889,26.077999115,15.7506284714,3.4600000381,0,2,25,1,167,125
47,1530628789153,702153, RC,0,39.9586186,-88.445067899,0,0.0,0.0,0.0,0.0,0.0,0.0,0.0,0.0,0.0,0.0,0.0,0.0,0.0,1500,1500,0.0,0.0,40.0482731667,-88.2330606667,0.0,0.0,0.0,0.0,0.0,0.0,0.0,0.0,0.0,0.0,0.0,0,0.0,0.0,0.0,0.0,90.0,90.0,90.0,88.6174697876,88.681137085,88.8721160889,26.077999115,15.7506284714,3.4600000381,0,2,25,1,168,128
48,1530628789204,702204, RC,0,39.9586186,-88.445067899,0,0.0,0.0,0.0,0.0,0.0,0.0,0.0,0.0,0.0,0.0,0.0,0.0,0.0,1500,1500,0.0,0.0,40.0482731667,-88.2330606667,0.0,0.0,0.0,0.0,0.0,0.0,0.0,0.0,0.0,0.0,0.0,0,0.0,0.0,0.0,0.0,90.0,90.0,90.0,88.6174697876,88.6174697876,88.8721160889,26.077999115,15.7506284714,3.4600000381,0,2,25,1,158,130
49,1530628789255,702255, RC,0,39.9586186,-88.445067899,0,0.0,0.0,0.0,0.0,0.0,0.0,0.0,0.0,0.0,0.0,0.0,0.0,0.0,1500,1500,0.0,0.0,40.0482731667,-88.2330606667,0.0,0.0,0.0,0.0,0.0,0.0,0.0,0.0,0.0,0.0,0.0,0,0.0,0.0,0.0,0.0,90.0,90.0,90.0,88.6174697876,88.6174697876,88.8721160889,26.077999115,15.7506284714,3.4600000381,0,2,25,1,165,133
50,1530628789305,702305, RC,0,39.9586186,-88.445067899,0,0.0,0.0,0.0,0.0,0.0,0.0,0.0,0.0,0.0,0.0,0.0,0.0,0.0,1500,1500,0.0,0.0,40.0482731667,-88.2330606667,0.0,0.0,0.0,0.0,0.0,0.0,0.0,0.0,0.0,0.0,0.0,0,0.0,0.0,0.0,0.0,90.0,90.0,90.0,88.6174697876,88.6174697876,88.8721160889,26.077999115,15.7506284714,3.4600000381,0,2,25,1,175,136
51,1530628789356,702356, RC,0,39.9586186,-88.445067899,0,0.0,0.0,0.0,0.0,0.0,0.0,0.0,0.0,0.0,0.0,0.0,0.0,0.0,1500,1500,0.0,0.0,40.0482731667,-88.2330606667,0.0,0.0,0.0,0.0,0.0,0.0,0.0,0.0,0.0,0.0,0.0,0,0.0,0.0,0.0,0.0,90.0,90.0,90.0,88.6174697876,88.6174697876,88.8721160889,26.077999115,15.7506284714,3.4600000381,0,2,25,1,172,138
52,1530628789407,702407, RC,0,39.9586186,-88.445067899,0,0.0,0.0,0.0,0.0,0.0,0.0,0.0,0.0,0.0,0.0,0.0,0.0,0.0,1500,1500,0.0,0.0,40.0482731667,-88.2330606667,0.0,0.0,0.0,0.0,0.0,0.0,0.0,0.0,0.0,0.0,0.0,0,0.0,0.0,0.0,0.0,90.0,90.0,90.0,88.6174697876,88.6174697876,88.8721160889,26.077999115,15.7506284714,3.4600000381,0,2,25,1,163,141
53,1530628789457,702457, RC,0,39.9586186,-88.445067899,0,0.0,0.0,0.0,0.0,0.0,0.0,0.0,0.0,0.0,0.0,0.0,0.0,0.0,1500,1500,0.0,0.0,40.0482731667,-88.2330606667,0.0,0.0,0.0,0.0,0.0,0.0,0.0,0.0,0.0,0.0,0.0,0,0.0,0.0,0.0,0.0,90.0,90.0,90.0,88.6174697876,88.6174697876,88.8721160889,26.077999115,15.7506284714,3.4600000381,0,2,25,1,186,143
54,1530628789508,702508, RC,0,39.9586186,-88.445067899,0,0.0,0.0,0.0,0.0,0.0,0.0,0.0,0.0,0.0,0.0,0.0,0.0,0.0,1500,1500,0.0,0.0,40.0482731667,-88.2330606667,0.0,0.0,0.0,0.0,0.0,0.0,0.0,0.0,0.0,0.0,0.0,0,0.0,0.0,0.0,0.0,90.0,90.0,90.0,88.6174697876,88.55381011959999,88.8721160889,26.077999115,15.7506284714,3.4600000381,0,2,25,1,168,145
55,1530628789559,702559, RC,0,39.9586186,-88.445067899,0,0.0,0.0,0.0,0.0,0.0,0.0,0.0,0.0,0.0,0.0,0.0,0.0,0.0,1500,1500,0.0,0.0,40.0482731667,-88.2330606667,0.0,0.0,0.0,0.0,0.0,0.0,0.0,0.0,0.0,0.0,0.0,0,0.0,0.0,0.0,0.0,90.0,90.0,90.0,88.6174697876,88.55381011959999,88.8721160889,26.077999115,15.7506284714,3.4600000381,0,2,25,1,166,148
56,1530628789609,702609, RC,0,39.9586186,-88.445067899,0,0.0,0.0,0.0,0.0,0.0,0.0,0.0,0.0,0.0,0.0,0.0,0.0,0.0,1500,1500,0.0,0.0,40.0482731667,-88.2330606667,0.0,0.0,0.0,0.0,0.0,0.0,0.0,0.0,0.0,0.0,0.0,0,0.0,0.0,0.0,0.0,90.0,90.0,90.0,88.6174697876,88.55381011959999,88.8721160889,26.077999115,15.7506284714,3.4600000381,0,2,25,1,174,150
57,1530628789660,702660, RC,0,39.9586186,-88.445067899,0,0.0,0.0,0.0,0.0,0.0,0.0,0.0,0.0,0.0,0.0,0.0,0.0,0.0,1500,1500,0.0,0.0,40.0482731667,-88.2330606667,0.0,0.0,0.0,0.0,0.0,0.0,0.0,0.0,0.0,0.0,0.0,0,0.0,0.0,0.0,0.0,90.0,90.0,90.0,88.6174697876,88.55381011959999,88.8721160889,26.077999115,15.7506284714,3.4600000381,0,2,25,1,172,152
58,1530628789711,702711, RC,0,39.9586186,-88.445067899,0,0.0,0.0,0.0,0.0,0.0,0.0,0.0,0.0,0.0,0.0,0.0,0.0,0.0,1500,1500,0.0,0.0,40.0482731667,-88.2330606667,0.0,0.0,0.0,0.0,0.0,0.0,0.0,0.0,0.0,0.0,0.0,0,0.0,0.0,0.0,0.0,90.0,90.0,90.0,88.6174697876,88.55381011959999,88.8721160889,26.077999115,15.751083374,3.5699999332,0,2,25,1,150,155
59,1530628789761,702761, RC,0,39.9586186,-88.445067899,0,0.0,0.0,0.0,0.0,0.0,0.0,0.0,0.0,0.0,0.0,0.0,0.0,0.0,1500,1500,0.0,0.0,40.0482731667,-88.2330606667,0.0,0.0,0.0,0.0,0.0,0.0,0.0,0.0,0.0,0.0,0.0,0,0.0,0.0,0.0,0.0,90.0,90.0,90.0,88.6174697876,88.55381011959999,88.8721160889,26.077999115,15.751083374,3.5699999332,0,2,25,1,173,157
60,1530628789812,702812, RC,0,39.9586186,-88.445067899,0,0.0,0.0,0.0,0.0,0.0,0.0,0.0,0.0,0.0,0.0,0.0,0.0,0.0,1500,1500,0.0,0.0,40.0482731667,-88.2330606667,0.0,0.0,0.0,0.0,0.0,0.0,0.0,0.0,0.0,0.0,0.0,0,0.0,0.0,0.0,0.0,90.0,90.0,90.0,88.6174697876,88.55381011959999,88.8721160889,26.077999115,15.751083374,3.5699999332,0,2,25,1,178,159
61,1530628789862,702862, RC,0,39.9586186,-88.445067899,0,0.0,0.0,0.0,0.0,0.0,0.0,0.0,0.0,0.0,0.0,0.0,0.0,0.0,1500,1500,0.0,0.0,40.0482713333,-88.2330636667,0.0,0.0,0.0,0.0,0.0,0.0,0.0,0.0,0.0,0.0,0.0,0,0.0,0.0,0.0,0.0,90.0,90.0,90.0,88.6174697876,88.55381011959999,88.8721160889,26.077999115,15.751083374,3.5699999332,0,2,25,1,176,162
62,1530628789913,702913, RC,0,39.9586186,-88.445067899,0,0.0,0.0,0.0,0.0,0.0,0.0,0.0,0.0,0.0,0.0,0.0,0.0,0.0,1500,1500,0.0,0.0,40.0482713333,-88.2330636667,0.0,0.0,0.0,0.0,0.0,0.0,0.0,0.0,0.0,0.0,0.0,0,0.0,0.0,0.0,0.0,90.0,90.0,90.0,88.6174697876,88.55381011959999,88.8721160889,26.077999115,15.751083374,3.5699999332,0,2,25,1,185,164
63,1530628789964,702964, RC,0,39.9586186,-88.445067899,0,0.0,0.0,0.0,0.0,0.0,0.0,0.0,0.0,0.0,0.0,0.0,0.0,0.0,1500,1500,0.0,0.0,40.0482713333,-88.2330636667,0.0,0.0,0.0,0.0,0.0,0.0,0.0,0.0,0.0,0.0,0.0,0,0.0,0.0,0.0,0.0,90.0,90.0,90.0,88.6174697876,88.55381011959999,88.8721160889,26.077999115,15.751083374,3.5699999332,0,2,25,1,184,166
64,1530628790014,703014, RC,0,39.9586186,-88.445067899,0,0.0,0.0,0.0,0.0,0.0,0.0,0.0,0.0,0.0,0.0,0.0,0.0,0.0,1500,1500,0.0,0.0,40.0482713333,-88.2330636667,0.0,0.0,0.0,0.0,0.0,0.0,0.0,0.0,0.0,0.0,0.0,0,0.0,0.0,0.0,0.0,90.0,90.0,90.0,88.6174697876,88.55381011959999,88.8721160889,26.077999115,15.751083374,3.5699999332,0,2,25,1,186,169
65,1530628790065,703065, RC,0,39.9586186,-88.445067899,0,0.0,0.0,0.0,0.0,0.0,0.0,0.0,0.0,0.0,0.0,0.0,0.0,0.0,1500,1500,0.0,0.0,40.0482713333,-88.2330636667,0.0,0.0,0.0,0.0,0.0,0.0,0.0,0.0,0.0,0.0,0.0,0,0.0,0.0,0.0,0.0,90.0,90.0,90.0,88.6174697876,88.55381011959999,88.8721160889,26.077999115,15.751083374,3.5699999332,0,2,25,1,181,171
66,1530628790116,703116, RC,0,39.9586186,-88.445067899,0,0.0,0.0,0.0,0.0,0.0,0.0,0.0,0.0,0.0,0.0,0.0,0.0,0.0,1500,1500,0.0,0.0,40.0482713333,-88.2330636667,0.0,0.0,0.0,0.0,0.0,0.0,0.0,0.0,0.0,0.0,0.0,0,0.0,0.0,0.0,0.0,90.0,90.0,90.0,88.6174697876,88.55381011959999,88.8721160889,26.077999115,15.751083374,3.5699999332,0,2,25,1,176,173
67,1530628790166,703166, RC,0,39.9586186,-88.445067899,0,0.0,0.0,0.0,0.0,0.0,0.0,0.0,0.0,0.0,0.0,0.0,0.0,0.0,1500,1500,0.0,0.0,40.0482713333,-88.2330636667,0.0,0.0,0.0,0.0,0.0,0.0,0.0,0.0,0.0,0.0,0.0,0,0.0,0.0,0.0,0.0,90.0,90.0,90.0,88.6174697876,88.4901504517,88.8721160889,26.077999115,15.751083374,3.5699999332,0,2,25,1,164,175
68,1530628790217,703217, RC,0,39.9586186,-88.445067899,0,0.0,0.0,0.0,0.0,0.0,0.0,0.0,0.0,0.0,0.0,0.0,0.0,0.0,1500,1500,0.0,0.0,40.0482713333,-88.2330636667,0.0,0.0,0.0,0.0,0.0,0.0,0.0,0.0,0.0,0.0,0.0,0,0.0,0.0,0.0,0.0,90.0,90.0,90.0,88.6174697876,88.55381011959999,88.8721160889,26.077999115,15.751083374,3.5699999332,0,2,25,1,187,178
69,1530628790268,703268, RC,0,39.9586186,-88.445067899,0,0.0,0.0,0.0,0.0,0.0,0.0,0.0,0.0,0.0,0.0,0.0,0.0,0.0,1500,1500,0.0,0.0,40.0482713333,-88.2330636667,0.0,0.0,0.0,0.0,0.0,0.0,0.0,0.0,0.0,0.0,0.0,0,0.0,0.0,0.0,0.0,90.0,90.0,77.0,88.6174697876,88.55381011959999,88.8721160889,26.077999115,15.751083374,3.5699999332,0,2,25,1,173,180
70,1530628790319,703319, RC,0,39.9586186,-88.445067899,0,0.0,0.0,0.0,0.0,0.0,0.0,0.0,0.0,0.0,0.0,0.0,0.0,0.0,1500,1500,0.0,0.0,40.0482713333,-88.2330636667,0.0,0.0,0.0,0.0,0.0,0.0,0.0,0.0,0.0,0.0,0.0,0,0.0,0.0,0.0,0.0,90.0,90.0,77.0,88.6174697876,88.55381011959999,88.8721160889,26.077999115,15.751083374,3.5699999332,0,2,25,1,182,183
71,1530628790369,703369, RC,0,39.9586186,-88.445067899,0,0.0,0.0,0.0,0.0,0.0,0.0,0.0,0.0,0.0,0.0,0.0,0.0,0.0,1500,1500,0.0,0.0,40.0482713333,-88.2330636667,0.0,0.0,0.0,0.0,0.0,0.0,0.0,0.0,0.0,0.0,0.0,0,0.0,0.0,0.0,0.0,90.0,90.0,72.0,88.6174697876,88.55381011959999,97.08451080319999,26.077999115,15.751083374,3.5699999332,0,2,25,1,151,185
72,1530628790420,703420, RC,0,39.9586186,-88.445067899,0,0.0,0.0,0.0,0.0,0.0,0.0,0.0,0.0,0.0,0.0,0.0,0.0,0.0,1500,1500,0.0,0.0,40.0482713333,-88.2330636667,0.0,0.0,0.0,0.0,0.0,0.0,0.0,0.0,0.0,0.0,0.0,0,0.0,0.0,0.0,0.0,90.0,90.0,72.0,88.6174697876,88.55381011959999,103.7053604126,26.077999115,15.751083374,3.5699999332,0,2,25,1,171,187
73,1530628790471,703471, RC,0,39.9586186,-88.445067899,0,0.0,0.0,0.0,0.0,0.0,0.0,0.0,0.0,0.0,0.0,0.0,0.0,0.0,1500,1500,0.0,0.0,40.0482713333,-88.2330636667,0.0,0.0,0.0,0.0,0.0,0.0,0.0,0.0,0.0,0.0,0.0,0,0.0,0.0,0.0,0.0,90.0,90.0,69.0,88.6174697876,88.55381011959999,103.8963470459,26.077999115,15.751083374,3.5699999332,0,2,25,1,215,190
74,1530628790522,703522, RC,0,39.9586186,-88.445067899,0,0.0,0.0,0.0,0.0,0.0,0.0,0.0,0.0,0.0,0.0,0.0,0.0,0.0,1500,1500,0.0,0.0,40.0482713333,-88.2330636667,0.0,0.0,0.0,0.0,0.0,0.0,0.0,0.0,0.0,0.0,0.0,0,0.0,0.0,0.0,0.0,90.0,90.0,69.0,88.6174697876,88.55381011959999,107.14310455319999,26.077999115,15.751083374,3.5699999332,0,2,25,1,210,192
75,1530628790572,703572, RC,0,39.9586186,-88.445067899,0,0.0,0.0,0.0,0.0,0.0,0.0,0.0,0.0,0.0,0.0,0.0,0.0,0.0,1500,1500,0.0,0.0,40.0482713333,-88.2330636667,0.0,0.0,0.0,0.0,0.0,0.0,0.0,0.0,0.0,0.0,0.0,0,0.0,0.0,0.0,0.0,90.0,90.0,69.0,88.6174697876,88.55381011959999,108.352684021,26.077999115,15.751083374,3.5699999332,0,2,25,1,214,194
76,1530628790629,703629, RC,0,39.9586186,-88.445067899,0,0.0,0.0,0.0,0.0,0.0,0.0,0.0,0.0,0.0,0.0,0.0,0.0,0.0,1500,1500,0.0,0.0,40.0482713333,-88.2330636667,0.0,0.0,0.0,0.0,0.0,0.0,0.0,0.0,0.0,0.0,0.0,0,0.0,0.0,0.0,0.0,90.0,90.0,69.0,88.6174697876,88.55381011959999,110.3898620605,26.077999115,15.751083374,3.5699999332,0,2,25,1,147,197
77,1530628790680,703680, RC,0,39.9586186,-88.445067899,0,0.0,0.0,0.0,0.0,0.0,0.0,0.0,0.0,0.0,0.0,0.0,0.0,0.0,1500,1500,0.0,0.0,40.0482713333,-88.2330636667,0.0,0.0,0.0,0.0,0.0,0.0,0.0,0.0,0.0,0.0,0.0,0,0.0,0.0,0.0,0.0,90.0,90.0,67.0,88.6174697876,88.55381011959999,110.3898620605,26.077999115,15.751083374,3.5699999332,0,2,25,1,128,199
78,1530628790730,703730, RC,0,39.9586186,-88.445067899,0,0.0,0.0,0.0,0.0,0.0,0.0,0.0,0.0,0.0,0.0,0.0,0.0,0.0,1500,1500,0.0,0.0,40.0482713333,-88.2330636667,0.0,0.0,0.0,0.0,0.0,0.0,0.0,0.0,0.0,0.0,0.0,0,0.0,0.0,0.0,0.0,90.0,90.0,67.0,88.6174697876,88.55381011959999,110.3898620605,26.077999115,15.751302719100002,3.0700001717000003,0,2,25,1,79,202
79,1530628790781,703781, RC,0,39.9586186,-88.445067899,0,0.0,0.0,0.0,0.0,0.0,0.0,0.0,0.0,0.0,0.0,0.0,0.0,0.0,1500,1500,0.0,0.0,40.0482713333,-88.2330636667,0.0,0.0,0.0,0.0,0.0,0.0,0.0,0.0,0.0,0.0,0.0,0,0.0,0.0,0.0,0.0,90.0,90.0,67.0,88.8721160889,88.55381011959999,110.8991622925,26.077999115,15.751302719100002,3.0700001717000003,0,2,25,1,81,204
80,1530628790831,703831, RC,0,39.9586186,-88.445067899,0,0.0,0.0,0.0,0.0,0.0,0.0,0.0,0.0,0.0,0.0,0.0,0.0,0.0,1500,1500,0.0,0.0,40.048261,-88.2330665,0.0,0.0,0.0,0.0,0.0,0.0,0.0,0.0,0.0,0.0,0.0,0,0.0,0.0,0.0,0.0,90.0,90.0,67.0,88.8721160889,88.55381011959999,111.726776123,26.077999115,15.751302719100002,3.0700001717000003,0,2,25,1,67,206
81,1530628790882,703882, RC,0,39.9586186,-88.445067899,0,0.0,0.0,0.0,0.0,0.0,0.0,0.0,0.0,0.0,0.0,0.0,0.0,0.0,1500,1500,0.0,0.0,40.048261,-88.2330665,0.0,0.0,0.0,0.0,0.0,0.0,0.0,0.0,0.0,0.0,0.0,0,0.0,0.0,0.0,0.0,90.0,90.0,67.0,88.8721160889,88.55381011959999,111.6631088257,26.077999115,15.751302719100002,3.0700001717000003,0,2,25,1,101,209
82,1530628790933,703933, RC,0,39.9586186,-88.445067899,0,0.0,0.0,0.0,0.0,0.0,0.0,0.0,0.0,0.0,0.0,0.0,0.0,0.0,1500,1500,0.0,0.0,40.048261,-88.2330665,0.0,0.0,0.0,0.0,0.0,0.0,0.0,0.0,0.0,0.0,0.0,0,0.0,0.0,0.0,0.0,90.0,90.0,67.0,88.93578338620001,88.55381011959999,111.6631088257,26.077999115,15.751302719100002,3.0700001717000003,0,2,25,1,100,211
83,1530628790983,703983, RC,0,39.9586186,-88.445067899,0,0.0,0.0,0.0,0.0,0.0,0.0,0.0,0.0,0.0,0.0,0.0,0.0,0.0,1500,1500,0.0,0.0,40.048261,-88.2330665,0.0,0.0,0.0,0.0,0.0,0.0,0.0,0.0,0.0,0.0,0.0,0,0.0,0.0,0.0,0.0,90.0,90.0,67.0,88.93578338620001,88.55381011959999,111.6631088257,26.077999115,15.751302719100002,3.0700001717000003,0,2,25,1,113,213
84,1530628791034,704034, RC,0,39.9586186,-88.445067899,0,0.0,0.0,0.0,0.0,0.0,0.0,0.0,0.0,0.0,0.0,0.0,0.0,0.0,1500,1500,0.0,0.0,40.048261,-88.2330665,0.0,0.0,0.0,0.0,0.0,0.0,0.0,0.0,0.0,0.0,0.0,0,0.0,0.0,0.0,0.0,90.0,90.0,67.0,88.8721160889,88.55381011959999,111.6631088257,26.077999115,15.751302719100002,3.0700001717000003,0,2,25,1,101,215
85,1530628791085,704085, RC,0,39.9586186,-88.445067899,0,0.0,0.0,0.0,0.0,0.0,0.0,0.0,0.0,0.0,0.0,0.0,0.0,0.0,1500,1500,0.0,0.0,40.048261,-88.2330665,0.0,0.0,0.0,0.0,0.0,0.0,0.0,0.0,0.0,0.0,0.0,0,0.0,0.0,0.0,0.0,90.0,90.0,67.0,88.8721160889,88.4901504517,111.6631088257,26.077999115,15.751302719100002,3.0700001717000003,0,2,25,1,111,218
86,1530628791135,704135, RC,0,39.9586186,-88.445067899,0,0.0,0.0,0.0,0.0,0.0,0.0,0.0,0.0,0.0,0.0,0.0,0.0,0.0,1500,1500,0.0,0.0,40.048261,-88.2330665,0.0,0.0,0.0,0.0,0.0,0.0,0.0,0.0,0.0,0.0,0.0,0,0.0,0.0,0.0,0.0,90.0,90.0,67.0,88.8721160889,88.4901504517,111.6631088257,26.077999115,15.751302719100002,3.0700001717000003,0,2,25,1,109,220
87,1530628791186,704186, RC,0,39.9586186,-88.445067899,0,0.0,0.0,0.0,0.0,0.0,0.0,0.0,0.0,0.0,0.0,0.0,0.0,0.0,1500,1500,0.0,0.0,40.048261,-88.2330665,0.0,0.0,0.0,0.0,0.0,0.0,0.0,0.0,0.0,0.0,0.0,0,0.0,0.0,0.0,0.0,90.0,90.0,67.0,88.8721160889,88.4901504517,111.6631088257,26.077999115,15.751302719100002,3.0700001717000003,0,2,25,1,99,222
88,1530628791237,704237, RC,0,39.9586186,-88.445067899,0,0.0,0.0,0.0,0.0,0.0,0.0,0.0,0.0,0.0,0.0,0.0,0.0,0.0,1500,1500,0.0,0.0,40.048261,-88.2330665,0.0,0.0,0.0,0.0,0.0,0.0,0.0,0.0,0.0,0.0,0.0,0,0.0,0.0,0.0,0.0,90.0,90.0,67.0,88.8721160889,88.4901504517,111.6631088257,26.077999115,15.751302719100002,3.0700001717000003,0,2,25,1,99,225
89,1530628791287,704287, RC,0,39.9586186,-88.445067899,0,0.0,0.0,0.0,0.0,0.0,0.0,0.0,0.0,0.0,0.0,0.0,0.0,0.0,1500,1500,0.0,0.0,40.048261,-88.2330665,0.0,0.0,0.0,0.0,0.0,0.0,0.0,0.0,0.0,0.0,0.0,0,0.0,0.0,0.0,0.0,90.0,90.0,67.0,88.8721160889,88.4901504517,111.6631088257,26.077999115,15.751302719100002,3.0700001717000003,0,2,25,1,96,227
90,1530628791338,704338, RC,0,39.9586186,-88.445067899,0,0.0,0.0,0.0,0.0,0.0,0.0,0.0,0.0,0.0,0.0,0.0,0.0,0.0,1500,1500,0.0,0.0,40.048261,-88.2330665,0.0,0.0,0.0,0.0,0.0,0.0,0.0,0.0,0.0,0.0,0.0,0,0.0,0.0,0.0,0.0,90.0,90.0,67.0,88.8721160889,88.4901504517,111.6631088257,26.077999115,15.751302719100002,3.0700001717000003,0,2,25,1,96,229
91,1530628791388,704388, RC,0,39.9586186,-88.445067899,0,0.0,0.0,0.0,0.0,0.0,0.0,0.0,0.0,0.0,0.0,0.0,0.0,0.0,1500,1500,0.0,0.0,40.048261,-88.2330665,0.0,0.0,0.0,0.0,0.0,0.0,0.0,0.0,0.0,0.0,0.0,0,0.0,0.0,0.0,0.0,90.0,90.0,67.0,88.8721160889,88.4901504517,111.6631088257,26.077999115,15.751302719100002,3.0700001717000003,0,2,25,1,95,232
92,1530628791439,704439, RC,0,39.9586186,-88.445067899,0,0.0,0.0,0.0,0.0,0.0,0.0,0.0,0.0,0.0,0.0,0.0,0.0,0.0,1500,1500,0.0,0.0,40.048261,-88.2330665,0.0,0.0,0.0,0.0,0.0,0.0,0.0,0.0,0.0,0.0,0.0,0,0.0,0.0,0.0,0.0,90.0,90.0,67.0,88.8721160889,88.4901504517,111.5994415283,26.077999115,15.751302719100002,3.0700001717000003,0,2,25,1,100,234
93,1530628791490,704490, RC,0,39.9586186,-88.445067899,0,0.0,0.0,0.0,0.0,0.0,0.0,0.0,0.0,0.0,0.0,0.0,0.0,0.0,1500,1500,0.0,0.0,40.048261,-88.2330665,0.0,0.0,0.0,0.0,0.0,0.0,0.0,0.0,0.0,0.0,0.0,0,0.0,0.0,0.0,0.0,90.0,90.0,67.0,88.8721160889,88.4901504517,111.5994415283,26.077999115,15.751302719100002,3.0700001717000003,0,2,25,1,93,236
94,1530628791540,704540, RC,0,39.9586186,-88.445067899,0,0.0,0.0,0.0,0.0,0.0,0.0,0.0,0.0,0.0,0.0,0.0,0.0,0.0,1500,1500,0.0,0.0,40.048261,-88.2330665,0.0,0.0,0.0,0.0,0.0,0.0,0.0,0.0,0.0,0.0,0.0,0,0.0,0.0,0.0,0.0,90.0,90.0,67.0,88.8721160889,88.4901504517,111.5994415283,26.077999115,15.751302719100002,3.0700001717000003,0,2,25,1,103,238
95,1530628791591,704591, RC,0,39.9586186,-88.445067899,0,0.0,0.0,0.0,0.0,0.0,0.0,0.0,0.0,0.0,0.0,0.0,0.0,0.0,1500,1500,0.0,0.0,40.048261,-88.2330665,0.0,0.0,0.0,0.0,0.0,0.0,0.0,0.0,0.0,0.0,0.0,0,0.0,0.0,0.0,0.0,90.0,90.0,67.0,88.8721160889,88.4901504517,111.5994415283,26.077999115,15.751302719100002,3.0700001717000003,0,2,25,1,99,241
96,1530628791641,704641, RC,0,39.9586186,-88.445067899,0,0.0,0.0,0.0,0.0,0.0,0.0,0.0,0.0,0.0,0.0,0.0,0.0,0.0,1500,1500,0.0,0.0,40.048261,-88.2330665,0.0,0.0,0.0,0.0,0.0,0.0,0.0,0.0,0.0,0.0,0.0,0,0.0,0.0,0.0,0.0,90.0,90.0,67.0,88.8721160889,88.4901504517,111.5994415283,26.077999115,15.751302719100002,3.0700001717000003,0,2,25,1,66,243
97,1530628791692,704692, RC,0,39.9586186,-88.445067899,0,0.0,0.0,0.0,0.0,0.0,0.0,0.0,0.0,0.0,0.0,0.0,0.0,0.0,1500,1500,0.0,0.0,40.048261,-88.2330665,0.0,0.0,0.0,0.0,0.0,0.0,0.0,0.0,0.0,0.0,0.0,0,0.0,0.0,0.0,0.0,90.0,90.0,67.0,88.8721160889,88.4901504517,111.5994415283,26.077999115,15.751302719100002,3.0700001717000003,0,2,25,1,78,245
98,1530628791743,704743, RC,0,39.9586186,-88.445067899,0,0.0,0.0,0.0,0.0,0.0,0.0,0.0,0.0,0.0,0.0,0.0,0.0,0.0,1500,1500,0.0,0.0,40.048261,-88.2330665,0.0,0.0,0.0,0.0,0.0,0.0,0.0,0.0,0.0,0.0,0.0,0,0.0,0.0,0.0,0.0,90.0,90.0,67.0,88.8721160889,88.4901504517,111.5994415283,26.077999115,15.7518138885,3.3499999045999997,0,2,25,1,59,248
99,1530628791793,704793, RC,0,39.9586186,-88.445067899,0,0.0,0.0,0.0,0.0,0.0,0.0,0.0,0.0,0.0,0.0,0.0,0.0,0.0,1500,1500,0.0,0.0,40.048261,-88.2330665,0.0,0.0,0.0,0.0,0.0,0.0,0.0,0.0,0.0,0.0,0.0,0,0.0,0.0,0.0,0.0,90.0,90.0,67.0,88.8721160889,88.4901504517,111.5994415283,26.077999115,15.7518138885,3.3499999045999997,0,2,25,1,55,250
100,1530628791844,704844, RC,0,39.9586186,-88.445067899,0,0.0,0.0,0.0,0.0,0.0,0.0,0.0,0.0,0.0,0.0,0.0,0.0,0.0,1500,1500,0.0,0.0,40.0482588333,-88.2330641667,0.0,0.0,0.0,0.0,0.0,0.0,0.0,0.0,0.0,0.0,0.0,0,0.0,0.0,0.0,0.0,90.0,90.0,67.0,88.8721160889,88.4901504517,111.5994415283,26.077999115,15.7518138885,3.3499999045999997,0,2,25,1,59,252
101,1530628791895,704895, RC,0,39.9586186,-88.445067899,0,0.0,0.0,0.0,0.0,0.0,0.0,0.0,0.0,0.0,0.0,0.0,0.0,0.0,1500,1500,0.0,0.0,40.0482588333,-88.2330641667,0.0,0.0,0.0,0.0,0.0,0.0,0.0,0.0,0.0,0.0,0.0,0,0.0,0.0,0.0,0.0,90.0,90.0,67.0,88.8721160889,88.4901504517,111.5994415283,26.077999115,15.7518138885,3.3499999045999997,0,2,25,1,61,255
102,1530628791945,704945, RC,0,39.9586186,-88.445067899,0,0.0,0.0,0.0,0.0,0.0,0.0,0.0,0.0,0.0,0.0,0.0,0.0,0.0,1500,1500,0.0,0.0,40.0482588333,-88.2330641667,0.0,0.0,0.0,0.0,0.0,0.0,0.0,0.0,0.0,0.0,0.0,0,0.0,0.0,0.0,0.0,90.0,90.0,67.0,88.8721160889,88.4901504517,111.5994415283,26.077999115,15.7518138885,3.3499999045999997,0,2,25,1,58,257
103,1530628791996,704996, RC,0,39.9586186,-88.445067899,0,0.0,0.0,0.0,0.0,0.0,0.0,0.0,0.0,0.0,0.0,0.0,0.0,0.0,1500,1500,0.0,0.0,40.0482588333,-88.2330641667,0.0,0.0,0.0,0.0,0.0,0.0,0.0,0.0,0.0,0.0,0.0,0,0.0,0.0,0.0,0.0,90.0,90.0,67.0,88.8721160889,88.4901504517,111.5994415283,26.077999115,15.7518138885,3.3499999045999997,0,2,25,1,61,259
104,1530628792047,705047, RC,0,39.9586186,-88.445067899,0,0.0,0.0,0.0,0.0,0.0,0.0,0.0,0.0,0.0,0.0,0.0,0.0,0.0,1500,1500,0.0,0.0,40.0482588333,-88.2330641667,0.0,0.0,0.0,0.0,0.0,0.0,0.0,0.0,0.0,0.0,0.0,0,0.0,0.0,0.0,0.0,90.0,90.0,67.0,88.8721160889,88.4901504517,111.5994415283,26.077999115,15.7518138885,3.3499999045999997,0,2,25,1,58,262
105,1530628792097,705097, RC,0,39.9586186,-88.445067899,0,0.0,0.0,0.0,0.0,0.0,0.0,0.0,0.0,0.0,0.0,0.0,0.0,0.0,1500,1500,0.0,0.0,40.0482588333,-88.2330641667,0.0,0.0,0.0,0.0,0.0,0.0,0.0,0.0,0.0,0.0,0.0,0,0.0,0.0,0.0,0.0,90.0,90.0,67.0,88.8721160889,88.4901504517,111.5994415283,26.077999115,15.7518138885,3.3499999045999997,0,2,25,1,58,264
106,1530628792148,705148, RC,0,39.9586186,-88.445067899,0,0.0,0.0,0.0,0.0,0.0,0.0,0.0,0.0,0.0,0.0,0.0,0.0,0.0,1500,1500,0.0,0.0,40.0482588333,-88.2330641667,0.0,0.0,0.0,0.0,0.0,0.0,0.0,0.0,0.0,0.0,0.0,0,0.0,0.0,0.0,0.0,90.0,90.0,67.0,88.8721160889,88.4901504517,111.5994415283,26.077999115,15.7518138885,3.3499999045999997,0,2,25,1,52,266
107,1530628792199,705199, RC,0,39.9586186,-88.445067899,0,0.0,0.0,0.0,0.0,0.0,0.0,0.0,0.0,0.0,0.0,0.0,0.0,0.0,1500,1500,0.0,0.0,40.0482588333,-88.2330641667,0.0,0.0,0.0,0.0,0.0,0.0,0.0,0.0,0.0,0.0,0.0,0,0.0,0.0,0.0,0.0,90.0,90.0,67.0,88.8721160889,88.4901504517,111.5994415283,26.077999115,15.7518138885,3.3499999045999997,0,2,25,1,52,269
108,1530628792249,705249, RC,0,39.9586186,-88.445067899,0,0.0,0.0,0.0,0.0,0.0,0.0,0.0,0.0,0.0,0.0,0.0,0.0,0.0,1500,1500,0.0,0.0,40.0482588333,-88.2330641667,0.0,0.0,0.0,0.0,0.0,0.0,0.0,0.0,0.0,0.0,0.0,0,0.0,0.0,0.0,0.0,90.0,90.0,67.0,88.8721160889,88.4901504517,111.5994415283,26.077999115,15.7518138885,3.3499999045999997,0,2,25,1,60,271
109,1530628792300,705300, RC,0,39.9586186,-88.445067899,0,0.0,0.0,0.0,0.0,0.0,0.0,0.0,0.0,0.0,0.0,0.0,0.0,0.0,1500,1500,0.0,0.0,40.0482588333,-88.2330641667,0.0,0.0,0.0,0.0,0.0,0.0,0.0,0.0,0.0,0.0,0.0,0,0.0,0.0,0.0,0.0,90.0,90.0,67.0,88.8721160889,88.4901504517,111.5994415283,26.077999115,15.7518138885,3.3499999045999997,0,2,25,1,52,273
110,1530628792350,705350, RC,0,39.9586186,-88.445067899,0,0.0,0.0,0.0,0.0,0.0,0.0,0.0,0.0,0.0,0.0,0.0,0.0,0.0,1500,1500,0.0,0.0,40.0482588333,-88.2330641667,0.0,0.0,0.0,0.0,0.0,0.0,0.0,0.0,0.0,0.0,0.0,0,0.0,0.0,0.0,0.0,90.0,90.0,67.0,88.8721160889,88.4901504517,111.5994415283,26.077999115,15.7518138885,3.3499999045999997,0,2,25,1,54,275
111,1530628792401,705401, RC,0,39.9586186,-88.445067899,0,0.0,0.0,0.0,0.0,0.0,0.0,0.0,0.0,0.0,0.0,0.0,0.0,0.0,1500,1500,0.0,0.0,40.0482588333,-88.2330641667,0.0,0.0,0.0,0.0,0.0,0.0,0.0,0.0,0.0,0.0,0.0,0,0.0,0.0,0.0,0.0,90.0,90.0,67.0,88.8721160889,88.4901504517,111.5994415283,26.077999115,15.7518138885,3.3499999045999997,0,2,25,1,60,278
112,1530628792451,705451, RC,0,39.9586186,-88.445067899,0,0.0,0.0,0.0,0.0,0.0,0.0,0.0,0.0,0.0,0.0,0.0,0.0,0.0,1500,1500,0.0,0.0,40.0482588333,-88.2330641667,0.0,0.0,0.0,0.0,0.0,0.0,0.0,0.0,0.0,0.0,0.0,0,0.0,0.0,0.0,0.0,90.0,90.0,67.0,88.8721160889,88.4901504517,111.5994415283,26.077999115,15.7518138885,3.3499999045999997,0,2,25,1,55,280
113,1530628792502,705502, RC,0,39.9586186,-88.445067899,0,0.0,0.0,0.0,0.0,0.0,0.0,0.0,0.0,0.0,0.0,0.0,0.0,0.0,1500,1500,0.0,0.0,40.0482588333,-88.2330641667,0.0,0.0,0.0,0.0,0.0,0.0,0.0,0.0,0.0,0.0,0.0,0,0.0,0.0,0.0,0.0,90.0,90.0,67.0,88.8721160889,88.4901504517,111.5994415283,26.077999115,15.7518138885,3.3499999045999997,0,2,25,1,44,282
114,1530628792553,705553, RC,0,39.9586186,-88.445067899,0,0.0,0.0,0.0,0.0,0.0,0.0,0.0,0.0,0.0,0.0,0.0,0.0,0.0,1500,1500,0.0,0.0,40.0482588333,-88.2330641667,0.0,0.0,0.0,0.0,0.0,0.0,0.0,0.0,0.0,0.0,0.0,0,0.0,0.0,0.0,0.0,90.0,90.0,67.0,88.8721160889,88.4901504517,111.5994415283,26.077999115,15.7518138885,3.3499999045999997,0,2,25,1,57,285
115,1530628792603,705603, RC,0,39.9586186,-88.445067899,0,0.0,0.0,0.0,0.0,0.0,0.0,0.0,0.0,0.0,0.0,0.0,0.0,0.0,1500,1500,0.0,0.0,40.0482588333,-88.2330641667,0.0,0.0,0.0,0.0,0.0,0.0,0.0,0.0,0.0,0.0,0.0,0,0.0,0.0,0.0,0.0,90.0,90.0,55.0,88.8721160889,88.4901504517,111.5994415283,26.077999115,15.7518138885,3.3499999045999997,0,2,25,1,47,287
116,1530628792654,705654, RC,0,39.9586186,-88.445067899,0,0.0,0.0,0.0,0.0,0.0,0.0,0.0,0.0,0.0,0.0,0.0,0.0,0.0,1500,1500,0.0,0.0,40.0482588333,-88.2330641667,0.0,0.0,0.0,0.0,0.0,0.0,0.0,0.0,0.0,0.0,0.0,0,0.0,0.0,0.0,0.0,90.0,90.0,55.0,88.8721160889,88.4901504517,116.81973266600001,26.077999115,15.7518138885,3.3499999045999997,0,2,25,1,53,289
117,1530628792704,705704, RC,0,39.9586186,-88.445067899,0,0.0,0.0,0.0,0.0,0.0,0.0,0.0,0.0,0.0,0.0,0.0,0.0,0.0,1500,1500,0.0,0.0,40.0482588333,-88.2330641667,0.0,0.0,0.0,0.0,0.0,0.0,0.0,0.0,0.0,0.0,0.0,0,0.0,0.0,0.0,0.0,90.0,90.0,55.0,88.8721160889,88.4901504517,125.1594467163,26.077999115,15.7471828461,3.4600000381,0,2,25,1,18,292
118,1530628792755,705755, RC,0,39.9586186,-88.445067899,0,0.0,0.0,0.0,0.0,0.0,0.0,0.0,0.0,0.0,0.0,0.0,0.0,0.0,1500,1500,0.0,0.0,40.0482588333,-88.2330641667,0.0,0.0,0.0,0.0,0.0,0.0,0.0,0.0,0.0,0.0,0.0,0,0.0,0.0,0.0,0.0,90.0,90.0,55.0,88.8721160889,88.4901504517,125.1594467163,26.077999115,15.7471828461,3.4600000381,0,2,25,1,66,294
119,1530628792806,705806, RC,0,39.9586186,-88.445067899,0,0.0,0.0,0.0,0.0,0.0,0.0,0.0,0.0,0.0,0.0,0.0,0.0,0.0,1500,1500,0.0,0.0,40.0482588333,-88.2330641667,0.0,0.0,0.0,0.0,0.0,0.0,0.0,0.0,0.0,0.0,0.0,0,0.0,0.0,0.0,0.0,90.0,90.0,49.0,88.8721160889,88.4901504517,125.1594467163,26.077999115,15.7471828461,3.4600000381,0,2,25,1,87,297
120,1530628792856,705856, RC,0,39.9586186,-88.445067899,0,0.0,0.0,0.0,0.0,0.0,0.0,0.0,0.0,0.0,0.0,0.0,0.0,0.0,1500,1500,0.0,0.0,40.0482605,-88.2330691667,0.0,0.0,0.0,0.0,0.0,0.0,0.0,0.0,0.0,0.0,0.0,0,0.0,0.0,0.0,0.0,90.0,90.0,49.0,88.8721160889,88.4901504517,125.1594467163,26.077999115,15.7471828461,3.4600000381,0,2,25,1,93,299
121,1530628792907,705907, RC,0,39.9586186,-88.445067899,0,0.0,0.0,0.0,0.0,0.0,0.0,0.0,0.0,0.0,0.0,0.0,0.0,0.0,1500,1500,0.0,0.0,40.0482605,-88.2330691667,0.0,0.0,0.0,0.0,0.0,0.0,0.0,0.0,0.0,0.0,0.0,0,0.0,0.0,0.0,0.0,90.0,90.0,49.0,88.8721160889,88.4901504517,126.4326858521,26.077999115,15.7471828461,3.4600000381,0,2,25,1,85,301
122,1530628792957,705957, RC,0,39.9586186,-88.445067899,0,0.0,0.0,0.0,0.0,0.0,0.0,0.0,0.0,0.0,0.0,0.0,0.0,0.0,1500,1500,0.0,0.0,40.0482605,-88.2330691667,0.0,0.0,0.0,0.0,0.0,0.0,0.0,0.0,0.0,0.0,0.0,0,0.0,0.0,0.0,0.0,90.0,90.0,49.0,88.8084564209,88.4901504517,128.9791564941,26.077999115,15.7471828461,3.4600000381,0,2,25,1,74,304
123,1530628793008,706008, RC,0,39.9586186,-88.445067899,0,0.0,0.0,0.0,0.0,0.0,0.0,0.0,0.0,0.0,0.0,0.0,0.0,0.0,1500,1500,0.0,0.0,40.0482605,-88.2330691667,0.0,0.0,0.0,0.0,0.0,0.0,0.0,0.0,0.0,0.0,0.0,0,0.0,0.0,0.0,0.0,90.0,90.0,49.0,88.8084564209,88.4901504517,130.50704956049998,26.077999115,15.7471828461,3.4600000381,0,2,25,1,86,306
124,1530628793059,706059, RC,0,39.9586186,-88.445067899,0,0.0,0.0,0.0,0.0,0.0,0.0,0.0,0.0,0.0,0.0,0.0,0.0,0.0,1500,1500,0.0,0.0,40.0482605,-88.2330691667,0.0,0.0,0.0,0.0,0.0,0.0,0.0,0.0,0.0,0.0,0.0,0,0.0,0.0,0.0,0.0,90.0,90.0,49.0,88.8084564209,88.4901504517,130.50704956049998,26.077999115,15.7471828461,3.4600000381,0,2,25,1,82,308
125,1530628793109,706109, RC,0,39.9586186,-88.445067899,0,0.0,0.0,0.0,0.0,0.0,0.0,0.0,0.0,0.0,0.0,0.0,0.0,0.0,1500,1500,0.0,0.0,40.0482605,-88.2330691667,0.0,0.0,0.0,0.0,0.0,0.0,0.0,0.0,0.0,0.0,0.0,0,0.0,0.0,0.0,0.0,90.0,90.0,40.0,88.8084564209,88.4901504517,130.4433898926,26.077999115,15.7471828461,3.4600000381,0,2,25,1,91,311
126,1530628793160,706160, RC,0,39.9586186,-88.445067899,0,0.0,0.0,0.0,0.0,0.0,0.0,0.0,0.0,0.0,0.0,0.0,0.0,0.0,1500,1500,0.0,0.0,40.0482605,-88.2330691667,0.0,0.0,0.0,0.0,0.0,0.0,0.0,0.0,0.0,0.0,0.0,0,0.0,0.0,0.0,0.0,90.0,90.0,40.0,88.8084564209,88.4901504517,133.8811340332,26.077999115,15.7471828461,3.4600000381,0,2,25,1,98,313
127,1530628793210,706210, RC,0,39.9586186,-88.445067899,0,0.0,0.0,0.0,0.0,0.0,0.0,0.0,0.0,0.0,0.0,0.0,0.0,0.0,1500,1500,0.0,0.0,40.0482605,-88.2330691667,0.0,0.0,0.0,0.0,0.0,0.0,0.0,0.0,0.0,0.0,0.0,0,0.0,0.0,0.0,0.0,90.0,90.0,40.0,88.8084564209,88.4901504517,140.94761657709998,26.077999115,15.7471828461,3.4600000381,0,2,25,1,73,316
128,1530628793261,706261, RC,0,39.9586186,-88.445067899,0,0.0,0.0,0.0,0.0,0.0,0.0,0.0,0.0,0.0,0.0,0.0,0.0,0.0,1500,1500,0.0,0.0,40.0482605,-88.2330691667,0.0,0.0,0.0,0.0,0.0,0.0,0.0,0.0,0.0,0.0,0.0,0,0.0,0.0,0.0,0.0,90.0,90.0,40.0,88.8084564209,88.4901504517,140.8839569092,26.077999115,15.7471828461,3.4600000381,0,2,25,1,85,318
129,1530628793312,706312, RC,0,39.9586186,-88.445067899,0,0.0,0.0,0.0,0.0,0.0,0.0,0.0,0.0,0.0,0.0,0.0,0.0,0.0,1500,1500,0.0,0.0,40.0482605,-88.2330691667,0.0,0.0,0.0,0.0,0.0,0.0,0.0,0.0,0.0,0.0,0.0,0,0.0,0.0,0.0,0.0,90.0,90.0,40.0,88.8084564209,88.4901504517,140.8202972412,26.077999115,15.7471828461,3.4600000381,0,2,25,1,100,320
130,1530628793362,706362, RC,0,39.9586186,-88.445067899,0,0.0,0.0,0.0,0.0,0.0,0.0,0.0,0.0,0.0,0.0,0.0,0.0,0.0,1500,1500,0.0,0.0,40.0482605,-88.2330691667,0.0,0.0,0.0,0.0,0.0,0.0,0.0,0.0,0.0,0.0,0.0,0,0.0,0.0,0.0,0.0,90.0,90.0,40.0,88.8084564209,88.4264831543,140.056350708,26.077999115,15.7471828461,3.4600000381,0,2,25,1,111,322
131,1530628793413,706413, RC,0,39.9586186,-88.445067899,0,0.0,0.0,0.0,0.0,0.0,0.0,0.0,0.0,0.0,0.0,0.0,0.0,0.0,1500,1500,0.0,0.0,40.0482605,-88.2330691667,0.0,0.0,0.0,0.0,0.0,0.0,0.0,0.0,0.0,0.0,0.0,0,0.0,0.0,0.0,0.0,90.0,90.0,40.0,88.8084564209,88.8084564209,139.3560638428,26.077999115,15.7471828461,3.4600000381,0,2,25,1,68,325
132,1530628793464,706464, RC,0,39.9586186,-88.445067899,0,0.0,0.0,0.0,0.0,0.0,0.0,0.0,0.0,0.0,0.0,0.0,0.0,0.0,1500,1500,0.0,0.0,40.0482605,-88.2330691667,0.0,0.0,0.0,0.0,0.0,0.0,0.0,0.0,0.0,0.0,0.0,0,0.0,0.0,0.0,0.0,90.0,90.0,40.0,88.8721160889,88.9994430542,138.59211730959998,26.077999115,15.7471828461,3.4600000381,0,2,25,1,72,327
133,1530628793514,706514, RC,0,39.9586186,-88.445067899,0,0.0,0.0,0.0,0.0,0.0,0.0,0.0,0.0,0.0,0.0,0.0,0.0,0.0,1500,1500,0.0,0.0,40.0482605,-88.2330691667,0.0,0.0,0.0,0.0,0.0,0.0,0.0,0.0,0.0,0.0,0.0,0,0.0,0.0,0.0,0.0,90.0,90.0,40.0,88.8084564209,88.9994430542,138.21014404299999,26.077999115,15.7471828461,3.4600000381,0,2,25,1,81,329
134,1530628793565,706565, RC,0,39.9586186,-88.445067899,0,0.0,0.0,0.0,0.0,0.0,0.0,0.0,0.0,0.0,0.0,0.0,0.0,0.0,1500,1500,0.0,0.0,40.0482605,-88.2330691667,0.0,0.0,0.0,0.0,0.0,0.0,0.0,0.0,0.0,0.0,0.0,0,0.0,0.0,0.0,0.0,90.0,90.0,40.0,88.8084564209,88.9994430542,138.21014404299999,26.077999115,15.7471828461,3.4600000381,0,2,25,1,106,332
135,1530628793616,706616, RC,0,39.9586186,-88.445067899,0,0.0,0.0,0.0,0.0,0.0,0.0,0.0,0.0,0.0,0.0,0.0,0.0,0.0,1500,1500,0.0,0.0,40.0482605,-88.2330691667,0.0,0.0,0.0,0.0,0.0,0.0,0.0,0.0,0.0,0.0,0.0,0,0.0,0.0,0.0,0.0,90.0,90.0,40.0,88.8084564209,88.9994430542,138.21014404299999,26.077999115,15.7471828461,3.4600000381,0,2,25,1,75,334
136,1530628793666,706666, RC,0,39.9586186,-88.445067899,0,0.0,0.0,0.0,0.0,0.0,0.0,0.0,0.0,0.0,0.0,0.0,0.0,0.0,1500,1500,0.0,0.0,40.0482605,-88.2330691667,0.0,0.0,0.0,0.0,0.0,0.0,0.0,0.0,0.0,0.0,0.0,0,0.0,0.0,0.0,0.0,90.0,90.0,40.0,88.8084564209,89.0631027222,138.146484375,26.077999115,15.7471828461,3.4600000381,0,2,25,1,91,336
137,1530628793717,706717, RC,0,39.9586186,-88.445067899,0,0.0,0.0,0.0,0.0,0.0,0.0,0.0,0.0,0.0,0.0,0.0,0.0,0.0,1500,1500,0.0,0.0,40.0482605,-88.2330691667,0.0,0.0,0.0,0.0,0.0,0.0,0.0,0.0,0.0,0.0,0.0,0,0.0,0.0,0.0,0.0,90.0,90.0,40.0,88.8084564209,89.0631027222,138.146484375,26.077999115,15.747540473900001,3.4000000954000003,0,2,25,1,71,339
138,1530628793768,706768, RC,0,39.9586186,-88.445067899,0,0.0,0.0,0.0,0.0,0.0,0.0,0.0,0.0,0.0,0.0,0.0,0.0,0.0,1500,1500,0.0,0.0,40.0482605,-88.2330691667,0.0,0.0,0.0,0.0,0.0,0.0,0.0,0.0,0.0,0.0,0.0,0,0.0,0.0,0.0,0.0,90.0,90.0,40.0,88.8084564209,89.0631027222,138.146484375,26.077999115,15.747540473900001,3.4000000954000003,0,2,25,1,72,341
139,1530628793818,706818, RC,0,39.9586186,-88.445067899,0,0.0,0.0,0.0,0.0,0.0,0.0,0.0,0.0,0.0,0.0,0.0,0.0,0.0,1500,1500,0.0,0.0,40.0482605,-88.2330691667,0.0,0.0,0.0,0.0,0.0,0.0,0.0,0.0,0.0,0.0,0.0,0,0.0,0.0,0.0,0.0,90.0,90.0,40.0,88.8084564209,89.0631027222,138.146484375,26.077999115,15.747540473900001,3.4000000954000003,0,2,25,1,73,343
140,1530628793869,706869, RC,0,39.9586186,-88.445067899,0,0.0,0.0,0.0,0.0,0.0,0.0,0.0,0.0,0.0,0.0,0.0,0.0,0.0,1500,1500,0.0,0.0,40.048261,-88.2330711667,0.0,0.0,0.0,0.0,0.0,0.0,0.0,0.0,0.0,0.0,0.0,0,0.0,0.0,0.0,0.0,90.0,90.0,40.0,88.8084564209,89.0631027222,138.146484375,26.077999115,15.747540473900001,3.4000000954000003,0,2,25,1,72,346
141,1530628793919,706919, RC,0,39.9586186,-88.445067899,0,0.0,0.0,0.0,0.0,0.0,0.0,0.0,0.0,0.0,0.0,0.0,0.0,0.0,1500,1500,0.0,0.0,40.048261,-88.2330711667,0.0,0.0,0.0,0.0,0.0,0.0,0.0,0.0,0.0,0.0,0.0,0,0.0,0.0,0.0,0.0,90.0,90.0,40.0,88.8084564209,88.9994430542,138.146484375,26.077999115,15.747540473900001,3.4000000954000003,0,2,25,1,76,348
142,1530628793970,706970, RC,0,39.9586186,-88.445067899,0,0.0,0.0,0.0,0.0,0.0,0.0,0.0,0.0,0.0,0.0,0.0,0.0,0.0,1500,1500,0.0,0.0,40.048261,-88.2330711667,0.0,0.0,0.0,0.0,0.0,0.0,0.0,0.0,0.0,0.0,0.0,0,0.0,0.0,0.0,0.0,90.0,90.0,40.0,88.8084564209,89.0631027222,138.146484375,26.077999115,15.747540473900001,3.4000000954000003,0,2,25,1,69,350
143,1530628794021,707021, RC,0,39.9586186,-88.445067899,0,0.0,0.0,0.0,0.0,0.0,0.0,0.0,0.0,0.0,0.0,0.0,0.0,0.0,1500,1500,0.0,0.0,40.048261,-88.2330711667,0.0,0.0,0.0,0.0,0.0,0.0,0.0,0.0,0.0,0.0,0.0,0,0.0,0.0,0.0,0.0,90.0,90.0,51.0,88.8084564209,89.0631027222,138.146484375,26.077999115,15.747540473900001,3.4000000954000003,0,2,25,1,84,353
144,1530628794071,707071, RC,0,39.9586186,-88.445067899,0,0.0,0.0,0.0,0.0,0.0,0.0,0.0,0.0,0.0,0.0,0.0,0.0,0.0,1500,1500,0.0,0.0,40.048261,-88.2330711667,0.0,0.0,0.0,0.0,0.0,0.0,0.0,0.0,0.0,0.0,0.0,0,0.0,0.0,0.0,0.0,90.0,90.0,51.0,88.8084564209,89.0631027222,131.2709960938,26.077999115,15.747540473900001,3.4000000954000003,0,2,25,1,64,355
145,1530628794122,707122, RC,0,39.9586186,-88.445067899,0,0.0,0.0,0.0,0.0,0.0,0.0,0.0,0.0,0.0,0.0,0.0,0.0,0.0,1500,1500,0.0,0.0,40.048261,-88.2330711667,0.0,0.0,0.0,0.0,0.0,0.0,0.0,0.0,0.0,0.0,0.0,0,0.0,0.0,0.0,0.0,90.0,90.0,51.0,88.8084564209,89.0631027222,126.7510070801,26.077999115,15.747540473900001,3.4000000954000003,0,2,25,1,51,358
146,1530628794173,707173, RC,0,39.9586186,-88.445067899,0,0.0,0.0,0.0,0.0,0.0,0.0,0.0,0.0,0.0,0.0,0.0,0.0,0.0,1500,1500,0.0,0.0,40.048261,-88.2330711667,0.0,0.0,0.0,0.0,0.0,0.0,0.0,0.0,0.0,0.0,0.0,0,0.0,0.0,0.0,0.0,90.0,90.0,51.0,88.8084564209,89.0631027222,126.49634552,26.077999115,15.747540473900001,3.4000000954000003,0,2,25,1,64,360
147,1530628794223,707223, RC,0,39.9586186,-88.445067899,0,0.0,0.0,0.0,0.0,0.0,0.0,0.0,0.0,0.0,0.0,0.0,0.0,0.0,1500,1500,0.0,0.0,40.048261,-88.2330711667,0.0,0.0,0.0,0.0,0.0,0.0,0.0,0.0,0.0,0.0,0.0,0,0.0,0.0,0.0,0.0,90.0,90.0,51.0,88.8084564209,89.0631027222,126.49634552,26.077999115,15.747540473900001,3.4000000954000003,0,2,25,1,71,362
148,1530628794274,707274, RC,0,39.9586186,-88.445067899,0,0.0,0.0,0.0,0.0,0.0,0.0,0.0,0.0,0.0,0.0,0.0,0.0,0.0,1500,1500,0.0,0.0,40.048261,-88.2330711667,0.0,0.0,0.0,0.0,0.0,0.0,0.0,0.0,0.0,0.0,0.0,0,0.0,0.0,0.0,0.0,90.0,90.0,51.0,88.8084564209,89.0631027222,126.49634552,25.540000915500002,15.747540473900001,3.4000000954000003,0,2,25,1,82,364
149,1530628794325,707325, RC,0,39.9586186,-88.445067899,0,0.0,0.0,0.0,0.0,0.0,0.0,0.0,0.0,0.0,0.0,0.0,0.0,0.0,1500,1500,0.0,0.0,40.048261,-88.2330711667,0.0,0.0,0.0,0.0,0.0,0.0,0.0,0.0,0.0,0.0,0.0,0,0.0,0.0,0.0,0.0,90.0,90.0,51.0,88.8084564209,89.0631027222,126.49634552,25.540000915500002,15.747540473900001,3.4000000954000003,0,2,25,1,67,367
150,1530628794375,707375, RC,0,39.9586186,-88.445067899,0,0.0,0.0,0.0,0.0,0.0,0.0,0.0,0.0,0.0,0.0,0.0,0.0,0.0,1500,1500,0.0,0.0,40.048261,-88.2330711667,0.0,0.0,0.0,0.0,0.0,0.0,0.0,0.0,0.0,0.0,0.0,0,0.0,0.0,0.0,0.0,90.0,90.0,51.0,88.8084564209,89.0631027222,126.56002044680001,25.540000915500002,15.747540473900001,3.4000000954000003,0,2,25,1,86,369
151,1530628794426,707426, RC,0,39.9586186,-88.445067899,0,0.0,0.0,0.0,0.0,0.0,0.0,0.0,0.0,0.0,0.0,0.0,0.0,0.0,1500,1500,0.0,0.0,40.048261,-88.2330711667,0.0,0.0,0.0,0.0,0.0,0.0,0.0,0.0,0.0,0.0,0.0,0,0.0,0.0,0.0,0.0,90.0,90.0,51.0,88.8084564209,89.0631027222,127.5786056519,25.540000915500002,15.747540473900001,3.4000000954000003,0,2,25,1,97,371
152,1530628794477,707477, RC,0,39.9586186,-88.445067899,0,0.0,0.0,0.0,0.0,0.0,0.0,0.0,0.0,0.0,0.0,0.0,0.0,0.0,1500,1500,0.0,0.0,40.048261,-88.2330711667,0.0,0.0,0.0,0.0,0.0,0.0,0.0,0.0,0.0,0.0,0.0,0,0.0,0.0,0.0,0.0,90.0,90.0,51.0,88.8084564209,89.0631027222,127.83324432370001,25.540000915500002,15.747540473900001,3.4000000954000003,0,2,25,1,80,374
153,1530628794527,707527, RC,0,39.9586186,-88.445067899,0,0.0,0.0,0.0,0.0,0.0,0.0,0.0,0.0,0.0,0.0,0.0,0.0,0.0,1500,1500,0.0,0.0,40.048261,-88.2330711667,0.0,0.0,0.0,0.0,0.0,0.0,0.0,0.0,0.0,0.0,0.0,0,0.0,0.0,0.0,0.0,90.0,90.0,51.0,88.8084564209,89.0631027222,127.83324432370001,25.540000915500002,15.747540473900001,3.4000000954000003,0,2,25,1,88,376
154,1530628794578,707578, RC,0,39.9586186,-88.445067899,0,0.0,0.0,0.0,0.0,0.0,0.0,0.0,0.0,0.0,0.0,0.0,0.0,0.0,1500,1500,0.0,0.0,40.048261,-88.2330711667,0.0,0.0,0.0,0.0,0.0,0.0,0.0,0.0,0.0,0.0,0.0,0,0.0,0.0,0.0,0.0,90.0,90.0,52.0,88.8084564209,89.0631027222,127.83324432370001,25.540000915500002,15.747540473900001,3.4000000954000003,0,2,25,1,92,379
155,1530628794629,707629, RC,0,39.9586186,-88.445067899,0,0.0,0.0,0.0,0.0,0.0,0.0,0.0,0.0,0.0,0.0,0.0,0.0,0.0,1500,1500,0.0,0.0,40.048261,-88.2330711667,0.0,0.0,0.0,0.0,0.0,0.0,0.0,0.0,0.0,0.0,0.0,0,0.0,0.0,0.0,0.0,90.0,90.0,52.0,88.8084564209,89.0631027222,127.83324432370001,25.540000915500002,15.747540473900001,3.4000000954000003,0,2,25,1,110,381
156,1530628794679,707679, RC,0,39.9586186,-88.445067899,0,0.0,0.0,0.0,0.0,0.0,0.0,0.0,0.0,0.0,0.0,0.0,0.0,0.0,1500,1500,0.0,0.0,40.048261,-88.2330711667,0.0,0.0,0.0,0.0,0.0,0.0,0.0,0.0,0.0,0.0,0.0,0,0.0,0.0,0.0,0.0,90.0,90.0,52.0,88.8084564209,89.0631027222,127.83324432370001,25.540000915500002,15.747540473900001,3.4000000954000003,0,2,25,1,82,383
157,1530628794730,707730, RC,0,39.9586186,-88.445067899,0,0.0,0.0,0.0,0.0,0.0,0.0,0.0,0.0,0.0,0.0,0.0,0.0,0.0,1500,1500,0.0,0.0,40.048261,-88.2330711667,0.0,0.0,0.0,0.0,0.0,0.0,0.0,0.0,0.0,0.0,0.0,0,0.0,0.0,0.0,0.0,90.0,90.0,52.0,88.8084564209,89.0631027222,127.83324432370001,25.540000915500002,15.7428684235,3.0599999427999998,0,2,25,1,86,386
158,1530628794780,707780, RC,0,39.9586186,-88.445067899,0,0.0,0.0,0.0,0.0,0.0,0.0,0.0,0.0,0.0,0.0,0.0,0.0,0.0,1500,1500,0.0,0.0,40.048261,-88.2330711667,0.0,0.0,0.0,0.0,0.0,0.0,0.0,0.0,0.0,0.0,0.0,0,0.0,0.0,0.0,0.0,90.0,90.0,52.0,88.8084564209,89.0631027222,127.83324432370001,25.540000915500002,15.7428684235,3.0599999427999998,0,2,25,1,76,388
159,1530628794831,707831, RC,0,39.9586186,-88.445067899,0,0.0,0.0,0.0,0.0,0.0,0.0,0.0,0.0,0.0,0.0,0.0,0.0,0.0,1500,1500,0.0,0.0,40.048261,-88.2330711667,0.0,0.0,0.0,0.0,0.0,0.0,0.0,0.0,0.0,0.0,0.0,0,0.0,0.0,0.0,0.0,90.0,90.0,52.0,88.8084564209,89.0631027222,127.83324432370001,25.540000915500002,15.7428684235,3.0599999427999998,0,2,25,1,80,390
160,1530628794882,707882, RC,0,39.9586186,-88.445067899,0,0.0,0.0,0.0,0.0,0.0,0.0,0.0,0.0,0.0,0.0,0.0,0.0,0.0,1500,1500,0.0,0.0,40.048261,-88.2330738333,0.0,0.0,0.0,0.0,0.0,0.0,0.0,0.0,0.0,0.0,0.0,0,0.0,0.0,0.0,0.0,90.0,90.0,57.0,88.8084564209,89.0631027222,127.83324432370001,25.540000915500002,15.7428684235,3.0599999427999998,0,2,25,1,81,393
161,1530628794932,707932, RC,0,39.9586186,-88.445067899,0,0.0,0.0,0.0,0.0,0.0,0.0,0.0,0.0,0.0,0.0,0.0,0.0,0.0,1500,1500,0.0,0.0,40.048261,-88.2330738333,0.0,0.0,0.0,0.0,0.0,0.0,0.0,0.0,0.0,0.0,0.0,0,0.0,0.0,0.0,0.0,90.0,90.0,57.0,88.8084564209,89.0631027222,127.83324432370001,25.540000915500002,15.7428684235,3.0599999427999998,0,2,25,1,83,395
162,1530628794983,707983, RC,0,39.9586186,-88.445067899,0,0.0,0.0,0.0,0.0,0.0,0.0,0.0,0.0,0.0,0.0,0.0,0.0,0.0,1500,1500,0.0,0.0,40.048261,-88.2330738333,0.0,0.0,0.0,0.0,0.0,0.0,0.0,0.0,0.0,0.0,0.0,0,0.0,0.0,0.0,0.0,90.0,90.0,57.0,88.8084564209,89.0631027222,126.3053588867,25.540000915500002,15.7428684235,3.0599999427999998,0,2,25,1,96,397
163,1530628795033,708033, RC,0,39.9586186,-88.445067899,0,0.0,0.0,0.0,0.0,0.0,0.0,0.0,0.0,0.0,0.0,0.0,0.0,0.0,1500,1500,0.0,0.0,40.048261,-88.2330738333,0.0,0.0,0.0,0.0,0.0,0.0,0.0,0.0,0.0,0.0,0.0,0,0.0,0.0,0.0,0.0,90.0,90.0,57.0,88.8084564209,89.0631027222,122.8676147461,25.540000915500002,15.7428684235,3.0599999427999998,0,2,25,1,69,400
164,1530628795084,708084, RC,0,39.9586186,-88.445067899,0,0.0,0.0,0.0,0.0,0.0,0.0,0.0,0.0,0.0,0.0,0.0,0.0,0.0,1500,1500,0.0,0.0,40.048261,-88.2330738333,0.0,0.0,0.0,0.0,0.0,0.0,0.0,0.0,0.0,0.0,0.0,0,0.0,0.0,0.0,0.0,90.0,90.0,57.0,88.8721160889,89.0631027222,121.59437561040001,25.540000915500002,15.7428684235,3.0599999427999998,0,2,25,1,48,402
165,1530628795135,708135, RC,0,39.9586186,-88.445067899,0,0.0,0.0,0.0,0.0,0.0,0.0,0.0,0.0,0.0,0.0,0.0,0.0,0.0,1500,1500,0.0,0.0,40.048261,-88.2330738333,0.0,0.0,0.0,0.0,0.0,0.0,0.0,0.0,0.0,0.0,0.0,0,0.0,0.0,0.0,0.0,90.0,90.0,57.0,88.8721160889,89.0631027222,121.5307159424,25.540000915500002,15.7428684235,3.0599999427999998,0,2,25,1,43,405
166,1530628795185,708185, RC,0,39.9586186,-88.445067899,0,0.0,0.0,0.0,0.0,0.0,0.0,0.0,0.0,0.0,0.0,0.0,0.0,0.0,1500,1500,0.0,0.0,40.048261,-88.2330738333,0.0,0.0,0.0,0.0,0.0,0.0,0.0,0.0,0.0,0.0,0.0,0,0.0,0.0,0.0,0.0,90.0,90.0,58.0,88.8721160889,89.0631027222,121.467048645,25.540000915500002,15.7428684235,3.0599999427999998,0,2,25,1,46,407
167,1530628795236,708236, RC,0,39.9586186,-88.445067899,0,0.0,0.0,0.0,0.0,0.0,0.0,0.0,0.0,0.0,0.0,0.0,0.0,0.0,1500,1500,0.0,0.0,40.048261,-88.2330738333,0.0,0.0,0.0,0.0,0.0,0.0,0.0,0.0,0.0,0.0,0.0,0,0.0,0.0,0.0,0.0,90.0,90.0,58.0,88.8721160889,89.0631027222,121.467048645,25.540000915500002,15.7428684235,3.0599999427999998,0,2,25,1,41,409
168,1530628795287,708287, RC,0,39.9586186,-88.445067899,0,0.0,0.0,0.0,0.0,0.0,0.0,0.0,0.0,0.0,0.0,0.0,0.0,0.0,1500,1500,0.0,0.0,40.048261,-88.2330738333,0.0,0.0,0.0,0.0,0.0,0.0,0.0,0.0,0.0,0.0,0.0,0,0.0,0.0,0.0,0.0,90.0,90.0,60.0,88.8721160889,89.0631027222,121.0850753784,25.540000915500002,15.7428684235,3.0599999427999998,0,2,25,1,44,412
169,1530628795337,708337, RC,0,39.9586186,-88.445067899,0,0.0,0.0,0.0,0.0,0.0,0.0,0.0,0.0,0.0,0.0,0.0,0.0,0.0,1500,1500,0.0,0.0,40.048261,-88.2330738333,0.0,0.0,0.0,0.0,0.0,0.0,0.0,0.0,0.0,0.0,0.0,0,0.0,0.0,0.0,0.0,90.0,90.0,60.0,88.8721160889,89.0631027222,120.51211547850001,25.540000915500002,15.7428684235,3.0599999427999998,0,2,25,1,36,414
170,1530628795388,708388, RC,0,39.9586186,-88.445067899,0,0.0,0.0,0.0,0.0,0.0,0.0,0.0,0.0,0.0,0.0,0.0,0.0,0.0,1500,1500,0.0,0.0,40.048261,-88.2330738333,0.0,0.0,0.0,0.0,0.0,0.0,0.0,0.0,0.0,0.0,0.0,0,0.0,0.0,0.0,0.0,90.0,90.0,60.0,88.8721160889,89.0631027222,118.9205703735,25.540000915500002,15.7428684235,3.0599999427999998,0,2,25,1,31,416
171,1530628795438,708438, RC,0,39.9586186,-88.445067899,0,0.0,0.0,0.0,0.0,0.0,0.0,0.0,0.0,0.0,0.0,0.0,0.0,0.0,1500,1500,0.0,0.0,40.048261,-88.2330738333,0.0,0.0,0.0,0.0,0.0,0.0,0.0,0.0,0.0,0.0,0.0,0,0.0,0.0,0.0,0.0,90.0,90.0,60.0,88.8721160889,89.0631027222,118.6659317017,25.540000915500002,15.7428684235,3.0599999427999998,0,2,25,1,32,419
