,(0)linux time (ms),    (1)uptime  (ms),      (2)drive mode,(3)mpc step counter,(4)mpc origin latitude  (deg),(5)mpc origin longitude  (deg),(6)closest trajectory point index to robot,(7)mpc error x (W;E)  (m),(8)mpc error y (W;E)  (m),(9)abs mpc error (m),(10)input [x] for mhe (m),(11)input [y] for mhe (m),(12)input [speed] for mhe (m/s),(13)input [vyaw] for mhe (rad/s),(14)mhe output x  (m),(15)mhe output y  (m),(16)mhe output speed  (m/s),(17)mhe output yaw  (rad),(18)mpc reference heading (rad),(19)mpc turn rate command (rad/s),(20)turn rate command as PWM,(21)throttle command as PWM,(22)primary gps latitude (deg),(23)primary gps longitude (deg),(24)secondary gps latitude  (deg),(25)secondary gps longitude (deg),(26)accelerometer x (m/s^2),(27)accelerometer y (m/s^2),(28)accelerometer z (m/s^2),(29)gyro yaw rate (rad/s),(30)gyro pitch rate   (rad/s),(31)gyro roll rate (rad/s),      (32)yaw (rad),  (33)pitch   (rad),     (34)roll (rad),(35)sonar1 measurement (m),(36)ultrasonic sensor measurement (m),(37)primary gps time (s),(38)normalized turn rate command,(39)normalized throttle command,(40)speed calculation from encoder left (m/s),(41)speed calculation from encoder right (m/s),(42)front gimbal target angle (degrees from straight down),(43)left gimbal target angle  (degrees from straight down),(44)right gimbal target angle  (degrees from straight down),(45)front gimbal measured angle  (degrees from straight down),(46)left gimbal measured angle    (degrees from straight down),(47)right gimbal measured angle  (degrees from straight down),(48)internal temperature (C),(49)battery voltage (V),(50)primary gps type,(51)secondary gps type,    (52)MPC R value, (53)MPC Q[0] value,Unnamed: 54,weed_num,start
0,1530633961460,550460, RC,0,39.9586186,-88.445067899,0,0.0,0.0,0.0,0.0,0.0,0.0,0.0,0.0,0.0,0.0,0.0,0.0,0.0,1500,1500,0.0,0.0,40.0483911667,-88.2327318333,0.0,0.0,0.0,0.0,0.0,0.0,0.0,0.0,0.0,0.0,0.0,0,0.0,0.0,0.0,0.0,90.0,60.0,60.0,90.4636688232,120.32112884520001,120.4484634399,50.2870025635,14.4474258423,2.6900000572000002,0,2,25,1,155,0
1,1530633961510,550510, RC,0,39.9586186,-88.445067899,0,0.0,0.0,0.0,0.0,0.0,0.0,0.0,0.0,0.0,0.0,0.0,0.0,0.0,1500,1500,0.0,0.0,40.0483911667,-88.2327318333,0.0,0.0,0.0,0.0,0.0,0.0,0.0,0.0,0.0,0.0,0.0,0,0.0,0.0,0.0,0.0,90.0,60.0,60.0,90.4636688232,120.32112884520001,120.4484634399,50.2870025635,14.4474258423,2.6900000572000002,0,2,25,1,166,1
2,1530633961561,550561, RC,0,39.9586186,-88.445067899,0,0.0,0.0,0.0,0.0,0.0,0.0,0.0,0.0,0.0,0.0,0.0,0.0,0.0,1500,1500,0.0,0.0,40.0483911667,-88.2327318333,0.0,0.0,0.0,0.0,0.0,0.0,0.0,0.0,0.0,0.0,0.0,0,0.0,0.0,0.0,0.0,90.0,60.0,60.0,90.4636688232,120.32112884520001,120.4484634399,50.2870025635,14.447810172999999,3.6199998856,0,2,25,1,161,3
3,1530633961611,550611, RC,0,39.9586186,-88.445067899,0,0.0,0.0,0.0,0.0,0.0,0.0,0.0,0.0,0.0,0.0,0.0,0.0,0.0,1500,1500,0.0,0.0,40.0483911667,-88.2327318333,0.0,0.0,0.0,0.0,0.0,0.0,0.0,0.0,0.0,0.0,0.0,0,0.0,0.0,0.0,0.0,90.0,60.0,60.0,90.4636688232,120.32112884520001,120.4484634399,50.2870025635,14.447810172999999,3.6199998856,0,2,25,1,164,6
4,1530633961661,550661, RC,0,39.9586186,-88.445067899,0,0.0,0.0,0.0,0.0,0.0,0.0,0.0,0.0,0.0,0.0,0.0,0.0,0.0,1500,1500,0.0,0.0,40.0483911667,-88.2327318333,0.0,0.0,0.0,0.0,0.0,0.0,0.0,0.0,0.0,0.0,0.0,0,0.0,0.0,0.0,0.0,90.0,60.0,60.0,90.4636688232,120.32112884520001,120.4484634399,50.2870025635,14.447810172999999,3.6199998856,0,2,25,1,162,8
5,1530633961712,550712, RC,0,39.9586186,-88.445067899,0,0.0,0.0,0.0,0.0,0.0,0.0,0.0,0.0,0.0,0.0,0.0,0.0,0.0,1500,1500,0.0,0.0,40.0483911667,-88.2327318333,0.0,0.0,0.0,0.0,0.0,0.0,0.0,0.0,0.0,0.0,0.0,0,0.0,0.0,0.0,0.0,90.0,60.0,60.0,90.4636688232,120.19381713870001,120.4484634399,50.2870025635,14.447810172999999,3.6199998856,0,2,25,1,151,10
6,1530633961762,550762, RC,0,39.9586186,-88.445067899,0,0.0,0.0,0.0,0.0,0.0,0.0,0.0,0.0,0.0,0.0,0.0,0.0,0.0,1500,1500,0.0,0.0,40.0483911667,-88.2327318333,0.0,0.0,0.0,0.0,0.0,0.0,0.0,0.0,0.0,0.0,0.0,0,0.0,0.0,0.0,0.0,90.0,60.0,60.0,90.4636688232,120.13014221190001,120.4484634399,50.2870025635,14.447810172999999,3.6199998856,0,2,25,1,155,12
7,1530633961812,550812, RC,0,39.9586186,-88.445067899,0,0.0,0.0,0.0,0.0,0.0,0.0,0.0,0.0,0.0,0.0,0.0,0.0,0.0,1500,1500,0.0,0.0,40.0483911667,-88.2327318333,0.0,0.0,0.0,0.0,0.0,0.0,0.0,0.0,0.0,0.0,0.0,0,0.0,0.0,0.0,0.0,90.0,60.0,60.0,90.4636688232,120.13014221190001,120.4484634399,50.2870025635,14.447810172999999,3.6199998856,0,2,25,1,159,14
8,1530633961863,550863, RC,0,39.9586186,-88.445067899,0,0.0,0.0,0.0,0.0,0.0,0.0,0.0,0.0,0.0,0.0,0.0,0.0,0.0,1500,1500,0.0,0.0,40.0483911667,-88.2327318333,0.0,0.0,0.0,0.0,0.0,0.0,0.0,0.0,0.0,0.0,0.0,0,0.0,0.0,0.0,0.0,90.0,60.0,60.0,90.4636688232,120.13014221190001,120.4484634399,50.2870025635,14.447810172999999,3.6199998856,0,2,25,1,160,16
9,1530633961913,550913, RC,0,39.9586186,-88.445067899,0,0.0,0.0,0.0,0.0,0.0,0.0,0.0,0.0,0.0,0.0,0.0,0.0,0.0,1500,1500,0.0,0.0,40.0483911667,-88.2327318333,0.0,0.0,0.0,0.0,0.0,0.0,0.0,0.0,0.0,0.0,0.0,0,0.0,0.0,0.0,0.0,90.0,60.0,60.0,90.4636688232,120.13014221190001,120.4484634399,50.2870025635,14.447810172999999,3.6199998856,0,2,25,1,161,18
10,1530633961964,550964, RC,0,39.9586186,-88.445067899,0,0.0,0.0,0.0,0.0,0.0,0.0,0.0,0.0,0.0,0.0,0.0,0.0,0.0,1500,1500,0.0,0.0,40.0483911667,-88.2327318333,0.0,0.0,0.0,0.0,0.0,0.0,0.0,0.0,0.0,0.0,0.0,0,0.0,0.0,0.0,0.0,90.0,60.0,60.0,90.4636688232,120.13014221190001,120.4484634399,50.2870025635,14.447810172999999,3.6199998856,0,2,25,1,162,21
11,1530633962014,551014, RC,0,39.9586186,-88.445067899,0,0.0,0.0,0.0,0.0,0.0,0.0,0.0,0.0,0.0,0.0,0.0,0.0,0.0,1500,1500,0.0,0.0,40.0483911667,-88.2327318333,0.0,0.0,0.0,0.0,0.0,0.0,0.0,0.0,0.0,0.0,0.0,0,0.0,0.0,0.0,0.0,90.0,60.0,60.0,90.4636688232,120.13014221190001,120.4484634399,50.2870025635,14.447810172999999,3.6199998856,0,2,25,1,154,23
12,1530633962064,551064, RC,0,39.9586186,-88.445067899,0,0.0,0.0,0.0,0.0,0.0,0.0,0.0,0.0,0.0,0.0,0.0,0.0,0.0,1500,1500,0.0,0.0,40.0483911667,-88.2327318333,0.0,0.0,0.0,0.0,0.0,0.0,0.0,0.0,0.0,0.0,0.0,0,0.0,0.0,0.0,0.0,90.0,60.0,60.0,90.4636688232,120.13014221190001,120.4484634399,50.2870025635,14.447810172999999,3.6199998856,0,2,25,1,153,25
13,1530633962115,551115, RC,0,39.9586186,-88.445067899,0,0.0,0.0,0.0,0.0,0.0,0.0,0.0,0.0,0.0,0.0,0.0,0.0,0.0,1500,1500,0.0,0.0,40.0483911667,-88.2327318333,0.0,0.0,0.0,0.0,0.0,0.0,0.0,0.0,0.0,0.0,0.0,0,0.0,0.0,0.0,0.0,90.0,60.0,60.0,90.4636688232,120.13014221190001,120.4484634399,50.2870025635,14.447810172999999,3.6199998856,0,2,25,1,167,27
14,1530633962165,551165, RC,0,39.9586186,-88.445067899,0,0.0,0.0,0.0,0.0,0.0,0.0,0.0,0.0,0.0,0.0,0.0,0.0,0.0,1500,1500,0.0,0.0,40.0483911667,-88.2327318333,0.0,0.0,0.0,0.0,0.0,0.0,0.0,0.0,0.0,0.0,0.0,0,0.0,0.0,0.0,0.0,90.0,60.0,60.0,90.4636688232,120.13014221190001,120.4484634399,50.2870025635,14.447810172999999,3.6199998856,0,2,25,1,135,29
15,1530633962215,551215, RC,0,39.9586186,-88.445067899,0,0.0,0.0,0.0,0.0,0.0,0.0,0.0,0.0,0.0,0.0,0.0,0.0,0.0,1500,1500,0.0,0.0,40.0483911667,-88.2327318333,0.0,0.0,0.0,0.0,0.0,0.0,0.0,0.0,0.0,0.0,0.0,0,0.0,0.0,0.0,0.0,90.0,60.0,60.0,90.4636688232,120.13014221190001,120.4484634399,50.2870025635,14.447810172999999,3.6199998856,0,2,25,1,164,31
16,1530633962266,551266, RC,0,39.9586186,-88.445067899,0,0.0,0.0,0.0,0.0,0.0,0.0,0.0,0.0,0.0,0.0,0.0,0.0,0.0,1500,1500,0.0,0.0,40.0483911667,-88.2327318333,0.0,0.0,0.0,0.0,0.0,0.0,0.0,0.0,0.0,0.0,0.0,0,0.0,0.0,0.0,0.0,90.0,60.0,60.0,90.4636688232,120.13014221190001,120.4484634399,50.2870025635,14.447810172999999,3.6199998856,0,2,25,1,154,33
17,1530633962316,551316, RC,0,39.9586186,-88.445067899,0,0.0,0.0,0.0,0.0,0.0,0.0,0.0,0.0,0.0,0.0,0.0,0.0,0.0,1500,1500,0.0,0.0,40.0483911667,-88.2327318333,0.0,0.0,0.0,0.0,0.0,0.0,0.0,0.0,0.0,0.0,0.0,0,0.0,0.0,0.0,0.0,90.0,60.0,60.0,90.4636688232,120.13014221190001,120.4484634399,50.2870025635,14.447810172999999,3.6199998856,0,2,25,1,168,35
18,1530633962366,551366, RC,0,39.9586186,-88.445067899,0,0.0,0.0,0.0,0.0,0.0,0.0,0.0,0.0,0.0,0.0,0.0,0.0,0.0,1500,1500,0.0,0.0,40.0483911667,-88.2327318333,0.0,0.0,0.0,0.0,0.0,0.0,0.0,0.0,0.0,0.0,0.0,0,0.0,0.0,0.0,0.0,90.0,60.0,60.0,90.4636688232,120.13014221190001,120.4484634399,50.2870025635,14.447810172999999,3.6199998856,0,2,25,1,168,37
19,1530633962417,551417, RC,0,39.9586186,-88.445067899,0,0.0,0.0,0.0,0.0,0.0,0.0,0.0,0.0,0.0,0.0,0.0,0.0,0.0,1500,1500,0.0,0.0,40.0483911667,-88.2327318333,0.0,0.0,0.0,0.0,0.0,0.0,0.0,0.0,0.0,0.0,0.0,0,0.0,0.0,0.0,0.0,90.0,60.0,60.0,90.4636688232,120.13014221190001,120.4484634399,50.2870025635,14.447810172999999,3.6199998856,0,2,25,1,133,40
20,1530633962467,551467, RC,0,39.9586186,-88.445067899,0,0.0,0.0,0.0,0.0,0.0,0.0,0.0,0.0,0.0,0.0,0.0,0.0,0.0,1500,1500,0.0,0.0,40.0483925,-88.2327325,0.0,0.0,0.0,0.0,0.0,0.0,0.0,0.0,0.0,0.0,0.0,0,0.0,0.0,0.0,0.0,90.0,60.0,60.0,90.4636688232,120.13014221190001,120.4484634399,50.2870025635,14.447810172999999,3.6199998856,0,2,25,1,158,42
21,1530633962517,551517, RC,0,39.9586186,-88.445067899,0,0.0,0.0,0.0,0.0,0.0,0.0,0.0,0.0,0.0,0.0,0.0,0.0,0.0,1500,1500,0.0,0.0,40.0483925,-88.2327325,0.0,0.0,0.0,0.0,0.0,0.0,0.0,0.0,0.0,0.0,0.0,0,0.0,0.0,0.0,0.0,90.0,60.0,60.0,90.4636688232,120.13014221190001,120.4484634399,50.2870025635,14.447810172999999,3.6199998856,0,2,25,1,154,44
22,1530633962568,551568, RC,0,39.9586186,-88.445067899,0,0.0,0.0,0.0,0.0,0.0,0.0,0.0,0.0,0.0,0.0,0.0,0.0,0.0,1500,1500,0.0,0.0,40.0483925,-88.2327325,0.0,0.0,0.0,0.0,0.0,0.0,0.0,0.0,0.0,0.0,0.0,0,0.0,0.0,0.0,0.0,90.0,60.0,60.0,90.4636688232,120.13014221190001,120.4484634399,50.2870025635,14.4430027008,3.6199998856,0,2,25,1,172,46
23,1530633962618,551618, RC,0,39.9586186,-88.445067899,0,0.0,0.0,0.0,0.0,0.0,0.0,0.0,0.0,0.0,0.0,0.0,0.0,0.0,1500,1500,0.0,0.0,40.0483925,-88.2327325,0.0,0.0,0.0,0.0,0.0,0.0,0.0,0.0,0.0,0.0,0.0,0,0.0,0.0,0.0,0.0,90.0,60.0,60.0,90.4636688232,120.13014221190001,120.4484634399,50.2870025635,14.4430027008,3.6199998856,0,2,25,1,169,48
24,1530633962668,551668, RC,0,39.9586186,-88.445067899,0,0.0,0.0,0.0,0.0,0.0,0.0,0.0,0.0,0.0,0.0,0.0,0.0,0.0,1500,1500,0.0,0.0,40.0483925,-88.2327325,0.0,0.0,0.0,0.0,0.0,0.0,0.0,0.0,0.0,0.0,0.0,0,0.0,0.0,0.0,0.0,90.0,60.0,60.0,90.4636688232,120.19381713870001,120.4484634399,50.2870025635,14.4430027008,3.6199998856,0,2,25,1,148,50
25,1530633962719,551719, AUTO,0,39.9586186,-88.445067899,0,0.0,0.0,0.0,0.0,0.0,0.0,0.0,0.0,0.0,0.0,0.0,0.0,0.0,1500,1500,0.0,0.0,40.0483925,-88.2327325,0.0,0.0,0.0,0.0,0.0,0.0,0.0,0.0,0.0,0.0,0.0,0,0.0,0.0,0.0,0.0,90.0,60.0,60.0,90.4636688232,120.19381713870001,120.4484634399,50.2870025635,14.4430027008,3.6199998856,0,2,25,1,185,52
26,1530633962769,551769, AUTO,0,39.9586186,-88.445067899,0,0.0,0.0,0.0,0.0,0.0,0.0,0.0,0.0,0.0,0.0,0.0,0.0,0.0,1520,1750,0.0,0.0,40.0483925,-88.2327325,0.0,0.0,0.0,0.0,0.0,0.0,0.0,0.0,0.0,0.0,0.0,0,0.0399999619,0.5,0.0,0.0,90.0,60.0,60.0,90.4636688232,120.19381713870001,120.4484634399,50.2870025635,14.4430027008,3.6199998856,0,2,25,1,157,54
27,1530633962819,551819, AUTO,0,39.9586186,-88.445067899,0,0.0,0.0,0.0,0.0,0.0,0.0165540595,0.0,0.0,0.0,0.0,0.0,0.0,0.0,1480,1750,0.0,0.0,40.0483925,-88.2327325,0.0,0.0,0.0,0.0,0.0,0.0,0.0,0.0,0.0,0.0,0.0,0,-0.040000021499999996,0.5,0.016921928200000002,0.0161861908,90.0,60.0,60.0,90.5273361206,120.19381713870001,120.4484634399,50.2870025635,14.4430027008,3.6199998856,0,2,25,1,171,56
28,1530633962870,551870, AUTO,0,39.9586186,-88.445067899,0,0.0,0.0,0.0,0.0,0.0,0.09389829640000001,0.0,0.0,0.0,0.0,0.0,0.0,0.0,1510,1750,0.0,0.0,40.0483925,-88.2327325,0.0,0.0,0.0,0.0,0.0,0.0,0.0,0.0,0.0,0.0,0.0,0,0.019999980900000002,0.5,0.09490993619999999,0.09288666400000001,90.0,60.0,60.0,90.4636688232,120.0664901733,120.57579040530001,50.2870025635,14.4430027008,3.6199998856,0,2,25,1,169,59
29,1530633962920,551920, AUTO,0,39.9586186,-88.445067899,0,0.0,0.0,0.0,0.0,0.0,0.1999362409,0.0,0.0,0.0,0.0,0.0,0.0,0.0,1520,1750,0.0,0.0,40.0483925,-88.2327325,0.0,0.0,0.0,0.0,0.0,0.0,0.0,0.0,0.0,0.0,0.0,0,0.0399999619,0.5,0.199016571,0.2008559257,90.0,60.0,60.0,91.67324829100001,120.51211547850001,120.38480377200001,50.2870025635,14.4430027008,3.6199998856,0,2,25,1,157,61
30,1530633962970,551970, AUTO,0,39.9586186,-88.445067899,0,0.0,0.0,0.0,0.0,0.0,0.2585192025,0.0,0.0,0.0,0.0,0.0,0.0,0.0,1530,1750,0.0,0.0,40.0483925,-88.2327325,0.0,0.0,0.0,0.0,0.0,0.0,0.0,0.0,0.0,0.0,0.0,0,0.059999942800000004,0.5,0.2797635794,0.2372748405,90.0,60.0,60.0,91.48226165770001,121.2124023438,120.00283050540001,50.2870025635,14.4430027008,3.6199998856,0,2,25,1,181,63
31,1530633963021,552021, AUTO,0,39.9586186,-88.445067899,0,0.0,0.0,0.0,0.0,0.0,0.32721856239999997,0.0,0.0,0.0,0.0,0.0,0.0,0.0,1480,1750,0.0,0.0,40.0483925,-88.2327325,0.0,0.0,0.0,0.0,0.0,0.0,0.0,0.0,0.0,0.0,0.0,0,-0.040000021499999996,0.5,0.3384385407,0.31599858399999997,90.0,60.0,60.0,89.6997299194,120.32112884520001,120.19381713870001,50.2870025635,14.4430027008,3.6199998856,0,2,25,1,166,65
32,1530633963071,552071, AUTO,0,39.9586186,-88.445067899,0,0.0,0.0,0.0,0.0,0.0,0.3950902224,0.0,0.0,0.0,0.0,0.0,0.0,0.0,1490,1750,0.0,0.0,40.0483925,-88.2327325,0.0,0.0,0.0,0.0,0.0,0.0,0.0,0.0,0.0,0.0,0.0,0,-0.019999980900000002,0.5,0.38902038340000006,0.40116003159999997,90.0,60.0,60.0,89.7633895874,120.32112884520001,120.38480377200001,50.2870025635,14.4430027008,3.6199998856,0,2,25,1,171,67
33,1530633963121,552121, AUTO,0,39.9586186,-88.445067899,0,0.0,0.0,0.0,0.0,0.0,0.4425451756,0.0,0.0,0.0,0.0,0.0,0.0,0.0,1490,1750,0.0,0.0,40.0483925,-88.2327325,0.0,0.0,0.0,0.0,0.0,0.0,0.0,0.0,0.0,0.0,0.0,0,-0.019999980900000002,0.5,0.4478792846,0.43721109630000005,90.0,60.0,60.0,89.12677001950001,119.3662033081,121.2124023438,50.2870025635,14.4430027008,3.6199998856,0,2,25,1,161,69
34,1530633963172,552172, AUTO,0,39.9586186,-88.445067899,0,0.0,0.0,0.0,0.0,0.0,0.48107934,0.0,0.0,0.0,0.0,0.0,0.0,0.0,1350,1750,0.0,0.0,40.0483925,-88.2327325,0.0,0.0,0.0,0.0,0.0,0.0,0.0,0.0,0.0,0.0,0.0,0,-0.30000001190000003,0.5,0.4907358885,0.4714228213,90.0,60.0,60.0,89.9543762207,118.6659317017,122.3583145142,50.2870025635,14.4430027008,3.6199998856,0,2,25,1,150,71
35,1530633963222,552222, AUTO,0,39.9586186,-88.445067899,0,0.0,0.0,0.0,0.0,0.0,0.5120722055,0.0,0.0,0.0,0.0,0.0,0.0,0.0,1600,1750,0.0,0.0,40.0483925,-88.2327325,0.0,0.0,0.0,0.0,0.0,0.0,0.0,0.0,0.0,0.0,0.0,0,0.2000000477,0.5,0.5131758451,0.5109686255,90.0,60.0,60.0,91.29127502440001,118.856918335,122.3583145142,50.2870025635,14.4430027008,3.6199998856,0,2,25,1,153,73
36,1530633963273,552273, AUTO,0,39.9586186,-88.445067899,0,0.0,0.0,0.0,0.0,0.0,0.5294539928,0.0,0.0,0.0,0.0,0.0,0.0,0.0,1510,1750,0.0,0.0,40.0483925,-88.2327325,0.0,0.0,0.0,0.0,0.0,0.0,0.0,0.0,0.0,0.0,0.0,0,0.019999980900000002,0.5,0.4705031514,0.5884048343,90.0,60.0,60.0,90.9729614258,120.9577560425,119.87550354,50.2870025635,14.4430027008,3.6199998856,0,2,25,1,152,76
37,1530633963323,552323, AUTO,0,39.9586186,-88.445067899,0,0.0,0.0,0.0,0.0,0.0,0.5184179543999999,0.0,0.0,0.0,0.0,0.0,0.0,0.0,1520,1750,0.0,0.0,40.0483925,-88.2327325,0.0,0.0,0.0,0.0,0.0,0.0,0.0,0.0,0.0,0.0,0.0,0,0.0399999619,0.5,0.4423612356,0.5944746733,90.0,60.0,60.0,90.2726821899,121.84902954100001,117.6473312378,50.2870025635,14.4430027008,3.6199998856,0,2,25,1,160,78
38,1530633963373,552373, AUTO,0,39.9586186,-88.445067899,0,0.0,0.0,0.0,0.0,0.0,0.5271548033,0.0,0.0,0.0,0.0,0.0,0.0,0.0,1780,1750,0.0,0.0,40.0483925,-88.2327325,0.0,0.0,0.0,0.0,0.0,0.0,0.0,0.0,0.0,0.0,0.0,0,0.5599999428,0.5,0.48779293890000003,0.5665166974,90.0,60.0,60.0,89.63606262209998,120.9577560425,117.2653579712,50.2870025635,14.4430027008,3.6199998856,0,2,25,1,181,80
39,1530633963424,552424, AUTO,0,39.9586186,-88.445067899,0,0.0,0.0,0.0,0.0,0.0,0.5355238318,0.0,0.0,0.0,0.0,0.0,0.0,0.0,1530,1750,0.0,0.0,40.0483925,-88.2327325,0.0,0.0,0.0,0.0,0.0,0.0,0.0,0.0,0.0,0.0,0.0,0,0.059999942800000004,0.5,0.5083935857,0.562654078,90.0,60.0,60.0,88.9994430542,121.0214157104,117.2017059326,50.2870025635,14.4430027008,3.6199998856,0,2,25,1,170,82
40,1530633963474,552474, AUTO,0,39.9586186,-88.445067899,0,0.0,0.0,0.0,0.0,0.0,0.556492269,0.0,0.0,0.0,0.0,0.0,0.0,0.0,1620,1750,0.0,0.0,40.0483925,-88.2327321667,0.0,0.0,0.0,0.0,0.0,0.0,0.0,0.0,0.0,0.0,0.0,0,0.2400000095,0.5,0.583070755,0.5299137831,90.0,60.0,60.0,89.44507598879999,120.76677703860001,121.0850753784,50.2870025635,14.4430027008,3.6199998856,0,2,25,1,211,84
41,1530633963524,552524, AUTO,0,39.9586186,-88.445067899,0,0.0,0.0,0.0,0.0,0.0,0.5367193818,0.0,0.0,0.0,0.0,0.0,0.0,0.0,1370,1750,0.0,0.0,40.0483925,-88.2327321667,0.0,0.0,0.0,0.0,0.0,0.0,0.0,0.0,0.0,0.0,0.0,0,-0.2599999905,0.5,0.5942907332999999,0.4791480303,90.0,60.0,60.0,90.7819747925,119.81184387209998,121.7853622437,50.2870025635,14.4430027008,3.6199998856,0,2,25,1,183,86
42,1530633963575,552575, AUTO,0,39.9586186,-88.445067899,0,0.0,0.0,0.0,0.0,0.0,0.5066461563,0.0,0.0,0.0,0.0,0.0,0.0,0.0,1530,1750,0.0,0.0,40.0483925,-88.2327321667,0.0,0.0,0.0,0.0,0.0,0.0,0.0,0.0,0.0,0.0,0.0,0,0.059999942800000004,0.5,0.5554805993999999,0.45781168340000006,90.0,60.0,60.0,90.40000915530001,119.87550354,121.7853622437,50.2870025635,14.4419155121,16.4300003052,0,2,25,1,171,88
43,1530633963625,552625, AUTO,0,39.9586186,-88.445067899,0,0.0,0.0,0.0,0.0,0.0,0.5043469667,0.0,0.0,0.0,0.0,0.0,0.0,0.0,1180,1750,0.0,0.0,40.0483925,-88.2327321667,0.0,0.0,0.0,0.0,0.0,0.0,0.0,0.0,0.0,0.0,0.0,0,-0.6399999857,0.5,0.5236600637,0.4850339293,90.0,60.0,60.0,90.5273361206,119.0479049683,122.6766281128,50.2870025635,14.4419155121,16.4300003052,0,2,25,1,206,91
44,1530633963675,552675, AUTO,0,39.9586186,-88.445067899,0,0.0,0.0,0.0,0.0,0.0,0.48356246950000004,0.0,0.0,0.0,0.0,0.0,0.0,0.0,1470,1750,0.0,0.0,40.0483925,-88.2327321667,0.0,0.0,0.0,0.0,0.0,0.0,0.0,0.0,0.0,0.0,0.0,0,-0.0600000024,0.5,0.5093132257,0.45781168340000006,90.0,60.0,60.0,91.10028839110001,120.2574768066,122.6129760742,50.2870025635,14.4419155121,16.4300003052,0,2,25,1,183,93
45,1530633963726,552726, AUTO,0,39.9586186,-88.445067899,0,0.0,0.0,0.0,0.0,0.0,0.4954262078,0.0,0.0,0.0,0.0,0.0,0.0,0.0,1550,1750,0.0,0.0,40.0483925,-88.2327321667,0.0,0.0,0.0,0.0,0.0,0.0,0.0,0.0,0.0,0.0,0.0,0,0.1000000238,0.5,0.5039791465,0.48687326909999995,90.0,60.0,60.0,91.29127502440001,120.00283050540001,122.10367584229999,50.2870025635,14.4419155121,16.4300003052,0,2,25,1,174,95
46,1530633963776,552776, AUTO,0,39.9586186,-88.445067899,0,0.0,0.0,0.0,0.0,0.0,0.5038871765,0.0,0.0,0.0,0.0,0.0,0.0,0.0,1510,1750,0.0,0.0,40.0483925,-88.2327321667,0.0,0.0,0.0,0.0,0.0,0.0,0.0,0.0,0.0,0.0,0.0,0,0.019999980900000002,0.5,0.4999325871,0.5078417659000001,90.0,60.0,60.0,91.67324829100001,120.57579040530001,118.53860473629999,50.2870025635,14.4419155121,16.4300003052,0,2,25,1,166,97
47,1530633963826,552826, AUTO,0,39.9586186,-88.445067899,0,0.0,0.0,0.0,0.0,0.0,0.5203492640999999,0.0,0.0,0.0,0.0,0.0,0.0,0.0,1480,1750,0.0,0.0,40.0483925,-88.2327321667,0.0,0.0,0.0,0.0,0.0,0.0,0.0,0.0,0.0,0.0,0.0,0,-0.040000021499999996,0.5,0.5094971657,0.5312013626,90.0,60.0,60.0,91.1639480591,120.57579040530001,117.9019851685,50.2870025635,14.4419155121,16.4300003052,0,2,25,1,154,99
48,1530633963877,552877, AUTO,0,39.9586186,-88.445067899,0,0.0,0.0,0.0,0.0,0.0,0.5393864512,0.0,0.0,0.0,0.0,0.0,0.0,0.0,1520,1750,0.0,0.0,40.0483925,-88.2327321667,0.0,0.0,0.0,0.0,0.0,0.0,0.0,0.0,0.0,0.0,0.0,0,0.0399999619,0.5,0.5413177609000001,0.5374551415,90.0,60.0,60.0,90.01803588870001,118.7932434082,118.9842300415,50.2870025635,14.4419155121,16.4300003052,0,2,25,1,126,101
49,1530633963927,552927, AUTO,0,39.9586186,-88.445067899,0,0.0,0.0,0.0,0.0,0.0,0.5448124409,0.0,0.0,0.0,0.0,0.0,0.0,0.0,1470,1750,0.0,0.0,40.0483925,-88.2327321667,0.0,0.0,0.0,0.0,0.0,0.0,0.0,0.0,0.0,0.0,0.0,0,-0.0600000024,0.5,0.5389265418,0.5506983995,90.0,60.0,60.0,89.25408935549999,118.411277771,119.939163208,50.2870025635,14.4419155121,16.4300003052,0,2,25,1,82,104
50,1530633963977,552977, AUTO,0,39.9586186,-88.445067899,0,0.0,0.0,0.0,0.0,0.0,0.5722186565,0.0,0.0,0.0,0.0,0.0,0.0,0.0,1510,1750,0.0,0.0,40.0483925,-88.2327321667,0.0,0.0,0.0,0.0,0.0,0.0,0.0,0.0,0.0,0.0,0.0,0,0.019999980900000002,0.5,0.5643094778,0.5801278353,90.0,60.0,60.0,89.9543762207,120.00283050540001,120.2574768066,50.2870025635,14.4419155121,16.4300003052,0,2,25,1,128,106
51,1530633964028,553028, AUTO,0,39.9586186,-88.445067899,0,0.0,0.0,0.0,0.0,0.0,0.5598950386,0.0,0.0,0.0,0.0,0.0,0.0,0.0,1510,1750,0.0,0.0,40.0483925,-88.2327321667,0.0,0.0,0.0,0.0,0.0,0.0,0.0,0.0,0.0,0.0,0.0,0,0.019999980900000002,0.5,0.5306495428,0.5891405344,90.0,60.0,60.0,90.3363494873,121.2760620117,119.3662033081,50.2870025635,14.4419155121,16.4300003052,0,2,25,1,92,109
52,1530633964078,553078, AUTO,0,39.9586186,-88.445067899,0,0.0,0.0,0.0,0.0,0.0,0.5673444271,0.0,0.0,0.0,0.0,0.0,0.0,0.0,1500,1750,0.0,0.0,40.0483925,-88.2327321667,0.0,0.0,0.0,0.0,0.0,0.0,0.0,0.0,0.0,0.0,0.0,0,0.0,0.5,0.5448125005,0.5898762941,90.0,60.0,60.0,90.20902252200001,121.3397293091,118.6659317017,50.2870025635,14.4419155121,16.4300003052,0,2,25,1,161,111
53,1530633964128,553128, AUTO,0,39.9586186,-88.445067899,0,0.0,0.0,0.0,0.0,0.0,0.5712069868999999,0.0,0.0,0.0,0.0,0.0,0.0,0.0,1510,1750,0.0,0.0,40.0483925,-88.2327321667,0.0,0.0,0.0,0.0,0.0,0.0,0.0,0.0,0.0,0.0,0.0,0,0.019999980900000002,0.5,0.5569521189,0.5854618549,90.0,60.0,60.0,89.6997299194,120.00283050540001,118.53860473629999,50.2870025635,14.4419155121,16.4300003052,0,2,25,1,91,114
54,1530633964179,553179, AUTO,0,39.9586186,-88.445067899,0,0.0,0.0,0.0,0.0,0.0,0.5683560371,0.0,0.0,0.0,0.0,0.0,0.0,0.0,1510,1750,0.0,0.0,40.0483925,-88.2327321667,0.0,0.0,0.0,0.0,0.0,0.0,0.0,0.0,0.0,0.0,0.0,0,0.019999980900000002,0.5,0.5497786999000001,0.5869333743999999,90.0,60.0,60.0,91.1639480591,119.939163208,118.6659317017,50.2870025635,14.4419155121,16.4300003052,0,2,25,1,112,116
55,1530633964229,553229, AUTO,0,39.9586186,-88.445067899,0,0.0,0.0,0.0,0.0,0.0,0.5719427466,0.0,0.0,0.0,0.0,0.0,0.0,0.0,1500,1750,0.0,0.0,40.0483925,-88.2327321667,0.0,0.0,0.0,0.0,0.0,0.0,0.0,0.0,0.0,0.0,0.0,0,0.0,0.5,0.5733222365,0.5705632567,90.0,60.0,60.0,92.30986785889999,120.19381713870001,118.72959136959999,50.2870025635,14.4419155121,16.4300003052,0,2,25,1,57,118
56,1530633964279,553279, AUTO,0,39.9586186,-88.445067899,0,0.0,0.0,0.0,0.0,0.0,0.5947505236,0.0,0.0,0.0,0.0,0.0,0.0,0.0,1500,1750,0.0,0.0,40.0483925,-88.2327321667,0.0,0.0,0.0,0.0,0.0,0.0,0.0,0.0,0.0,0.0,0.0,0,0.0,0.5,0.5999926925,0.5895084143,90.0,60.0,60.0,91.67324829100001,120.4484634399,120.00283050540001,50.2870025635,14.4419155121,16.4300003052,0,2,25,1,198,120
57,1530633964330,553330, AUTO,0,39.9586186,-88.445067899,0,0.0,0.0,0.0,0.0,0.0,0.5919915438000001,0.0,0.0,0.0,0.0,0.0,0.0,0.0,1520,1750,0.0,0.0,40.0483925,-88.2327321667,0.0,0.0,0.0,0.0,0.0,0.0,0.0,0.0,0.0,0.0,0.0,0,0.0399999619,0.5,0.5931871532999999,0.5907959938,90.0,60.0,60.0,90.2726821899,121.2760620117,119.5571899414,50.2870025635,14.4419155121,16.4300003052,0,2,25,1,165,122
58,1530633964385,553385, AUTO,0,39.9586186,-88.445067899,0,0.0,0.0,0.0,0.0,0.0,0.5852779746,0.0,0.0,0.0,0.0,0.0,0.0,0.0,1200,1750,0.0,0.0,40.0483925,-88.2327321667,0.0,0.0,0.0,0.0,0.0,0.0,0.0,0.0,0.0,0.0,0.0,0,-0.6000000238000001,0.5,0.5931871532999999,0.5773687959,90.0,60.0,60.0,90.7819747925,120.6394424438,119.3025436401,50.2870025635,14.4419155121,16.4300003052,0,2,25,1,142,125
59,1530633964436,553436, AUTO,0,39.9586186,-88.445067899,0,0.0,0.0,0.0,0.0,0.0,0.6056946515999999,0.0,0.0,0.0,0.0,0.0,0.0,0.0,1510,1750,0.0,0.0,40.0483928333,-88.2327325,0.0,0.0,0.0,0.0,0.0,0.0,0.0,0.0,0.0,0.0,0.0,0,0.019999980900000002,0.5,0.6351240872999999,0.5762652159,90.0,60.0,60.0,91.1639480591,119.1115570068,120.51211547850001,50.2870025635,14.4419155121,16.4300003052,0,2,25,1,125,127
60,1530633964486,553486, AUTO,0,39.9586186,-88.445067899,0,0.0,0.0,0.0,0.0,0.0,0.625099659,0.0,0.0,0.0,0.0,0.0,0.0,0.0,1520,1750,0.0,0.0,40.0483928333,-88.2327325,0.0,0.0,0.0,0.0,0.0,0.0,0.0,0.0,0.0,0.0,0.0,0,0.0399999619,0.5,0.6818433404,0.5683559775,90.0,60.0,60.0,91.4186019897,118.15663146969999,121.7217025757,50.2870025635,14.4419155121,16.4300003052,0,2,25,1,123,129
61,1530633964536,553536, AUTO,0,39.9586186,-88.445067899,0,0.0,0.0,0.0,0.0,0.0,0.6201334596,0.0,0.0,0.0,0.0,0.0,0.0,0.0,1520,1750,0.0,0.0,40.0483928333,-88.2327325,0.0,0.0,0.0,0.0,0.0,0.0,0.0,0.0,0.0,0.0,0.0,0,0.0399999619,0.5,0.6627141833,0.5775527358,90.0,60.0,60.0,91.48226165770001,119.62085723879999,121.5307159424,50.2870025635,14.442820549,8.289999961900001,0,2,25,1,103,131
62,1530633964587,553587, AUTO,0,39.9586186,-88.445067899,0,0.0,0.0,0.0,0.0,0.0,0.610660851,0.0,0.0,0.0,0.0,0.0,0.0,0.0,1230,1750,0.0,0.0,40.0483928333,-88.2327325,0.0,0.0,0.0,0.0,0.0,0.0,0.0,0.0,0.0,0.0,0.0,0,-0.5399999619,0.5,0.6831308006999999,0.5381909013,90.0,60.0,60.0,87.9171905518,120.32112884520001,120.8940887451,50.2870025635,14.442820549,8.289999961900001,0,2,25,1,117,133
63,1530633964637,553637, AUTO,0,39.9586186,-88.445067899,0,0.0,0.0,0.0,0.0,0.0,0.6210530996,0.0,0.0,0.0,0.0,0.0,0.0,0.0,1670,1750,0.0,0.0,40.0483928333,-88.2327325,0.0,0.0,0.0,0.0,0.0,0.0,0.0,0.0,0.0,0.0,0.0,0,0.3400000334,0.5,0.6952704787,0.5468357205,90.0,60.0,60.0,87.28057098389999,120.38480377200001,120.9577560425,50.2870025635,14.442820549,8.289999961900001,0,2,25,1,99,135
64,1530633964687,553687, AUTO,0,39.9586186,-88.445067899,0,0.0,0.0,0.0,0.0,0.0,0.6074420214,0.0,0.0,0.0,0.0,0.0,0.0,0.0,1190,1750,0.0,0.0,40.0483928333,-88.2327325,0.0,0.0,0.0,0.0,0.0,0.0,0.0,0.0,0.0,0.0,0.0,0,-0.6200000048,0.5,0.6156270504,0.5992569327,90.0,60.0,60.0,90.4636688232,120.57579040530001,120.7031021118,50.2870025635,14.442820549,8.289999961900001,0,2,25,1,82,138
65,1530633964738,553738, AUTO,0,39.9586186,-88.445067899,0,0.0,0.0,0.0,0.0,0.0,0.5848181248,0.0,0.0,0.0,0.0,0.0,0.0,0.0,1660,1750,0.0,0.0,40.0483928333,-88.2327325,0.0,0.0,0.0,0.0,0.0,0.0,0.0,0.0,0.0,0.0,0.0,0,0.3200000525,0.5,0.5100489855,0.6595873237,90.0,60.0,60.0,91.4186019897,119.4935302734,121.1487426758,50.2870025635,14.442820549,8.289999961900001,0,2,25,1,98,140
66,1530633964788,553788, AUTO,0,39.9586186,-88.445067899,0,0.0,0.0,0.0,0.0,0.0,0.5662407875,0.0,0.0,0.0,0.0,0.0,0.0,0.0,1490,1750,0.0,0.0,40.0483928333,-88.2327325,0.0,0.0,0.0,0.0,0.0,0.0,0.0,0.0,0.0,0.0,0.0,0,-0.019999980900000002,0.5,0.46093860270000003,0.6715430021,90.0,60.0,60.0,90.5273361206,119.2388916016,121.7217025757,50.2870025635,14.442820549,8.289999961900001,0,2,25,1,87,142
67,1530633964838,553838, AUTO,0,39.9586186,-88.445067899,0,0.0,0.0,0.0,0.0,0.0,0.4650771022,0.0,0.0,0.0,0.0,0.0,0.0,0.0,1520,1750,0.0,0.0,40.0483928333,-88.2327325,0.0,0.0,0.0,0.0,0.0,0.0,0.0,0.0,0.0,0.0,0.0,0,0.0399999619,0.5,0.3625338972,0.567620337,90.0,60.0,60.0,90.2726821899,119.7481765747,120.8940887451,50.2870025635,14.442820549,8.289999961900001,0,2,25,1,70,144
68,1530633964889,553889, AUTO,0,39.9586186,-88.445067899,0,0.0,0.0,0.0,0.0,0.0,0.45597234369999995,0.0,0.0,0.0,0.0,0.0,0.0,0.0,1630,1750,0.0,0.0,40.0483928333,-88.2327325,0.0,0.0,0.0,0.0,0.0,0.0,0.0,0.0,0.0,0.0,0.0,0,0.2599999905,0.5,0.3961938024,0.515750885,90.0,60.0,60.0,89.0631027222,120.76677703860001,118.4749450684,50.2870025635,14.442820549,8.289999961900001,0,2,25,1,92,146
69,1530633964939,553939, AUTO,0,39.9586186,-88.445067899,0,0.0,0.0,0.0,0.0,0.0,0.4788721204,0.0,0.0,0.0,0.0,0.0,0.0,0.0,1420,1750,0.0,0.0,40.0483928333,-88.2327325,0.0,0.0,0.0,0.0,0.0,0.0,0.0,0.0,0.0,0.0,0.0,0,-0.16000002619999998,0.5,0.4432809055,0.5144633651,90.0,60.0,60.0,88.36282348629999,121.0214157104,118.34761810299999,50.2870025635,14.442820549,8.289999961900001,0,2,25,1,110,148
70,1530633964989,553989, AUTO,0,39.9586186,-88.445067899,0,0.0,0.0,0.0,0.0,0.0,0.5110605954999999,0.0,0.0,0.0,0.0,0.0,0.0,0.0,1520,1750,0.0,0.0,40.0483928333,-88.2327325,0.0,0.0,0.0,0.0,0.0,0.0,0.0,0.0,0.0,0.0,0.0,0,0.0399999619,0.5,0.5339604020000001,0.4881608188,90.0,60.0,60.0,90.20902252200001,121.0214157104,118.0293045044,50.2870025635,14.442820549,8.289999961900001,0,2,25,1,126,150
71,1530633965040,554040, AUTO,0,39.9586186,-88.445067899,0,0.0,0.0,0.0,0.0,0.0,0.5251315236,0.0,0.0,0.0,0.0,0.0,0.0,0.0,1490,1750,0.0,0.0,40.0483928333,-88.2327325,0.0,0.0,0.0,0.0,0.0,0.0,0.0,0.0,0.0,0.0,0.0,0,-0.019999980900000002,0.5,0.5657809377,0.4844821393,90.0,60.0,60.0,89.5087432861,120.76677703860001,117.96564483639999,50.2870025635,14.442820549,8.289999961900001,0,2,25,1,120,152
72,1530633965090,554090, AUTO,0,39.9586186,-88.445067899,0,0.0,0.0,0.0,0.0,0.0,0.5327647924000001,0.0,0.0,0.0,0.0,0.0,0.0,0.0,1520,1750,0.0,0.0,40.0483928333,-88.2327325,0.0,0.0,0.0,0.0,0.0,0.0,0.0,0.0,0.0,0.0,0.0,0,0.0399999619,0.5,0.5648612976,0.5006682873,90.0,60.0,60.0,91.2276153564,120.13014221190001,118.6022567749,50.2870025635,14.442820549,8.289999961900001,0,2,25,1,123,154
73,1530633965140,554140, AUTO,0,39.9586186,-88.445067899,0,0.0,0.0,0.0,0.0,0.0,0.5418695211,0.0,0.0,0.0,0.0,0.0,0.0,0.0,1550,1750,0.0,0.0,40.0483928333,-88.2327325,0.0,0.0,0.0,0.0,0.0,0.0,0.0,0.0,0.0,0.0,0.0,0,0.1000000238,0.5,0.5505144596,0.5332246423,90.0,60.0,60.0,93.7104263306,120.00283050540001,120.19381713870001,50.2870025635,14.442820549,8.289999961900001,0,2,25,1,119,157
74,1530633965191,554191, AUTO,0,39.9586186,-88.445067899,0,0.0,0.0,0.0,0.0,0.0,0.5580556989,0.0,0.0,0.0,0.0,0.0,0.0,0.0,1770,1750,0.0,0.0,40.0483928333,-88.2327325,0.0,0.0,0.0,0.0,0.0,0.0,0.0,0.0,0.0,0.0,0.0,0,0.5399999619,0.5,0.5560324192,0.5600789785,90.0,60.0,60.0,90.40000915530001,119.42987060549999,120.57579040530001,50.2870025635,14.442820549,8.289999961900001,0,2,25,1,102,161
75,1530633965241,554241, AUTO,0,39.9586186,-88.445067899,0,0.0,0.0,0.0,0.0,0.0,0.5534573793,0.0,0.0,0.0,0.0,0.0,0.0,0.0,1530,1750,0.0,0.0,40.0483928333,-88.2327325,0.0,0.0,0.0,0.0,0.0,0.0,0.0,0.0,0.0,0.0,0.0,0,0.059999942800000004,0.5,0.5742419362,0.5326728225,90.0,60.0,60.0,87.2169113159,119.1115570068,121.4033889771,50.2870025635,14.442820549,8.289999961900001,0,2,25,1,101,164
76,1530633965291,554291, AUTO,0,39.9586186,-88.445067899,0,0.0,0.0,0.0,0.0,0.0,0.5398462414999999,0.0,0.0,0.0,0.0,0.0,0.0,0.0,1530,1750,0.0,0.0,40.0483928333,-88.2327325,0.0,0.0,0.0,0.0,0.0,0.0,0.0,0.0,0.0,0.0,0.0,0,0.059999942800000004,0.5,0.5860136747,0.49367883799999995,90.0,60.0,60.0,90.01803588870001,118.9205703735,122.10367584229999,50.2870025635,14.442820549,8.289999961900001,0,2,25,1,74,167
77,1530633965342,554342, AUTO,0,39.9586186,-88.445067899,0,0.0,0.0,0.0,0.0,0.0,0.5618263483,0.0,0.0,0.0,0.0,0.0,0.0,0.0,1550,1750,0.0,0.0,40.0483928333,-88.2327325,0.0,0.0,0.0,0.0,0.0,0.0,0.0,0.0,0.0,0.0,0.0,0,0.1000000238,0.5,0.6233522892,0.5003004670000001,90.0,60.0,60.0,93.01014709469999,119.0479049683,122.6766281128,50.2870025635,14.442820549,8.289999961900001,0,2,25,1,92,169
78,1530633965392,554392, AUTO,0,39.9586186,-88.445067899,0,0.0,0.0,0.0,0.0,0.0,0.5857378244,0.0,0.0,0.0,0.0,0.0,0.0,0.0,1520,1750,0.0,0.0,40.0483928333,-88.2327325,0.0,0.0,0.0,0.0,0.0,0.0,0.0,0.0,0.0,0.0,0.0,0,0.0399999619,0.5,0.6294221282,0.5420535207,90.0,60.0,60.0,91.800567627,119.3662033081,121.59437561040001,50.2870025635,14.442820549,8.289999961900001,0,2,25,1,98,172
79,1530633965442,554442, AUTO,0,39.9586186,-88.445067899,0,0.0,0.0,0.0,0.0,0.0,0.573690176,0.0,0.0,0.0,0.0,0.0,0.0,0.0,1510,1750,0.0,0.0,40.0483898333,-88.2327366667,0.0,0.0,0.0,0.0,0.0,0.0,0.0,0.0,0.0,0.0,0.0,0,0.019999980900000002,0.5,0.6090054511999999,0.5383748412,90.0,60.0,60.0,88.9994430542,120.76677703860001,120.00283050540001,50.2870025635,14.442820549,8.289999961900001,0,2,25,1,105,174
80,1530633965493,554493, AUTO,0,39.9586186,-88.445067899,0,0.0,0.0,0.0,0.0,0.0,0.5694596767,0.0,0.0,0.0,0.0,0.0,0.0,0.0,1530,1750,0.0,0.0,40.0483898333,-88.2327366667,0.0,0.0,0.0,0.0,0.0,0.0,0.0,0.0,0.0,0.0,0.0,0,0.059999942800000004,0.5,0.6001766324000001,0.5387426614999999,90.0,60.0,60.0,88.4264831543,119.5571899414,120.4484634399,50.2870025635,14.442820549,8.289999961900001,0,2,25,1,81,177
81,1530633965543,554543, AUTO,0,39.9586186,-88.445067899,0,0.0,0.0,0.0,0.0,0.0,0.578104496,0.0,0.0,0.0,0.0,0.0,0.0,0.0,1490,1750,0.0,0.0,40.0483898333,-88.2327366667,0.0,0.0,0.0,0.0,0.0,0.0,0.0,0.0,0.0,0.0,0.0,0,-0.019999980900000002,0.5,0.6147073507,0.5415017009,90.0,60.0,60.0,89.1904296875,119.3662033081,120.83042907709999,50.2870025635,14.4295654297,12.970000267,0,2,25,1,107,179
82,1530633965593,554593, AUTO,0,39.9586186,-88.445067899,0,0.0,0.0,0.0,0.0,0.0,0.5743339062,0.0,0.0,0.0,0.0,0.0,0.0,0.0,1500,1750,0.0,0.0,40.0483898333,-88.2327366667,0.0,0.0,0.0,0.0,0.0,0.0,0.0,0.0,0.0,0.0,0.0,0,0.0,0.5,0.5893244743,0.5593432784000001,90.0,60.0,60.0,89.7633895874,119.1752166748,121.0850753784,50.2870025635,14.4295654297,12.970000267,0,2,25,1,108,182
83,1530633965644,554644, AUTO,0,39.9586186,-88.445067899,0,0.0,0.0,0.0,0.0,0.0,0.5850940347,0.0,0.0,0.0,0.0,0.0,0.0,0.0,1400,1750,0.0,0.0,40.0483898333,-88.2327366667,0.0,0.0,0.0,0.0,0.0,0.0,0.0,0.0,0.0,0.0,0.0,0,-0.1999999881,0.5,0.5987051129,0.5714829564,90.0,60.0,60.0,92.0552215576,120.7031021118,120.32112884520001,50.2870025635,14.4295654297,12.970000267,0,2,25,1,120,185
84,1530633965694,554694, AUTO,0,39.9586186,-88.445067899,0,0.0,0.0,0.0,0.0,0.0,0.5642175078,0.0,0.0,0.0,0.0,0.0,0.0,0.0,1500,1750,0.0,0.0,40.0483898333,-88.2327366667,0.0,0.0,0.0,0.0,0.0,0.0,0.0,0.0,0.0,0.0,0.0,0,0.0,0.5,0.5990729928,0.5293620229,90.0,60.0,60.0,89.7633895874,121.0214157104,119.6845169067,50.2870025635,14.4295654297,12.970000267,0,2,25,1,97,187
85,1530633965745,554745, AUTO,0,39.9586186,-88.445067899,0,0.0,0.0,0.0,0.0,0.0,0.5570440888,0.0,0.0,0.0,0.0,0.0,0.0,0.0,1550,1750,0.0,0.0,40.0483898333,-88.2327366667,0.0,0.0,0.0,0.0,0.0,0.0,0.0,0.0,0.0,0.0,0.0,0,0.1000000238,0.5,0.5771848559,0.5369033217,90.0,60.0,60.0,85.7526855469,120.6394424438,117.7109985352,50.2870025635,14.4295654297,12.970000267,0,2,25,1,68,190
86,1530633965796,554796, AUTO,0,39.9586186,-88.445067899,0,0.0,0.0,0.0,0.0,0.0,0.5467437506,0.0,0.0,0.0,0.0,0.0,0.0,0.0,1510,1750,0.0,0.0,40.0483898333,-88.2327366667,0.0,0.0,0.0,0.0,0.0,0.0,0.0,0.0,0.0,0.0,0.0,0,0.019999980900000002,0.5,0.5659648776,0.5275226831000001,90.0,60.0,60.0,88.235496521,120.32112884520001,116.3740844727,50.2870025635,14.4295654297,12.970000267,0,2,25,1,54,192
87,1530633965846,554846, AUTO,0,39.9586186,-88.445067899,0,0.0,0.0,0.0,0.0,0.0,0.5560324192,0.0,0.0,0.0,0.0,0.0,0.0,0.0,1520,1750,0.0,0.0,40.0483898333,-88.2327366667,0.0,0.0,0.0,0.0,0.0,0.0,0.0,0.0,0.0,0.0,0.0,0,0.0399999619,0.5,0.569827497,0.5422374010000001,90.0,60.0,60.0,96.44789123540001,121.0214157104,116.81973266600001,50.2870025635,14.4295654297,12.970000267,0,2,25,1,68,195
88,1530633965897,554897, AUTO,0,39.9586186,-88.445067899,0,0.0,0.0,0.0,0.0,0.0,0.5608147383,0.0,0.0,0.0,0.0,0.0,0.0,0.0,1630,1750,0.0,0.0,40.0483898333,-88.2327366667,0.0,0.0,0.0,0.0,0.0,0.0,0.0,0.0,0.0,0.0,0.0,0,0.2599999905,0.5,0.5674363971,0.5541931391,90.0,60.0,60.0,94.5380325317,122.1673278809,117.5200195312,50.2870025635,14.4295654297,12.970000267,0,2,25,1,91,197
89,1530633965947,554947, AUTO,0,39.9586186,-88.445067899,0,0.0,0.0,0.0,0.0,0.0,0.5751615763,0.0,0.0,0.0,0.0,0.0,0.0,0.0,1540,1750,0.0,0.0,40.0483898333,-88.2327366667,0.0,0.0,0.0,0.0,0.0,0.0,0.0,0.0,0.0,0.0,0.0,0,0.0800000429,0.5,0.598521173,0.5518019795,90.0,60.0,60.0,89.63606262209998,120.6394424438,117.58367156979999,50.2870025635,14.4295654297,12.970000267,0,2,25,1,103,199
90,1530633965998,554998, AUTO,0,39.9586186,-88.445067899,0,0.0,0.0,0.0,0.0,0.0,0.5887726545,0.0,0.0,0.0,0.0,0.0,0.0,0.0,1520,1750,0.0,0.0,40.0483898333,-88.2327366667,0.0,0.0,0.0,0.0,0.0,0.0,0.0,0.0,0.0,0.0,0.0,0,0.0399999619,0.5,0.6671285629,0.5104168057,90.0,60.0,60.0,88.93578338620001,117.96564483639999,120.76677703860001,50.2870025635,14.4295654297,12.970000267,0,2,25,1,138,202
91,1530633966049,555049, AUTO,0,39.9586186,-88.445067899,0,0.0,0.0,0.0,0.0,0.0,0.5806795954999999,0.0,0.0,0.0,0.0,0.0,0.0,0.0,1540,1750,0.0,0.0,40.0483898333,-88.2327366667,0.0,0.0,0.0,0.0,0.0,0.0,0.0,0.0,0.0,0.0,0.0,0,0.0800000429,0.5,0.6588515639,0.5025076270000001,90.0,60.0,60.0,88.74479675290002,116.1831054688,123.75888824459999,50.2870025635,14.4295654297,12.970000267,0,2,25,1,102,205
92,1530633966099,555099, AUTO,0,39.9586186,-88.445067899,0,0.0,0.0,0.0,0.0,0.0,0.5751615763,0.0,0.0,0.0,0.0,0.0,0.0,0.0,1480,1750,0.0,0.0,40.0483898333,-88.2327366667,0.0,0.0,0.0,0.0,0.0,0.0,0.0,0.0,0.0,0.0,0.0,0,-0.040000021499999996,0.5,0.6474476457,0.5028755068999999,90.0,60.0,60.0,87.7262039185,117.5200195312,124.7138137817,50.2870025635,14.4295654297,12.970000267,0,2,25,1,128,207
93,1530633966150,555150, AUTO,0,39.9586186,-88.445067899,0,0.0,0.0,0.0,0.0,0.0,0.5697355270000001,0.0,0.0,0.0,0.0,0.0,0.0,0.0,1520,1750,0.0,0.0,40.0483898333,-88.2327366667,0.0,0.0,0.0,0.0,0.0,0.0,0.0,0.0,0.0,0.0,0.0,0,0.0399999619,0.5,0.6266631484,0.5128079653000001,90.0,60.0,60.0,90.5273361206,119.87550354,124.14086151120001,50.2870025635,14.4295654297,12.970000267,0,2,25,1,148,210
94,1530633966200,555200, AUTO,0,39.9586186,-88.445067899,0,0.0,0.0,0.0,0.0,0.0,0.5575039386999999,0.0,0.0,0.0,0.0,0.0,0.0,0.0,1500,1750,0.0,0.0,40.0483898333,-88.2327366667,0.0,0.0,0.0,0.0,0.0,0.0,0.0,0.0,0.0,0.0,0.0,0,0.0,0.5,0.5972337127,0.5177741647,90.0,60.0,60.0,93.07381439209999,121.0850753784,119.87550354,50.2870025635,14.4295654297,12.970000267,0,2,25,1,159,212
95,1530633966251,555251, AUTO,0,39.9586186,-88.445067899,0,0.0,0.0,0.0,0.0,0.0,0.5420534611,0.0,0.0,0.0,0.0,0.0,0.0,0.0,1480,1750,0.0,0.0,40.0483898333,-88.2327366667,0.0,0.0,0.0,0.0,0.0,0.0,0.0,0.0,0.0,0.0,0.0,0,-0.040000021499999996,0.5,0.5742419362,0.5098650455,90.0,60.0,60.0,92.88282775879999,122.3583145142,118.7932434082,50.2870025635,14.4295654297,12.970000267,0,2,25,1,149,215
96,1530633966301,555301, AUTO,0,39.9586186,-88.445067899,0,0.0,0.0,0.0,0.0,0.0,0.5321210623,0.0,0.0,0.0,0.0,0.0,0.0,0.0,1540,1750,0.0,0.0,40.0483898333,-88.2327366667,0.0,0.0,0.0,0.0,0.0,0.0,0.0,0.0,0.0,0.0,0.0,0,0.0800000429,0.5,0.5479393601,0.5163027048,90.0,60.0,60.0,88.1081771851,123.0586013794,116.6924057007,50.2870025635,14.4295654297,12.970000267,0,2,25,1,154,217
97,1530633966352,555352, AUTO,0,39.9586186,-88.445067899,0,0.0,0.0,0.0,0.0,0.0,0.5380988717,0.0,0.0,0.0,0.0,0.0,0.0,0.0,1530,1750,0.0,0.0,40.0483898333,-88.2327366667,0.0,0.0,0.0,0.0,0.0,0.0,0.0,0.0,0.0,0.0,0.0,0,0.059999942800000004,0.5,0.5394783616,0.5367193818,90.0,60.0,60.0,87.7898712158,121.467048645,115.67381286620001,50.2870025635,14.4295654297,12.970000267,0,2,25,1,158,220
98,1530633966403,555403, AUTO,0,39.9586186,-88.445067899,0,0.0,0.0,0.0,0.0,0.0,0.5202572942,0.0,0.0,0.0,0.0,0.0,0.0,0.0,1490,1750,0.0,0.0,40.0483923333,-88.2327406667,0.0,0.0,0.0,0.0,0.0,0.0,0.0,0.0,0.0,0.0,0.0,0,-0.019999980900000002,0.5,0.5175902246999999,0.5229243635999999,90.0,60.0,60.0,93.58310699459999,119.1752166748,116.3104324341,50.2870025635,14.4295654297,12.970000267,0,2,25,1,131,222
99,1530633966453,555453, AUTO,0,39.9586186,-88.445067899,0,0.0,0.0,0.0,0.0,0.0,0.5312013626,0.0,0.0,0.0,0.0,0.0,0.0,0.0,1540,1750,0.0,0.0,40.0483923333,-88.2327406667,0.0,0.0,0.0,0.0,0.0,0.0,0.0,0.0,0.0,0.0,0.0,0,0.0800000429,0.5,0.5205332040999999,0.5418695807,90.0,60.0,60.0,93.39212036129999,118.53860473629999,120.00283050540001,50.2870025635,14.4295654297,12.970000267,0,2,25,1,156,225
100,1530633966504,555504, AUTO,0,39.9586186,-88.445067899,0,0.0,0.0,0.0,0.0,0.0,0.5489509702,0.0,0.0,0.0,0.0,0.0,0.0,0.0,1510,1750,0.0,0.0,40.0483923333,-88.2327406667,0.0,0.0,0.0,0.0,0.0,0.0,0.0,0.0,0.0,0.0,0.0,0,0.019999980900000002,0.5,0.5621022582,0.5357996821000001,90.0,60.0,60.0,88.4901504517,117.9019851685,122.6766281128,50.2870025635,14.4295654297,12.970000267,0,2,25,1,139,227
101,1530633966554,555554, AUTO,0,39.9586186,-88.445067899,0,0.0,0.0,0.0,0.0,0.0,0.5304656029,0.0,0.0,0.0,0.0,0.0,0.0,0.0,1510,1750,0.0,0.0,40.0483923333,-88.2327406667,0.0,0.0,0.0,0.0,0.0,0.0,0.0,0.0,0.0,0.0,0.0,0,0.019999980900000002,0.5,0.5477554202,0.5131758451,90.0,60.0,60.0,86.26197814940001,119.3662033081,122.7402877808,50.2870025635,14.410926818800002,7.8599996566999994,0,2,25,1,81,230
102,1530633966605,555605, AUTO,0,39.9586186,-88.445067899,0,0.0,0.0,0.0,0.0,0.0,0.5478473902000001,0.0,0.0,0.0,0.0,0.0,0.0,0.0,1490,1750,0.0,0.0,40.0483923333,-88.2327406667,0.0,0.0,0.0,0.0,0.0,0.0,0.0,0.0,0.0,0.0,0.0,0,-0.019999980900000002,0.5,0.5690917373,0.5266029835,90.0,60.0,60.0,88.6174697876,119.7481765747,123.0586013794,50.2870025635,14.410926818800002,7.8599996566999994,0,2,25,1,74,232
103,1530633966656,555656, AUTO,0,39.9586186,-88.445067899,0,0.0,0.0,0.0,0.0,0.0,0.5498706102,0.0,0.0,0.0,0.0,0.0,0.0,0.0,1490,1750,0.0,0.0,40.0483923333,-88.2327406667,0.0,0.0,0.0,0.0,0.0,0.0,0.0,0.0,0.0,0.0,0.0,0,-0.019999980900000002,0.5,0.5694596171,0.5302816629,90.0,60.0,60.0,94.729019165,121.7217025757,121.2760620117,50.2870025635,14.410926818800002,7.8599996566999994,0,2,25,1,151,235
104,1530633966706,555706, AUTO,0,39.9586186,-88.445067899,0,0.0,0.0,0.0,0.0,0.0,0.5495947599000001,0.0,0.0,0.0,0.0,0.0,0.0,0.0,1510,1750,0.0,0.0,40.0483923333,-88.2327406667,0.0,0.0,0.0,0.0,0.0,0.0,0.0,0.0,0.0,0.0,0.0,0,0.019999980900000002,0.5,0.5828868151,0.5163027048,90.0,60.0,60.0,95.3019790649,122.3583145142,119.1752166748,50.2870025635,14.410926818800002,7.8599996566999994,0,2,25,1,143,237
105,1530633966757,555757, AUTO,0,39.9586186,-88.445067899,0,0.0,0.0,0.0,0.0,0.0,0.5660568476,0.0,0.0,0.0,0.0,0.0,0.0,0.0,1530,1750,0.0,0.0,40.0483923333,-88.2327406667,0.0,0.0,0.0,0.0,0.0,0.0,0.0,0.0,0.0,0.0,0.0,0,0.059999942800000004,0.5,0.5961300731,0.5359836221000001,90.0,60.0,60.0,88.4901504517,120.83042907709999,116.565071106,50.2870025635,14.410926818800002,7.8599996566999994,0,2,25,1,203,240
106,1530633966807,555807, AUTO,0,39.9586186,-88.445067899,0,0.0,0.0,0.0,0.0,0.0,0.5712069868999999,0.0,0.0,0.0,0.0,0.0,0.0,0.0,1500,1750,0.0,0.0,40.0483923333,-88.2327406667,0.0,0.0,0.0,0.0,0.0,0.0,0.0,0.0,0.0,0.0,0.0,0,0.0,0.5,0.6025677322999999,0.5398462414999999,90.0,60.0,60.0,88.2991638184,118.6659317017,117.6473312378,50.2870025635,14.410926818800002,7.8599996566999994,0,2,25,1,179,242
107,1530633966858,555858, AUTO,0,39.9586186,-88.445067899,0,0.0,0.0,0.0,0.0,0.0,0.5810474753,0.0,0.0,0.0,0.0,0.0,0.0,0.0,1340,1750,0.0,0.0,40.0483923333,-88.2327406667,0.0,0.0,0.0,0.0,0.0,0.0,0.0,0.0,0.0,0.0,0.0,0,-0.3199999928,0.5,0.6097412109,0.5523537397,90.0,60.0,60.0,87.7262039185,118.72959136959999,118.9205703735,50.2870025635,14.410926818800002,7.8599996566999994,0,2,25,1,196,245
108,1530633966908,555908, AUTO,0,39.9586186,-88.445067899,0,0.0,0.0,0.0,0.0,0.0,0.5513421297,0.0,0.0,0.0,0.0,0.0,0.0,0.0,1440,1750,0.0,0.0,40.0483923333,-88.2327406667,0.0,0.0,0.0,0.0,0.0,0.0,0.0,0.0,0.0,0.0,0.0,0,-0.1200000048,0.5,0.5727704167000001,0.5299137831,90.0,60.0,60.0,88.93578338620001,120.76677703860001,118.411277771,50.2870025635,14.410926818800002,7.8599996566999994,0,2,25,1,170,247
109,1530633966959,555959, AUTO,0,39.9586186,-88.445067899,0,0.0,0.0,0.0,0.0,0.0,0.5295460224,0.0,0.0,0.0,0.0,0.0,0.0,0.0,1530,1750,0.0,0.0,40.0483923333,-88.2327406667,0.0,0.0,0.0,0.0,0.0,0.0,0.0,0.0,0.0,0.0,0.0,0,0.059999942800000004,0.5,0.5080257058,0.5510662794,90.0,60.0,60.0,93.7104263306,122.5493011475,116.62874603270001,50.2870025635,14.410926818800002,7.8599996566999994,0,2,25,1,180,250
110,1530633967010,556010, AUTO,0,39.9586186,-88.445067899,0,0.0,0.0,0.0,0.0,0.0,0.5279824734,0.0,0.0,0.0,0.0,0.0,0.0,0.0,1300,1750,0.0,0.0,40.0483923333,-88.2327406667,0.0,0.0,0.0,0.0,0.0,0.0,0.0,0.0,0.0,0.0,0.0,0,-0.3999999762,0.5,0.5032433867,0.5527216196,90.0,60.0,60.0,92.69184112549999,122.8676147461,118.6659317017,50.2870025635,14.410926818800002,7.8599996566999994,0,2,25,1,196,252
111,1530633967060,556060, AUTO,0,39.9586186,-88.445067899,0,0.0,0.0,0.0,0.0,0.0,0.5609986782,0.0,0.0,0.0,0.0,0.0,0.0,0.0,1530,1750,0.0,0.0,40.0483923333,-88.2327406667,0.0,0.0,0.0,0.0,0.0,0.0,0.0,0.0,0.0,0.0,0.0,0,0.059999942800000004,0.5,0.5486750603,0.5733222365,90.0,60.0,60.0,89.8907089233,121.7853622437,118.2839584351,50.2870025635,14.410926818800002,7.8599996566999994,0,2,25,1,186,255
112,1530633967111,556111, AUTO,0,39.9586186,-88.445067899,0,0.0,0.0,0.0,0.0,0.0,0.5547448993,0.0,0.0,0.0,0.0,0.0,0.0,0.0,1610,1750,0.0,0.0,40.0483923333,-88.2327406667,0.0,0.0,0.0,0.0,0.0,0.0,0.0,0.0,0.0,0.0,0.0,0,0.22000002859999998,0.5,0.46811199189999997,0.6413778067,90.0,60.0,60.0,90.9729614258,119.3025436401,119.3025436401,50.2870025635,14.410926818800002,7.8599996566999994,0,2,25,1,208,257
113,1530633967161,556161, AUTO,0,39.9586186,-88.445067899,0,0.0,0.0,0.0,0.0,0.0,0.5602629185,0.0,0.0,0.0,0.0,0.0,0.0,0.0,1410,1750,0.0,0.0,40.0483923333,-88.2327406667,0.0,0.0,0.0,0.0,0.0,0.0,0.0,0.0,0.0,0.0,0.0,0,-0.18000000719999998,0.5,0.445856005,0.6746698618000001,90.0,60.0,60.0,90.01803588870001,118.411277771,120.7031021118,50.2870025635,14.410926818800002,7.8599996566999994,0,2,25,1,135,260
114,1530633967216,556216, AUTO,0,39.9586186,-88.445067899,0,0.0,0.0,0.0,0.0,0.0,0.5641255379,0.0,0.0,0.0,0.0,0.0,0.0,0.0,1500,1750,0.0,0.0,40.0483923333,-88.2327406667,0.0,0.0,0.0,0.0,0.0,0.0,0.0,0.0,0.0,0.0,0.0,0,0.0,0.5,0.4701352715,0.6581158042,90.0,60.0,60.0,89.3814163208,117.96564483639999,122.4219894409,50.2870025635,14.410926818800002,7.8599996566999994,0,2,25,1,101,263
115,1530633967267,556267, AUTO,0,39.9586186,-88.445067899,0,0.0,0.0,0.0,0.0,0.0,0.529086113,0.0,0.0,0.0,0.0,0.0,0.0,0.0,1590,1750,0.0,0.0,40.0483923333,-88.2327406667,0.0,0.0,0.0,0.0,0.0,0.0,0.0,0.0,0.0,0.0,0.0,0,0.1799999475,0.5,0.4408897758,0.6172825098,90.0,60.0,60.0,89.82704925540001,118.7932434082,123.6952209473,50.2870025635,14.410926818800002,7.8599996566999994,0,2,25,1,144,265
116,1530633967317,556317, AUTO,0,39.9586186,-88.445067899,0,0.0,0.0,0.0,0.0,0.0,0.5253155231000001,0.0,0.0,0.0,0.0,0.0,0.0,0.0,1530,1750,0.0,0.0,40.0483923333,-88.2327406667,0.0,0.0,0.0,0.0,0.0,0.0,0.0,0.0,0.0,0.0,0.0,0,0.059999942800000004,0.5,0.4791480303,0.5714829564,90.0,60.0,60.0,88.9994430542,118.856918335,124.5228347778,50.2870025635,14.410926818800002,7.8599996566999994,0,2,25,1,181,268
117,1530633967368,556368, AUTO,0,39.9586186,-88.445067899,0,0.0,0.0,0.0,0.0,0.0,0.5451803803,0.0,0.0,0.0,0.0,0.0,0.0,0.0,1480,1750,0.0,0.0,40.0483923333,-88.2327406667,0.0,0.0,0.0,0.0,0.0,0.0,0.0,0.0,0.0,0.0,0.0,0,-0.040000021499999996,0.5,0.5648612976,0.5254994631000001,90.0,60.0,60.0,88.1718444824,119.3025436401,121.84902954100001,50.2870025635,14.410926818800002,7.8599996566999994,0,2,25,1,205,270
118,1530633967418,556418, AUTO,0,39.9586186,-88.445067899,0,0.0,0.0,0.0,0.0,0.0,0.5426971911999999,0.0,0.0,0.0,0.0,0.0,0.0,0.0,1500,1750,0.0,0.0,40.0483923333,-88.2327406667,0.0,0.0,0.0,0.0,0.0,0.0,0.0,0.0,0.0,0.0,0.0,0,0.0,0.5,0.5492268801,0.536167562,90.0,60.0,60.0,90.20902252200001,119.1115570068,119.87550354,50.2870025635,14.410926818800002,7.8599996566999994,0,2,25,1,173,273
119,1530633967469,556469, AUTO,0,39.9586186,-88.445067899,0,0.0,0.0,0.0,0.0,0.0,0.5503305197,0.0,0.0,0.0,0.0,0.0,0.0,0.0,1510,1750,0.0,0.0,40.0483901667,-88.2327363333,0.0,0.0,0.0,0.0,0.0,0.0,0.0,0.0,0.0,0.0,0.0,0,0.019999980900000002,0.5,0.5359836221000001,0.5646773577,90.0,60.0,60.0,92.81916046139999,120.19381713870001,117.96564483639999,50.2870025635,14.410926818800002,7.8599996566999994,0,2,25,1,161,275
120,1530633967520,556520, AUTO,0,39.9586186,-88.445067899,0,0.0,0.0,0.0,0.0,0.0,0.5752535462,0.0,0.0,0.0,0.0,0.0,0.0,0.0,1500,1750,0.0,0.0,40.0483901667,-88.2327363333,0.0,0.0,0.0,0.0,0.0,0.0,0.0,0.0,0.0,0.0,0.0,0,0.0,0.5,0.5564002991,0.5941067934,90.0,60.0,60.0,91.1639480591,121.2124023438,116.81973266600001,50.2870025635,14.410926818800002,7.8599996566999994,0,2,25,1,172,278
121,1530633967570,556570, AUTO,0,39.9586186,-88.445067899,0,0.0,0.0,0.0,0.0,0.0,0.5703793168,0.0,0.0,0.0,0.0,0.0,0.0,0.0,1520,1750,0.0,0.0,40.0483901667,-88.2327363333,0.0,0.0,0.0,0.0,0.0,0.0,0.0,0.0,0.0,0.0,0.0,0,0.0399999619,0.5,0.5705632567,0.5701953769,90.0,60.0,60.0,90.01803588870001,120.51211547850001,116.7560577393,50.2870025635,14.3945293427,17.2599983215,0,2,25,1,173,280
122,1530633967621,556621, AUTO,0,39.9586186,-88.445067899,0,0.0,0.0,0.0,0.0,0.0,0.5657809973,0.0,0.0,0.0,0.0,0.0,0.0,0.0,1480,1750,0.0,0.0,40.0483901667,-88.2327363333,0.0,0.0,0.0,0.0,0.0,0.0,0.0,0.0,0.0,0.0,0.0,0,-0.040000021499999996,0.5,0.5667006373,0.5648612976,90.0,60.0,60.0,91.800567627,120.9577560425,116.7560577393,50.2870025635,14.3945293427,17.2599983215,0,2,25,1,145,283
123,1530633967671,556671, AUTO,0,39.9586186,-88.445067899,0,0.0,0.0,0.0,0.0,0.0,0.5822430849,0.0,0.0,0.0,0.0,0.0,0.0,0.0,1520,1750,0.0,0.0,40.0483901667,-88.2327363333,0.0,0.0,0.0,0.0,0.0,0.0,0.0,0.0,0.0,0.0,0.0,0,0.0399999619,0.5,0.575897336,0.5885887742,90.0,60.0,60.0,90.9729614258,120.6394424438,117.8383178711,50.2870025635,14.3945293427,17.2599983215,0,2,25,1,151,285
124,1530633967722,556722, AUTO,0,39.9586186,-88.445067899,0,0.0,0.0,0.0,0.0,0.0,0.5937389135,0.0,0.0,0.0,0.0,0.0,0.0,0.0,1620,1750,0.0,0.0,40.0483901667,-88.2327363333,0.0,0.0,0.0,0.0,0.0,0.0,0.0,0.0,0.0,0.0,0.0,0,0.2400000095,0.5,0.5944746733,0.5930032134000001,90.0,60.0,60.0,88.93578338620001,121.2760620117,118.856918335,50.2870025635,14.3945293427,17.2599983215,0,2,25,1,149,288
125,1530633967773,556773, AUTO,0,39.9586186,-88.445067899,0,0.0,0.0,0.0,0.0,0.0,0.5703793168,0.0,0.0,0.0,0.0,0.0,0.0,0.0,1740,1750,0.0,0.0,40.0483901667,-88.2327363333,0.0,0.0,0.0,0.0,0.0,0.0,0.0,0.0,0.0,0.0,0.0,0,0.48000001909999995,0.5,0.5694596171,0.5712990165,90.0,60.0,60.0,88.681137085,121.0214157104,120.83042907709999,50.2870025635,14.3945293427,17.2599983215,0,2,25,1,167,290
126,1530633967823,556823, AUTO,0,39.9586186,-88.445067899,0,0.0,0.0,0.0,0.0,0.0,0.5573199986999999,0.0,0.0,0.0,0.0,0.0,0.0,0.0,1540,1750,0.0,0.0,40.0483901667,-88.2327363333,0.0,0.0,0.0,0.0,0.0,0.0,0.0,0.0,0.0,0.0,0.0,0,0.0800000429,0.5,0.5633898377000001,0.5512501597,90.0,60.0,60.0,90.5909881592,119.5571899414,121.1487426758,50.2870025635,14.3945293427,17.2599983215,0,2,25,1,105,293
127,1530633967874,556874, AUTO,0,39.9586186,-88.445067899,0,0.0,0.0,0.0,0.0,0.0,0.5437089205,0.0,0.0,0.0,0.0,0.0,0.0,0.0,1400,1750,0.0,0.0,40.0483901667,-88.2327363333,0.0,0.0,0.0,0.0,0.0,0.0,0.0,0.0,0.0,0.0,0.0,0,-0.1999999881,0.5,0.5591593385,0.5282584429,90.0,60.0,60.0,90.3363494873,119.6845169067,121.5307159424,50.2870025635,14.3945293427,17.2599983215,0,2,25,1,146,295
128,1530633967924,556924, AUTO,0,39.9586186,-88.445067899,0,0.0,0.0,0.0,0.0,0.0,0.5409498215,0.0,0.0,0.0,0.0,0.0,0.0,0.0,1490,1750,0.0,0.0,40.0483901667,-88.2327363333,0.0,0.0,0.0,0.0,0.0,0.0,0.0,0.0,0.0,0.0,0.0,0,-0.019999980900000002,0.5,0.5332246423,0.5486750603,90.0,60.0,60.0,90.01803588870001,119.62085723879999,121.59437561040001,50.2870025635,14.3945293427,17.2599983215,0,2,25,1,166,298
129,1530633967975,556975, AUTO,0,39.9586186,-88.445067899,0,0.0,0.0,0.0,0.0,0.0,0.5311093926,0.0,0.0,0.0,0.0,0.0,0.0,0.0,1490,1750,0.0,0.0,40.0483901667,-88.2327363333,0.0,0.0,0.0,0.0,0.0,0.0,0.0,0.0,0.0,0.0,0.0,0,-0.019999980900000002,0.5,0.4980932474,0.5641255379,90.0,60.0,60.0,90.3363494873,118.2839584351,122.0400161743,50.2870025635,14.3945293427,17.2599983215,0,2,25,1,129,300
130,1530633968025,557025, AUTO,0,39.9586186,-88.445067899,0,0.0,0.0,0.0,0.0,0.0,0.5291780829,0.0,0.0,0.0,0.0,0.0,0.0,0.0,1510,1750,0.0,0.0,40.0483901667,-88.2327363333,0.0,0.0,0.0,0.0,0.0,0.0,0.0,0.0,0.0,0.0,0.0,0,0.019999980900000002,0.5,0.5291780829,0.5291780829,90.0,60.0,60.0,92.0552215576,118.2839584351,122.4219894409,50.2870025635,14.3945293427,17.2599983215,0,2,25,1,131,303
131,1530633968076,557076, AUTO,0,39.9586186,-88.445067899,0,0.0,0.0,0.0,0.0,0.0,0.5438928604,0.0,0.0,0.0,0.0,0.0,0.0,0.0,1470,1750,0.0,0.0,40.0483901667,-88.2327363333,0.0,0.0,0.0,0.0,0.0,0.0,0.0,0.0,0.0,0.0,0.0,0,-0.0600000024,0.5,0.5538252592,0.5339604020000001,90.0,60.0,60.0,93.1374740601,117.6473312378,123.8225479126,50.2870025635,14.3945293427,17.2599983215,0,2,25,1,106,306
132,1530633968127,557127, AUTO,0,39.9586186,-88.445067899,0,0.0,0.0,0.0,0.0,0.0,0.5496867299,0.0,0.0,0.0,0.0,0.0,0.0,0.0,1520,1750,0.0,0.0,40.0483901667,-88.2327363333,0.0,0.0,0.0,0.0,0.0,0.0,0.0,0.0,0.0,0.0,0.0,0,0.0399999619,0.5,0.5461000203999999,0.5532734394,90.0,60.0,60.0,91.5459213257,119.62085723879999,120.9577560425,50.2870025635,14.3945293427,17.2599983215,0,2,25,1,164,308
133,1530633968177,557177, AUTO,0,39.9586186,-88.445067899,0,0.0,0.0,0.0,0.0,0.0,0.5557565689,0.0,0.0,0.0,0.0,0.0,0.0,0.0,1490,1750,0.0,0.0,40.0483901667,-88.2327363333,0.0,0.0,0.0,0.0,0.0,0.0,0.0,0.0,0.0,0.0,0.0,0,-0.019999980900000002,0.5,0.5506983995,0.5608147383,90.0,60.0,60.0,89.63606262209998,120.13014221190001,119.4935302734,50.2870025635,14.3945293427,17.2599983215,0,2,25,1,163,310
134,1530633968228,557228, AUTO,0,39.9586186,-88.445067899,0,0.0,0.0,0.0,0.0,0.0,0.5550208092,0.0,0.0,0.0,0.0,0.0,0.0,0.0,1500,1750,0.0,0.0,40.0483901667,-88.2327363333,0.0,0.0,0.0,0.0,0.0,0.0,0.0,0.0,0.0,0.0,0.0,0,0.0,0.5,0.5709311365999999,0.5391104817,90.0,60.0,60.0,88.93578338620001,120.19381713870001,119.2388916016,50.2870025635,14.3945293427,17.2599983215,0,2,25,1,155,313
135,1530633968278,557278, AUTO,0,39.9586186,-88.445067899,0,0.0,0.0,0.0,0.0,0.0,0.54830724,0.0,0.0,0.0,0.0,0.0,0.0,0.0,1510,1750,0.0,0.0,40.0483901667,-88.2327363333,0.0,0.0,0.0,0.0,0.0,0.0,0.0,0.0,0.0,0.0,0.0,0,0.019999980900000002,0.5,0.5611826181,0.5354318619,90.0,60.0,60.0,88.8721160889,121.2124023438,118.15663146969999,50.2870025635,14.3945293427,17.2599983215,0,2,25,1,153,315
136,1530633968329,557329, AUTO,0,39.9586186,-88.445067899,0,0.0,0.0,0.0,0.0,0.0,0.5489510298,0.0,0.0,0.0,0.0,0.0,0.0,0.0,1530,1750,0.0,0.0,40.0483901667,-88.2327363333,0.0,0.0,0.0,0.0,0.0,0.0,0.0,0.0,0.0,0.0,0.0,0,0.059999942800000004,0.5,0.5549288988000001,0.5429731011,90.0,60.0,60.0,90.5909881592,122.29466247559999,116.88338470459999,50.2870025635,14.3945293427,17.2599983215,0,2,25,1,153,318
137,1530633968380,557380, AUTO,0,39.9586186,-88.445067899,0,0.0,0.0,0.0,0.0,0.0,0.5740579963,0.0,0.0,0.0,0.0,0.0,0.0,0.0,1550,1750,0.0,0.0,40.0483901667,-88.2327363333,0.0,0.0,0.0,0.0,0.0,0.0,0.0,0.0,0.0,0.0,0.0,0,0.1000000238,0.5,0.5878530741,0.5602629185,90.0,60.0,60.0,90.5273361206,121.976348877,116.43775939940001,50.2870025635,14.3945293427,17.2599983215,0,2,25,1,172,321
138,1530633968430,557430, AUTO,0,39.9586186,-88.445067899,0,0.0,0.0,0.0,0.0,0.0,0.5916236639,0.0,0.0,0.0,0.0,0.0,0.0,0.0,1510,1750,0.0,0.0,40.0483901667,-88.2327363333,0.0,0.0,0.0,0.0,0.0,0.0,0.0,0.0,0.0,0.0,0.0,0,0.019999980900000002,0.5,0.6303418279,0.5529055595,90.0,60.0,60.0,90.4636688232,120.00283050540001,118.0929718018,50.2870025635,14.3945293427,17.2599983215,0,2,25,1,170,323
139,1530633968481,557481, AUTO,0,39.9586186,-88.445067899,0,0.0,0.0,0.0,0.0,0.0,0.5817831754999999,0.0,0.0,0.0,0.0,0.0,0.0,0.0,1490,1750,0.0,0.0,40.0483901667,-88.2327365,0.0,0.0,0.0,0.0,0.0,0.0,0.0,0.0,0.0,0.0,0.0,0,-0.019999980900000002,0.5,0.6213290095,0.5422374010000001,90.0,60.0,60.0,91.2276153564,118.53860473629999,119.3662033081,50.2870025635,14.3945293427,17.2599983215,0,2,25,1,143,326
140,1530633968531,557531, AUTO,0,39.9586186,-88.445067899,0,0.0,0.0,0.0,0.0,0.0,0.5837145448,0.0,0.0,0.0,0.0,0.0,0.0,0.0,1500,1750,0.0,0.0,40.0483901667,-88.2327365,0.0,0.0,0.0,0.0,0.0,0.0,0.0,0.0,0.0,0.0,0.0,0,0.0,0.5,0.6141556501,0.5532734394,90.0,60.0,60.0,91.4186019897,118.72959136959999,121.84902954100001,50.2870025635,14.3766756058,11.379999160799999,0,2,25,1,131,328
141,1530633968582,557582, AUTO,0,39.9586186,-88.445067899,0,0.0,0.0,0.0,0.0,0.0,0.5961300135000001,0.0,0.0,0.0,0.0,0.0,0.0,0.0,1380,1750,0.0,0.0,40.0483901667,-88.2327365,0.0,0.0,0.0,0.0,0.0,0.0,0.0,0.0,0.0,0.0,0.0,0,-0.2400000095,0.5,0.6152591705,0.577000916,90.0,60.0,60.0,90.8456420898,119.87550354,122.6129760742,50.2870025635,14.3766756058,11.379999160799999,0,2,25,1,97,331
142,1530633968633,557633, AUTO,0,39.9586186,-88.445067899,0,0.0,0.0,0.0,0.0,0.0,0.5819671154,0.0,0.0,0.0,0.0,0.0,0.0,0.0,1500,1750,0.0,0.0,40.0483901667,-88.2327365,0.0,0.0,0.0,0.0,0.0,0.0,0.0,0.0,0.0,0.0,0.0,0,0.0,0.5,0.6033034921,0.5606307983,90.0,60.0,60.0,90.0816955566,120.4484634399,122.0400161743,50.2870025635,14.3766756058,11.379999160799999,0,2,25,1,102,333
143,1530633968683,557683, AUTO,0,39.9586186,-88.445067899,0,0.0,0.0,0.0,0.0,0.0,0.5742418765999999,0.0,0.0,0.0,0.0,0.0,0.0,0.0,1490,1750,0.0,0.0,40.0483901667,-88.2327365,0.0,0.0,0.0,0.0,0.0,0.0,0.0,0.0,0.0,0.0,0.0,0,-0.019999980900000002,0.5,0.5597110987,0.5887727141,90.0,60.0,60.0,89.82704925540001,120.38480377200001,121.5307159424,50.2870025635,14.3766756058,11.379999160799999,0,2,25,1,130,336
144,1530633968734,557734, AUTO,0,39.9586186,-88.445067899,0,0.0,0.0,0.0,0.0,0.0,0.5610906482,0.0,0.0,0.0,0.0,0.0,0.0,0.0,1520,1750,0.0,0.0,40.0483901667,-88.2327365,0.0,0.0,0.0,0.0,0.0,0.0,0.0,0.0,0.0,0.0,0.0,0,0.0399999619,0.5,0.5586075187,0.5635737777000001,90.0,60.0,60.0,88.8721160889,120.38480377200001,120.7031021118,50.2870025635,14.3766756058,11.379999160799999,0,2,25,1,119,338
145,1530633968784,557784, AUTO,0,39.9586186,-88.445067899,0,0.0,0.0,0.0,0.0,0.0,0.5607227087,0.0,0.0,0.0,0.0,0.0,0.0,0.0,1520,1750,0.0,0.0,40.0483901667,-88.2327365,0.0,0.0,0.0,0.0,0.0,0.0,0.0,0.0,0.0,0.0,0.0,0,0.0399999619,0.5,0.5619183182999999,0.5595271587,90.0,60.0,60.0,89.3814163208,120.32112884520001,120.32112884520001,50.2870025635,14.3766756058,11.379999160799999,0,2,25,1,129,341
146,1530633968835,557835, AUTO,0,39.9586186,-88.445067899,0,0.0,0.0,0.0,0.0,0.0,0.5592513084,0.0,0.0,0.0,0.0,0.0,0.0,0.0,1460,1750,0.0,0.0,40.0483901667,-88.2327365,0.0,0.0,0.0,0.0,0.0,0.0,0.0,0.0,0.0,0.0,0.0,0,-0.07999998330000001,0.5,0.5727704167000001,0.5457321405,90.0,60.0,60.0,91.4186019897,120.00283050540001,120.2574768066,50.2870025635,14.3766756058,11.379999160799999,0,2,25,1,134,343
147,1530633968886,557886, AUTO,0,39.9586186,-88.445067899,0,0.0,0.0,0.0,0.0,0.0,0.5793001056,0.0,0.0,0.0,0.0,0.0,0.0,0.0,1530,1750,0.0,0.0,40.0483901667,-88.2327365,0.0,0.0,0.0,0.0,0.0,0.0,0.0,0.0,0.0,0.0,0.0,0,0.059999942800000004,0.5,0.5825189352000001,0.5760812759,90.0,60.0,60.0,91.9279022217,120.19381713870001,120.38480377200001,50.2870025635,14.3766756058,11.379999160799999,0,2,25,1,131,346
148,1530633968936,557936, AUTO,0,39.9586186,-88.445067899,0,0.0,0.0,0.0,0.0,0.0,0.5774607657999999,0.0,0.0,0.0,0.0,0.0,0.0,0.0,1460,1750,0.0,0.0,40.0483901667,-88.2327365,0.0,0.0,0.0,0.0,0.0,0.0,0.0,0.0,0.0,0.0,0.0,0,-0.07999998330000001,0.5,0.5863815546,0.5685399175,90.0,60.0,60.0,92.11888122559999,120.51211547850001,119.81184387209998,50.2870025635,14.3766756058,11.379999160799999,0,2,25,1,141,348
149,1530633968987,557987, AUTO,0,39.9586186,-88.445067899,0,0.0,0.0,0.0,0.0,0.0,0.575805366,0.0,0.0,0.0,0.0,0.0,0.0,0.0,1560,1750,0.0,0.0,40.0483901667,-88.2327365,0.0,0.0,0.0,0.0,0.0,0.0,0.0,0.0,0.0,0.0,0.0,0,0.1200000048,0.5,0.575897336,0.5757133960999999,90.0,60.0,60.0,91.8642349243,120.51211547850001,119.62085723879999,50.2870025635,14.3766756058,11.379999160799999,0,2,25,1,102,351
150,1530633969037,558037, AUTO,0,39.9586186,-88.445067899,0,0.0,0.0,0.0,0.0,0.0,0.5921754837,0.0,0.0,0.0,0.0,0.0,0.0,0.0,1470,1750,0.0,0.0,40.0483901667,-88.2327365,0.0,0.0,0.0,0.0,0.0,0.0,0.0,0.0,0.0,0.0,0.0,0,-0.0600000024,0.5,0.5784723759,0.6058785915,90.0,60.0,60.0,87.4078979492,119.4935302734,120.51211547850001,50.2870025635,14.3766756058,11.379999160799999,0,2,25,1,101,353
151,1530633969088,558088, AUTO,0,39.9586186,-88.445067899,0,0.0,0.0,0.0,0.0,0.0,0.605602622,0.0,0.0,0.0,0.0,0.0,0.0,0.0,1490,1750,0.0,0.0,40.0483901667,-88.2327365,0.0,0.0,0.0,0.0,0.0,0.0,0.0,0.0,0.0,0.0,0.0,0,-0.019999980900000002,0.5,0.6001766324000001,0.6110286713,90.0,60.0,60.0,88.0445098877,118.856918335,121.2124023438,50.2870025635,14.3766756058,11.379999160799999,0,2,25,1,112,356
152,1530633969138,558138, AUTO,0,39.9586186,-88.445067899,0,0.0,0.0,0.0,0.0,0.0,0.6090973615999999,0.0,0.0,0.0,0.0,0.0,0.0,0.0,1490,1750,0.0,0.0,40.0483901667,-88.2327365,0.0,0.0,0.0,0.0,0.0,0.0,0.0,0.0,0.0,0.0,0.0,0,-0.019999980900000002,0.5,0.5979693532,0.6202254295,90.0,60.0,60.0,91.10028839110001,119.2388916016,120.9577560425,50.2870025635,14.3766756058,11.379999160799999,0,2,25,1,136,358
153,1530633969189,558189, AUTO,0,39.9586186,-88.445067899,0,0.0,0.0,0.0,0.0,0.0,0.6093733311,0.0,0.0,0.0,0.0,0.0,0.0,0.0,1500,1750,0.0,0.0,40.0483901667,-88.2327365,0.0,0.0,0.0,0.0,0.0,0.0,0.0,0.0,0.0,0.0,0.0,0,0.0,0.5,0.6016480922999999,0.6170985699,90.0,60.0,60.0,89.9543762207,120.13014221190001,120.19381713870001,50.2870025635,14.3766756058,11.379999160799999,0,2,25,1,127,361
