,(0)linux time (ms),    (1)uptime  (ms),      (2)drive mode,(3)mpc step counter,(4)mpc origin latitude  (deg),(5)mpc origin longitude  (deg),(6)closest trajectory point index to robot,(7)mpc error x (W;E)  (m),(8)mpc error y (W;E)  (m),(9)abs mpc error (m),(10)input [x] for mhe (m),(11)input [y] for mhe (m),(12)input [speed] for mhe (m/s),(13)input [vyaw] for mhe (rad/s),(14)mhe output x  (m),(15)mhe output y  (m),(16)mhe output speed  (m/s),(17)mhe output yaw  (rad),(18)mpc reference heading (rad),(19)mpc turn rate command (rad/s),(20)turn rate command as PWM,(21)throttle command as PWM,(22)primary gps latitude (deg),(23)primary gps longitude (deg),(24)secondary gps latitude  (deg),(25)secondary gps longitude (deg),(26)accelerometer x (m/s^2),(27)accelerometer y (m/s^2),(28)accelerometer z (m/s^2),(29)gyro yaw rate (rad/s),(30)gyro pitch rate   (rad/s),(31)gyro roll rate (rad/s),      (32)yaw (rad),  (33)pitch   (rad),     (34)roll (rad),(35)sonar1 measurement (m),(36)ultrasonic sensor measurement (m),(37)primary gps time (s),(38)normalized turn rate command,(39)normalized throttle command,(40)speed calculation from encoder left (m/s),(41)speed calculation from encoder right (m/s),(42)front gimbal target angle (degrees from straight down),(43)left gimbal target angle  (degrees from straight down),(44)right gimbal target angle  (degrees from straight down),(45)front gimbal measured angle  (degrees from straight down),(46)left gimbal measured angle    (degrees from straight down),(47)right gimbal measured angle  (degrees from straight down),(48)internal temperature (C),(49)battery voltage (V),(50)primary gps type,(51)secondary gps type,    (52)MPC R value, (53)MPC Q[0] value,Unnamed: 54,weed_num,start
0,1530631789566,3702566, RC,0,39.9586186,-88.445067899,0,0.0,0.0,0.0,0.0,0.0,0.0,0.0,0.0,0.0,0.0,0.0,0.0,0.0,1500,1500,0.0,0.0,40.0483616667,-88.2327735,0.0,0.0,0.0,0.0,0.0,0.0,0.0,0.0,0.0,0.0,0.0,0,0.0,0.0,0.0,0.0,90.0,90.0,90.0,90.2726821899,88.6174697876,90.4636688232,45.445999145500004,14.8643369675,2.0799999237,0,2,25,1,167,9
1,1530631789616,3702616, RC,0,39.9586186,-88.445067899,0,0.0,0.0,0.0,0.0,0.0,0.0,0.0,0.0,0.0,0.0,0.0,0.0,0.0,1500,1500,0.0,0.0,40.0483616667,-88.2327735,0.0,0.0,0.0,0.0,0.0,0.0,0.0,0.0,0.0,0.0,0.0,0,0.0,0.0,0.0,0.0,90.0,90.0,90.0,90.2726821899,89.5724029541,90.145362854,45.445999145500004,14.864557266199999,2.6300001144,0,2,25,1,178,11
2,1530631789666,3702666, RC,0,39.9586186,-88.445067899,0,0.0,0.0,0.0,0.0,0.0,0.0,0.0,0.0,0.0,0.0,0.0,0.0,0.0,1500,1500,0.0,0.0,40.0483616667,-88.2327735,0.0,0.0,0.0,0.0,0.0,0.0,0.0,0.0,0.0,0.0,0.0,0,0.0,0.0,0.0,0.0,90.0,90.0,90.0,90.2726821899,89.5724029541,90.145362854,45.445999145500004,14.864557266199999,2.6300001144,0,2,25,1,177,13
3,1530631789717,3702717, RC,0,39.9586186,-88.445067899,0,0.0,0.0,0.0,0.0,0.0,0.0,0.0,0.0,0.0,0.0,0.0,0.0,0.0,1500,1500,0.0,0.0,40.0483616667,-88.2327735,0.0,0.0,0.0,0.0,0.0,0.0,0.0,0.0,0.0,0.0,0.0,0,0.0,0.0,0.0,0.0,90.0,90.0,90.0,90.2726821899,89.5724029541,89.25408935549999,45.445999145500004,14.864557266199999,2.6300001144,0,2,25,1,189,15
4,1530631789767,3702767, RC,0,39.9586186,-88.445067899,0,0.0,0.0,0.0,0.0,0.0,0.0,0.0,0.0,0.0,0.0,0.0,0.0,0.0,1500,1500,0.0,0.0,40.0483616667,-88.2327735,0.0,0.0,0.0,0.0,0.0,0.0,0.0,0.0,0.0,0.0,0.0,0,0.0,0.0,0.0,0.0,90.0,90.0,90.0,90.2726821899,89.5724029541,88.8721160889,45.445999145500004,14.864557266199999,2.6300001144,0,2,25,1,178,17
5,1530631789817,3702817, RC,0,39.9586186,-88.445067899,0,0.0,0.0,0.0,0.0,0.0,0.0,0.0,0.0,0.0,0.0,0.0,0.0,0.0,1500,1500,0.0,0.0,40.0483595,-88.2327728333,0.0,0.0,0.0,0.0,0.0,0.0,0.0,0.0,0.0,0.0,0.0,0,0.0,0.0,0.0,0.0,90.0,90.0,90.0,90.2726821899,89.5724029541,88.8721160889,45.445999145500004,14.864557266199999,2.6300001144,0,2,25,1,184,19
6,1530631789868,3702868, RC,0,39.9586186,-88.445067899,0,0.0,0.0,0.0,0.0,0.0,0.0,0.0,0.0,0.0,0.0,0.0,0.0,0.0,1500,1500,0.0,0.0,40.0483595,-88.2327728333,0.0,0.0,0.0,0.0,0.0,0.0,0.0,0.0,0.0,0.0,0.0,0,0.0,0.0,0.0,0.0,90.0,90.0,90.0,90.2726821899,89.5724029541,88.8721160889,45.445999145500004,14.864557266199999,2.6300001144,0,2,25,1,194,21
7,1530631789918,3702918, RC,0,39.9586186,-88.445067899,0,0.0,0.0,0.0,0.0,0.0,0.0,0.0,0.0,0.0,0.0,0.0,0.0,0.0,1500,1500,0.0,0.0,40.0483595,-88.2327728333,0.0,0.0,0.0,0.0,0.0,0.0,0.0,0.0,0.0,0.0,0.0,0,0.0,0.0,0.0,0.0,90.0,90.0,90.0,90.2726821899,89.5724029541,88.8721160889,45.445999145500004,14.864557266199999,2.6300001144,0,2,25,1,192,23
8,1530631789968,3702968, RC,0,39.9586186,-88.445067899,0,0.0,0.0,0.0,0.0,0.0,0.0,0.0,0.0,0.0,0.0,0.0,0.0,0.0,1500,1500,0.0,0.0,40.0483595,-88.2327728333,0.0,0.0,0.0,0.0,0.0,0.0,0.0,0.0,0.0,0.0,0.0,0,0.0,0.0,0.0,0.0,90.0,90.0,90.0,90.2726821899,89.5724029541,88.8721160889,45.445999145500004,14.864557266199999,2.6300001144,0,2,25,1,213,25
9,1530631790019,3703019, RC,0,39.9586186,-88.445067899,0,0.0,0.0,0.0,0.0,0.0,0.0,0.0,0.0,0.0,0.0,0.0,0.0,0.0,1500,1500,0.0,0.0,40.0483595,-88.2327728333,0.0,0.0,0.0,0.0,0.0,0.0,0.0,0.0,0.0,0.0,0.0,0,0.0,0.0,0.0,0.0,90.0,76.0,90.0,90.2726821899,89.5724029541,88.8721160889,45.445999145500004,14.864557266199999,2.6300001144,0,2,25,1,219,27
10,1530631790069,3703069, RC,0,39.9586186,-88.445067899,0,0.0,0.0,0.0,0.0,0.0,0.0,0.0,0.0,0.0,0.0,0.0,0.0,0.0,1500,1500,0.0,0.0,40.0483595,-88.2327728333,0.0,0.0,0.0,0.0,0.0,0.0,0.0,0.0,0.0,0.0,0.0,0,0.0,0.0,0.0,0.0,90.0,76.0,90.0,90.2726821899,95.3019790649,88.8721160889,45.445999145500004,14.864557266199999,2.6300001144,0,2,25,1,202,29
11,1530631790119,3703119, RC,0,39.9586186,-88.445067899,0,0.0,0.0,0.0,0.0,0.0,0.0,0.0,0.0,0.0,0.0,0.0,0.0,0.0,1500,1500,0.0,0.0,40.0483595,-88.2327728333,0.0,0.0,0.0,0.0,0.0,0.0,0.0,0.0,0.0,0.0,0.0,0,0.0,0.0,0.0,0.0,90.0,73.0,90.0,90.2726821899,102.3684539795,88.8721160889,45.445999145500004,14.864557266199999,2.6300001144,0,2,25,1,195,31
12,1530631790170,3703170, RC,0,39.9586186,-88.445067899,0,0.0,0.0,0.0,0.0,0.0,0.0,0.0,0.0,0.0,0.0,0.0,0.0,0.0,1500,1500,0.0,0.0,40.0483595,-88.2327728333,0.0,0.0,0.0,0.0,0.0,0.0,0.0,0.0,0.0,0.0,0.0,0,0.0,0.0,0.0,0.0,90.0,73.0,90.0,90.2726821899,103.1324005127,88.8721160889,45.445999145500004,14.864557266199999,2.6300001144,0,2,25,1,206,33
13,1530631790220,3703220, RC,0,39.9586186,-88.445067899,0,0.0,0.0,0.0,0.0,0.0,0.0,0.0,0.0,0.0,0.0,0.0,0.0,0.0,1500,1500,0.0,0.0,40.0483595,-88.2327728333,0.0,0.0,0.0,0.0,0.0,0.0,0.0,0.0,0.0,0.0,0.0,0,0.0,0.0,0.0,0.0,90.0,63.0,90.0,90.2726821899,106.6974716187,88.8721160889,45.445999145500004,14.864557266199999,2.6300001144,0,2,25,1,209,34
14,1530631790270,3703270, RC,0,39.9586186,-88.445067899,0,0.0,0.0,0.0,0.0,0.0,0.0,0.0,0.0,0.0,0.0,0.0,0.0,0.0,1500,1500,0.0,0.0,40.0483595,-88.2327728333,0.0,0.0,0.0,0.0,0.0,0.0,0.0,0.0,0.0,0.0,0.0,0,0.0,0.0,0.0,0.0,90.0,63.0,90.0,90.2726821899,113.2546615601,88.8721160889,45.445999145500004,14.864557266199999,2.6300001144,0,2,25,1,198,36
15,1530631790321,3703321, RC,0,39.9586186,-88.445067899,0,0.0,0.0,0.0,0.0,0.0,0.0,0.0,0.0,0.0,0.0,0.0,0.0,0.0,1500,1500,0.0,0.0,40.0483595,-88.2327728333,0.0,0.0,0.0,0.0,0.0,0.0,0.0,0.0,0.0,0.0,0.0,0,0.0,0.0,0.0,0.0,90.0,60.0,90.0,90.2726821899,119.3025436401,89.3814163208,45.445999145500004,14.864557266199999,2.6300001144,0,2,25,1,193,38
16,1530631790371,3703371, RC,0,39.9586186,-88.445067899,0,0.0,0.0,0.0,0.0,0.0,0.0,0.0,0.0,0.0,0.0,0.0,0.0,0.0,1500,1500,0.0,0.0,40.0483595,-88.2327728333,0.0,0.0,0.0,0.0,0.0,0.0,0.0,0.0,0.0,0.0,0.0,0,0.0,0.0,0.0,0.0,90.0,60.0,90.0,90.2726821899,117.4563446045,89.63606262209998,45.445999145500004,14.864557266199999,2.6300001144,0,2,25,1,212,40
17,1530631790421,3703421, RC,0,39.9586186,-88.445067899,0,0.0,0.0,0.0,0.0,0.0,0.0,0.0,0.0,0.0,0.0,0.0,0.0,0.0,1500,1500,0.0,0.0,40.0483595,-88.2327728333,0.0,0.0,0.0,0.0,0.0,0.0,0.0,0.0,0.0,0.0,0.0,0,0.0,0.0,0.0,0.0,90.0,60.0,90.0,90.2726821899,118.9205703735,89.63606262209998,45.445999145500004,14.864557266199999,2.6300001144,0,2,25,1,205,42
18,1530631790472,3703472, RC,0,39.9586186,-88.445067899,0,0.0,0.0,0.0,0.0,0.0,0.0,0.0,0.0,0.0,0.0,0.0,0.0,0.0,1500,1500,0.0,0.0,40.0483595,-88.2327728333,0.0,0.0,0.0,0.0,0.0,0.0,0.0,0.0,0.0,0.0,0.0,0,0.0,0.0,0.0,0.0,90.0,60.0,90.0,90.2726821899,119.4935302734,89.63606262209998,45.445999145500004,14.864557266199999,2.6300001144,0,2,25,1,198,44
19,1530631790522,3703522, RC,0,39.9586186,-88.445067899,0,0.0,0.0,0.0,0.0,0.0,0.0,0.0,0.0,0.0,0.0,0.0,0.0,0.0,1500,1500,0.0,0.0,40.0483595,-88.2327728333,0.0,0.0,0.0,0.0,0.0,0.0,0.0,0.0,0.0,0.0,0.0,0,0.0,0.0,0.0,0.0,90.0,60.0,90.0,90.2726821899,119.5571899414,89.63606262209998,45.445999145500004,14.864557266199999,2.6300001144,0,2,25,1,192,46
20,1530631790572,3703572, RC,0,39.9586186,-88.445067899,0,0.0,0.0,0.0,0.0,0.0,0.0,0.0,0.0,0.0,0.0,0.0,0.0,0.0,1500,1500,0.0,0.0,40.0483595,-88.2327728333,0.0,0.0,0.0,0.0,0.0,0.0,0.0,0.0,0.0,0.0,0.0,0,0.0,0.0,0.0,0.0,90.0,60.0,90.0,90.2726821899,119.5571899414,89.63606262209998,45.445999145500004,14.864557266199999,2.6300001144,0,2,25,1,190,48
21,1530631790623,3703623, RC,0,39.9586186,-88.445067899,0,0.0,0.0,0.0,0.0,0.0,0.0,0.0,0.0,0.0,0.0,0.0,0.0,0.0,1500,1500,0.0,0.0,40.0483595,-88.2327728333,0.0,0.0,0.0,0.0,0.0,0.0,0.0,0.0,0.0,0.0,0.0,0,0.0,0.0,0.0,0.0,90.0,58.0,90.0,90.2726821899,119.62085723879999,89.63606262209998,45.445999145500004,14.8647613525,2.3600001335,0,2,25,1,205,50
22,1530631790673,3703673, RC,0,39.9586186,-88.445067899,0,0.0,0.0,0.0,0.0,0.0,0.0,0.0,0.0,0.0,0.0,0.0,0.0,0.0,1500,1500,0.0,0.0,40.0483595,-88.2327728333,0.0,0.0,0.0,0.0,0.0,0.0,0.0,0.0,0.0,0.0,0.0,0,0.0,0.0,0.0,0.0,90.0,58.0,90.0,90.2726821899,121.7853622437,89.63606262209998,45.445999145500004,14.8647613525,2.3600001335,0,2,25,1,193,52
23,1530631790723,3703723, RC,0,39.9586186,-88.445067899,0,0.0,0.0,0.0,0.0,0.0,0.0,0.0,0.0,0.0,0.0,0.0,0.0,0.0,1500,1500,0.0,0.0,40.0483595,-88.2327728333,0.0,0.0,0.0,0.0,0.0,0.0,0.0,0.0,0.0,0.0,0.0,0,0.0,0.0,0.0,0.0,90.0,58.0,90.0,90.2726821899,121.91268920899999,89.63606262209998,45.445999145500004,14.8647613525,2.3600001335,0,2,25,1,188,55
24,1530631790774,3703774, RC,0,39.9586186,-88.445067899,0,0.0,0.0,0.0,0.0,0.0,0.0,0.0,0.0,0.0,0.0,0.0,0.0,0.0,1500,1500,0.0,0.0,40.0483595,-88.2327728333,0.0,0.0,0.0,0.0,0.0,0.0,0.0,0.0,0.0,0.0,0.0,0,0.0,0.0,0.0,0.0,90.0,58.0,90.0,90.2726821899,121.91268920899999,89.63606262209998,45.445999145500004,14.8647613525,2.3600001335,0,2,25,1,194,58
25,1530631790824,3703824, RC,0,39.9586186,-88.445067899,0,0.0,0.0,0.0,0.0,0.0,0.0,0.0,0.0,0.0,0.0,0.0,0.0,0.0,1500,1500,0.0,0.0,40.0483596667,-88.232771,0.0,0.0,0.0,0.0,0.0,0.0,0.0,0.0,0.0,0.0,0.0,0,0.0,0.0,0.0,0.0,90.0,58.0,90.0,90.2726821899,121.91268920899999,89.63606262209998,45.445999145500004,14.8647613525,2.3600001335,0,2,25,1,202,61
26,1530631790874,3703874, RC,0,39.9586186,-88.445067899,0,0.0,0.0,0.0,0.0,0.0,0.0,0.0,0.0,0.0,0.0,0.0,0.0,0.0,1500,1500,0.0,0.0,40.0483596667,-88.232771,0.0,0.0,0.0,0.0,0.0,0.0,0.0,0.0,0.0,0.0,0.0,0,0.0,0.0,0.0,0.0,90.0,58.0,90.0,90.2726821899,121.91268920899999,89.5724029541,45.445999145500004,14.8647613525,2.3600001335,0,2,25,1,204,64
27,1530631790925,3703925, RC,0,39.9586186,-88.445067899,0,0.0,0.0,0.0,0.0,0.0,0.0,0.0,0.0,0.0,0.0,0.0,0.0,0.0,1500,1500,0.0,0.0,40.0483596667,-88.232771,0.0,0.0,0.0,0.0,0.0,0.0,0.0,0.0,0.0,0.0,0.0,0,0.0,0.0,0.0,0.0,90.0,58.0,90.0,90.2726821899,121.91268920899999,89.5724029541,45.445999145500004,14.8647613525,2.3600001335,0,2,25,1,200,67
28,1530631790975,3703975, RC,0,39.9586186,-88.445067899,0,0.0,0.0,0.0,0.0,0.0,0.0,0.0,0.0,0.0,0.0,0.0,0.0,0.0,1500,1500,0.0,0.0,40.0483596667,-88.232771,0.0,0.0,0.0,0.0,0.0,0.0,0.0,0.0,0.0,0.0,0.0,0,0.0,0.0,0.0,0.0,90.0,58.0,90.0,90.2726821899,121.91268920899999,89.5087432861,45.445999145500004,14.8647613525,2.3600001335,0,2,25,1,196,69
29,1530631791025,3704025, RC,0,39.9586186,-88.445067899,0,0.0,0.0,0.0,0.0,0.0,0.0,0.0,0.0,0.0,0.0,0.0,0.0,0.0,1500,1500,0.0,0.0,40.0483596667,-88.232771,0.0,0.0,0.0,0.0,0.0,0.0,0.0,0.0,0.0,0.0,0.0,0,0.0,0.0,0.0,0.0,90.0,58.0,90.0,90.2726821899,121.91268920899999,89.5087432861,45.445999145500004,14.8647613525,2.3600001335,0,2,25,1,195,71
30,1530631791076,3704076, RC,0,39.9586186,-88.445067899,0,0.0,0.0,0.0,0.0,0.0,0.0,0.0,0.0,0.0,0.0,0.0,0.0,0.0,1500,1500,0.0,0.0,40.0483596667,-88.232771,0.0,0.0,0.0,0.0,0.0,0.0,0.0,0.0,0.0,0.0,0.0,0,0.0,0.0,0.0,0.0,90.0,58.0,90.0,90.2726821899,121.91268920899999,89.44507598879999,45.445999145500004,14.8647613525,2.3600001335,0,2,25,1,209,73
31,1530631791126,3704126, RC,0,39.9586186,-88.445067899,0,0.0,0.0,0.0,0.0,0.0,0.0,0.0,0.0,0.0,0.0,0.0,0.0,0.0,1500,1500,0.0,0.0,40.0483596667,-88.232771,0.0,0.0,0.0,0.0,0.0,0.0,0.0,0.0,0.0,0.0,0.0,0,0.0,0.0,0.0,0.0,90.0,58.0,90.0,90.2726821899,121.91268920899999,89.44507598879999,45.445999145500004,14.8647613525,2.3600001335,0,2,25,1,201,74
32,1530631791176,3704176, RC,0,39.9586186,-88.445067899,0,0.0,0.0,0.0,0.0,0.0,0.0,0.0,0.0,0.0,0.0,0.0,0.0,0.0,1500,1500,0.0,0.0,40.0483596667,-88.232771,0.0,0.0,0.0,0.0,0.0,0.0,0.0,0.0,0.0,0.0,0.0,0,0.0,0.0,0.0,0.0,90.0,58.0,90.0,90.2726821899,121.91268920899999,89.44507598879999,45.445999145500004,14.8647613525,2.3600001335,0,2,25,1,190,76
33,1530631791227,3704227, RC,0,39.9586186,-88.445067899,0,0.0,0.0,0.0,0.0,0.0,0.0,0.0,0.0,0.0,0.0,0.0,0.0,0.0,1500,1500,0.0,0.0,40.0483596667,-88.232771,0.0,0.0,0.0,0.0,0.0,0.0,0.0,0.0,0.0,0.0,0.0,0,0.0,0.0,0.0,0.0,90.0,58.0,90.0,90.2726821899,121.91268920899999,89.3814163208,45.445999145500004,14.8647613525,2.3600001335,0,2,25,1,203,78
34,1530631791277,3704277, RC,0,39.9586186,-88.445067899,0,0.0,0.0,0.0,0.0,0.0,0.0,0.0,0.0,0.0,0.0,0.0,0.0,0.0,1500,1500,0.0,0.0,40.0483596667,-88.232771,0.0,0.0,0.0,0.0,0.0,0.0,0.0,0.0,0.0,0.0,0.0,0,0.0,0.0,0.0,0.0,90.0,58.0,90.0,90.2726821899,121.91268920899999,89.3814163208,45.445999145500004,14.8647613525,2.3600001335,0,2,25,1,203,80
35,1530631791327,3704327, RC,0,39.9586186,-88.445067899,0,0.0,0.0,0.0,0.0,0.0,0.0,0.0,0.0,0.0,0.0,0.0,0.0,0.0,1500,1500,0.0,0.0,40.0483596667,-88.232771,0.0,0.0,0.0,0.0,0.0,0.0,0.0,0.0,0.0,0.0,0.0,0,0.0,0.0,0.0,0.0,90.0,58.0,90.0,90.2726821899,121.91268920899999,89.3177566528,45.445999145500004,14.8647613525,2.3600001335,0,2,25,1,217,82
36,1530631791378,3704378, RC,0,39.9586186,-88.445067899,0,0.0,0.0,0.0,0.0,0.0,0.0,0.0,0.0,0.0,0.0,0.0,0.0,0.0,1500,1500,0.0,0.0,40.0483596667,-88.232771,0.0,0.0,0.0,0.0,0.0,0.0,0.0,0.0,0.0,0.0,0.0,0,0.0,0.0,0.0,0.0,90.0,58.0,90.0,90.2726821899,121.91268920899999,89.3177566528,45.445999145500004,14.8647613525,2.3600001335,0,2,25,1,201,84
37,1530631791428,3704428, RC,0,39.9586186,-88.445067899,0,0.0,0.0,0.0,0.0,0.0,0.0,0.0,0.0,0.0,0.0,0.0,0.0,0.0,1500,1500,0.0,0.0,40.0483596667,-88.232771,0.0,0.0,0.0,0.0,0.0,0.0,0.0,0.0,0.0,0.0,0.0,0,0.0,0.0,0.0,0.0,90.0,58.0,90.0,90.2726821899,121.91268920899999,89.3177566528,45.445999145500004,14.8647613525,2.3600001335,0,2,25,1,190,86
38,1530631791478,3704478, RC,0,39.9586186,-88.445067899,0,0.0,0.0,0.0,0.0,0.0,0.0,0.0,0.0,0.0,0.0,0.0,0.0,0.0,1500,1500,0.0,0.0,40.0483596667,-88.232771,0.0,0.0,0.0,0.0,0.0,0.0,0.0,0.0,0.0,0.0,0.0,0,0.0,0.0,0.0,0.0,90.0,58.0,90.0,90.2726821899,121.976348877,89.3177566528,45.445999145500004,14.8647613525,2.3600001335,0,2,25,1,196,87
39,1530631791529,3704529, RC,0,39.9586186,-88.445067899,0,0.0,0.0,0.0,0.0,0.0,0.0,0.0,0.0,0.0,0.0,0.0,0.0,0.0,1500,1500,0.0,0.0,40.0483596667,-88.232771,0.0,0.0,0.0,0.0,0.0,0.0,0.0,0.0,0.0,0.0,0.0,0,0.0,0.0,0.0,0.0,90.0,58.0,90.0,90.2726821899,121.976348877,89.25408935549999,45.445999145500004,14.8647613525,2.3600001335,0,2,25,1,205,89
40,1530631791579,3704579, RC,0,39.9586186,-88.445067899,0,0.0,0.0,0.0,0.0,0.0,0.0,0.0,0.0,0.0,0.0,0.0,0.0,0.0,1500,1500,0.0,0.0,40.0483596667,-88.232771,0.0,0.0,0.0,0.0,0.0,0.0,0.0,0.0,0.0,0.0,0.0,0,0.0,0.0,0.0,0.0,90.0,58.0,90.0,90.2726821899,121.976348877,89.25408935549999,45.445999145500004,14.8652448654,2.9099998474,0,2,25,1,189,91
41,1530631791629,3704629, RC,0,39.9586186,-88.445067899,0,0.0,0.0,0.0,0.0,0.0,0.0,0.0,0.0,0.0,0.0,0.0,0.0,0.0,1500,1500,0.0,0.0,40.0483596667,-88.232771,0.0,0.0,0.0,0.0,0.0,0.0,0.0,0.0,0.0,0.0,0.0,0,0.0,0.0,0.0,0.0,90.0,58.0,90.0,90.2726821899,121.976348877,89.25408935549999,45.445999145500004,14.8652448654,2.9099998474,0,2,25,1,214,93
42,1530631791680,3704680, RC,0,39.9586186,-88.445067899,0,0.0,0.0,0.0,0.0,0.0,0.0,0.0,0.0,0.0,0.0,0.0,0.0,0.0,1500,1500,0.0,0.0,40.0483596667,-88.232771,0.0,0.0,0.0,0.0,0.0,0.0,0.0,0.0,0.0,0.0,0.0,0,0.0,0.0,0.0,0.0,90.0,58.0,90.0,90.2726821899,121.976348877,89.25408935549999,45.445999145500004,14.8652448654,2.9099998474,0,2,25,1,204,95
43,1530631791730,3704730, RC,0,39.9586186,-88.445067899,0,0.0,0.0,0.0,0.0,0.0,0.0,0.0,0.0,0.0,0.0,0.0,0.0,0.0,1500,1500,0.0,0.0,40.0483596667,-88.232771,0.0,0.0,0.0,0.0,0.0,0.0,0.0,0.0,0.0,0.0,0.0,0,0.0,0.0,0.0,0.0,90.0,58.0,90.0,90.2726821899,121.976348877,89.25408935549999,45.445999145500004,14.8652448654,2.9099998474,0,2,25,1,199,97
44,1530631791780,3704780, RC,0,39.9586186,-88.445067899,0,0.0,0.0,0.0,0.0,0.0,0.0,0.0,0.0,0.0,0.0,0.0,0.0,0.0,1500,1500,0.0,0.0,40.0483596667,-88.232771,0.0,0.0,0.0,0.0,0.0,0.0,0.0,0.0,0.0,0.0,0.0,0,0.0,0.0,0.0,0.0,90.0,58.0,90.0,90.2726821899,121.976348877,89.1904296875,45.445999145500004,14.8652448654,2.9099998474,0,2,25,1,195,98
45,1530631791831,3704831, RC,0,39.9586186,-88.445067899,0,0.0,0.0,0.0,0.0,0.0,0.0,0.0,0.0,0.0,0.0,0.0,0.0,0.0,1500,1500,0.0,0.0,40.0483581667,-88.232768,0.0,0.0,0.0,0.0,0.0,0.0,0.0,0.0,0.0,0.0,0.0,0,0.0,0.0,0.0,0.0,90.0,61.0,90.0,90.2726821899,121.976348877,89.5087432861,45.445999145500004,14.8652448654,2.9099998474,0,2,25,1,201,100
46,1530631791881,3704881, RC,0,39.9586186,-88.445067899,0,0.0,0.0,0.0,0.0,0.0,0.0,0.0,0.0,0.0,0.0,0.0,0.0,0.0,1500,1500,0.0,0.0,40.0483581667,-88.232768,0.0,0.0,0.0,0.0,0.0,0.0,0.0,0.0,0.0,0.0,0.0,0,0.0,0.0,0.0,0.0,90.0,61.0,90.0,90.2726821899,121.1487426758,90.2726821899,45.445999145500004,14.8652448654,2.9099998474,0,2,25,1,209,102
47,1530631791931,3704931, RC,0,39.9586186,-88.445067899,0,0.0,0.0,0.0,0.0,0.0,0.0,0.0,0.0,0.0,0.0,0.0,0.0,0.0,1500,1500,0.0,0.0,40.0483581667,-88.232768,0.0,0.0,0.0,0.0,0.0,0.0,0.0,0.0,0.0,0.0,0.0,0,0.0,0.0,0.0,0.0,90.0,61.0,90.0,90.2726821899,118.34761810299999,90.20902252200001,45.445999145500004,14.8652448654,2.9099998474,0,2,25,1,197,104
48,1530631791982,3704982, RC,0,39.9586186,-88.445067899,0,0.0,0.0,0.0,0.0,0.0,0.0,0.0,0.0,0.0,0.0,0.0,0.0,0.0,1500,1500,0.0,0.0,40.0483581667,-88.232768,0.0,0.0,0.0,0.0,0.0,0.0,0.0,0.0,0.0,0.0,0.0,0,0.0,0.0,0.0,0.0,90.0,61.0,90.0,90.2726821899,118.411277771,90.20902252200001,45.445999145500004,14.8652448654,2.9099998474,0,2,25,1,186,107
49,1530631792032,3705032, RC,0,39.9586186,-88.445067899,0,0.0,0.0,0.0,0.0,0.0,0.0,0.0,0.0,0.0,0.0,0.0,0.0,0.0,1500,1500,0.0,0.0,40.0483581667,-88.232768,0.0,0.0,0.0,0.0,0.0,0.0,0.0,0.0,0.0,0.0,0.0,0,0.0,0.0,0.0,0.0,90.0,61.0,90.0,90.2726821899,118.7932434082,90.20902252200001,45.445999145500004,14.8652448654,2.9099998474,0,2,25,1,210,110
50,1530631792082,3705082, RC,0,39.9586186,-88.445067899,0,0.0,0.0,0.0,0.0,0.0,0.0,0.0,0.0,0.0,0.0,0.0,0.0,0.0,1500,1500,0.0,0.0,40.0483581667,-88.232768,0.0,0.0,0.0,0.0,0.0,0.0,0.0,0.0,0.0,0.0,0.0,0,0.0,0.0,0.0,0.0,90.0,61.0,90.0,90.2726821899,118.856918335,90.20902252200001,45.445999145500004,14.8652448654,2.9099998474,0,2,25,1,209,113
51,1530631792133,3705133, RC,0,39.9586186,-88.445067899,0,0.0,0.0,0.0,0.0,0.0,0.0,0.0,0.0,0.0,0.0,0.0,0.0,0.0,1500,1500,0.0,0.0,40.0483581667,-88.232768,0.0,0.0,0.0,0.0,0.0,0.0,0.0,0.0,0.0,0.0,0.0,0,0.0,0.0,0.0,0.0,90.0,63.0,90.0,90.2726821899,118.856918335,90.20902252200001,45.445999145500004,14.8652448654,2.9099998474,0,2,25,1,189,116
52,1530631792183,3705183, RC,0,39.9586186,-88.445067899,0,0.0,0.0,0.0,0.0,0.0,0.0,0.0,0.0,0.0,0.0,0.0,0.0,0.0,1500,1500,0.0,0.0,40.0483581667,-88.232768,0.0,0.0,0.0,0.0,0.0,0.0,0.0,0.0,0.0,0.0,0.0,0,0.0,0.0,0.0,0.0,90.0,63.0,90.0,90.2726821899,118.0929718018,90.145362854,45.445999145500004,14.8652448654,2.9099998474,0,2,25,1,214,119
53,1530631792233,3705233, RC,0,39.9586186,-88.445067899,0,0.0,0.0,0.0,0.0,0.0,0.0,0.0,0.0,0.0,0.0,0.0,0.0,0.0,1500,1500,0.0,0.0,40.0483581667,-88.232768,0.0,0.0,0.0,0.0,0.0,0.0,0.0,0.0,0.0,0.0,0.0,0,0.0,0.0,0.0,0.0,90.0,63.0,90.0,90.2726821899,115.9284591675,90.01803588870001,45.445999145500004,14.8652448654,2.9099998474,0,2,25,1,193,122
54,1530631792284,3705284, RC,0,39.9586186,-88.445067899,0,0.0,0.0,0.0,0.0,0.0,0.0,0.0,0.0,0.0,0.0,0.0,0.0,0.0,1500,1500,0.0,0.0,40.0483581667,-88.232768,0.0,0.0,0.0,0.0,0.0,0.0,0.0,0.0,0.0,0.0,0.0,0,0.0,0.0,0.0,0.0,90.0,63.0,90.0,90.2726821899,117.2017059326,89.82704925540001,45.445999145500004,14.8652448654,2.9099998474,0,2,25,1,204,125
55,1530631792334,3705334, RC,0,39.9586186,-88.445067899,0,0.0,0.0,0.0,0.0,0.0,0.0,0.0,0.0,0.0,0.0,0.0,0.0,0.0,1500,1500,0.0,0.0,40.0483581667,-88.232768,0.0,0.0,0.0,0.0,0.0,0.0,0.0,0.0,0.0,0.0,0.0,0,0.0,0.0,0.0,0.0,90.0,63.0,90.0,90.2726821899,117.77465820309999,89.7633895874,45.445999145500004,14.8652448654,2.9099998474,0,2,25,1,203,127
56,1530631792384,3705384, RC,0,39.9586186,-88.445067899,0,0.0,0.0,0.0,0.0,0.0,0.0,0.0,0.0,0.0,0.0,0.0,0.0,0.0,1500,1500,0.0,0.0,40.0483581667,-88.232768,0.0,0.0,0.0,0.0,0.0,0.0,0.0,0.0,0.0,0.0,0.0,0,0.0,0.0,0.0,0.0,90.0,63.0,90.0,90.2726821899,116.43775939940001,89.7633895874,45.445999145500004,14.8652448654,2.9099998474,0,2,25,1,191,130
57,1530631792435,3705435, RC,0,39.9586186,-88.445067899,0,0.0,0.0,0.0,0.0,0.0,0.0,0.0,0.0,0.0,0.0,0.0,0.0,0.0,1500,1500,0.0,0.0,40.0483581667,-88.232768,0.0,0.0,0.0,0.0,0.0,0.0,0.0,0.0,0.0,0.0,0.0,0,0.0,0.0,0.0,0.0,90.0,63.0,90.0,90.2726821899,116.3104324341,89.7633895874,45.445999145500004,14.8652448654,2.9099998474,0,2,25,1,197,132
58,1530631792485,3705485, RC,0,39.9586186,-88.445067899,0,0.0,0.0,0.0,0.0,0.0,0.0,0.0,0.0,0.0,0.0,0.0,0.0,0.0,1500,1500,0.0,0.0,40.0483581667,-88.232768,0.0,0.0,0.0,0.0,0.0,0.0,0.0,0.0,0.0,0.0,0.0,0,0.0,0.0,0.0,0.0,90.0,63.0,90.0,90.2726821899,116.3104324341,89.7633895874,45.445999145500004,14.8652448654,2.9099998474,0,2,25,1,207,135
59,1530631792535,3705535, RC,0,39.9586186,-88.445067899,0,0.0,0.0,0.0,0.0,0.0,0.0,0.0,0.0,0.0,0.0,0.0,0.0,0.0,1500,1500,0.0,0.0,40.0483581667,-88.232768,0.0,0.0,0.0,0.0,0.0,0.0,0.0,0.0,0.0,0.0,0.0,0,0.0,0.0,0.0,0.0,90.0,63.0,90.0,90.2726821899,116.3104324341,89.7633895874,45.445999145500004,14.8652448654,2.9099998474,0,2,25,1,192,137
60,1530631792586,3705586, RC,0,39.9586186,-88.445067899,0,0.0,0.0,0.0,0.0,0.0,0.0,0.0,0.0,0.0,0.0,0.0,0.0,0.0,1500,1500,0.0,0.0,40.0483581667,-88.232768,0.0,0.0,0.0,0.0,0.0,0.0,0.0,0.0,0.0,0.0,0.0,0,0.0,0.0,0.0,0.0,90.0,63.0,90.0,90.2726821899,116.3104324341,89.7633895874,45.445999145500004,14.8655347824,3.1300001144,0,2,25,1,204,140
61,1530631792636,3705636, RC,0,39.9586186,-88.445067899,0,0.0,0.0,0.0,0.0,0.0,0.0,0.0,0.0,0.0,0.0,0.0,0.0,0.0,1500,1500,0.0,0.0,40.0483581667,-88.232768,0.0,0.0,0.0,0.0,0.0,0.0,0.0,0.0,0.0,0.0,0.0,0,0.0,0.0,0.0,0.0,90.0,63.0,90.0,90.2726821899,116.3104324341,89.7633895874,45.445999145500004,14.8655347824,3.1300001144,0,2,25,1,198,142
62,1530631792686,3705686, RC,0,39.9586186,-88.445067899,0,0.0,0.0,0.0,0.0,0.0,0.0,0.0,0.0,0.0,0.0,0.0,0.0,0.0,1500,1500,0.0,0.0,40.0483581667,-88.232768,0.0,0.0,0.0,0.0,0.0,0.0,0.0,0.0,0.0,0.0,0.0,0,0.0,0.0,0.0,0.0,90.0,63.0,90.0,90.2726821899,116.3104324341,89.7633895874,45.445999145500004,14.8655347824,3.1300001144,0,2,25,1,204,145
63,1530631792737,3705737, RC,0,39.9586186,-88.445067899,0,0.0,0.0,0.0,0.0,0.0,0.0,0.0,0.0,0.0,0.0,0.0,0.0,0.0,1500,1500,0.0,0.0,40.0483581667,-88.232768,0.0,0.0,0.0,0.0,0.0,0.0,0.0,0.0,0.0,0.0,0.0,0,0.0,0.0,0.0,0.0,90.0,63.0,90.0,90.2726821899,116.3104324341,89.7633895874,45.445999145500004,14.8655347824,3.1300001144,0,2,25,1,195,147
64,1530631792787,3705787, RC,0,39.9586186,-88.445067899,0,0.0,0.0,0.0,0.0,0.0,0.0,0.0,0.0,0.0,0.0,0.0,0.0,0.0,1500,1500,0.0,0.0,40.0483581667,-88.232768,0.0,0.0,0.0,0.0,0.0,0.0,0.0,0.0,0.0,0.0,0.0,0,0.0,0.0,0.0,0.0,90.0,63.0,90.0,90.2726821899,116.3104324341,89.6997299194,45.445999145500004,14.8655347824,3.1300001144,0,2,25,1,207,150
65,1530631792837,3705837, RC,0,39.9586186,-88.445067899,0,0.0,0.0,0.0,0.0,0.0,0.0,0.0,0.0,0.0,0.0,0.0,0.0,0.0,1500,1500,0.0,0.0,40.048358,-88.2327671667,0.0,0.0,0.0,0.0,0.0,0.0,0.0,0.0,0.0,0.0,0.0,0,0.0,0.0,0.0,0.0,90.0,63.0,90.0,90.2726821899,116.3104324341,89.6997299194,45.445999145500004,14.8655347824,3.1300001144,0,2,25,1,205,152
66,1530631792888,3705888, RC,0,39.9586186,-88.445067899,0,0.0,0.0,0.0,0.0,0.0,0.0,0.0,0.0,0.0,0.0,0.0,0.0,0.0,1500,1500,0.0,0.0,40.048358,-88.2327671667,0.0,0.0,0.0,0.0,0.0,0.0,0.0,0.0,0.0,0.0,0.0,0,0.0,0.0,0.0,0.0,90.0,63.0,90.0,90.2726821899,116.3104324341,89.6997299194,45.445999145500004,14.8655347824,3.1300001144,0,2,25,1,190,155
67,1530631792938,3705938, RC,0,39.9586186,-88.445067899,0,0.0,0.0,0.0,0.0,0.0,0.0,0.0,0.0,0.0,0.0,0.0,0.0,0.0,1500,1500,0.0,0.0,40.048358,-88.2327671667,0.0,0.0,0.0,0.0,0.0,0.0,0.0,0.0,0.0,0.0,0.0,0,0.0,0.0,0.0,0.0,90.0,63.0,90.0,90.2726821899,116.3104324341,89.6997299194,45.445999145500004,14.8655347824,3.1300001144,0,2,25,1,197,157
68,1530631792988,3705988, RC,0,39.9586186,-88.445067899,0,0.0,0.0,0.0,0.0,0.0,0.0,0.0,0.0,0.0,0.0,0.0,0.0,0.0,1500,1500,0.0,0.0,40.048358,-88.2327671667,0.0,0.0,0.0,0.0,0.0,0.0,0.0,0.0,0.0,0.0,0.0,0,0.0,0.0,0.0,0.0,90.0,63.0,90.0,90.2726821899,116.3104324341,89.6997299194,45.445999145500004,14.8655347824,3.1300001144,0,2,25,1,203,160
69,1530631793039,3706039, RC,0,39.9586186,-88.445067899,0,0.0,0.0,0.0,0.0,0.0,0.0,0.0,0.0,0.0,0.0,0.0,0.0,0.0,1500,1500,0.0,0.0,40.048358,-88.2327671667,0.0,0.0,0.0,0.0,0.0,0.0,0.0,0.0,0.0,0.0,0.0,0,0.0,0.0,0.0,0.0,90.0,61.0,90.0,90.2726821899,116.3104324341,89.6997299194,45.445999145500004,14.8655347824,3.1300001144,0,2,25,1,197,162
70,1530631793089,3706089, RC,0,39.9586186,-88.445067899,0,0.0,0.0,0.0,0.0,0.0,0.0,0.0,0.0,0.0,0.0,0.0,0.0,0.0,1500,1500,0.0,0.0,40.048358,-88.2327671667,0.0,0.0,0.0,0.0,0.0,0.0,0.0,0.0,0.0,0.0,0.0,0,0.0,0.0,0.0,0.0,90.0,61.0,90.0,90.2726821899,118.15663146969999,89.6997299194,45.445999145500004,14.8655347824,3.1300001144,0,2,25,1,180,165
71,1530631793139,3706139, RC,0,39.9586186,-88.445067899,0,0.0,0.0,0.0,0.0,0.0,0.0,0.0,0.0,0.0,0.0,0.0,0.0,0.0,1500,1500,0.0,0.0,40.048358,-88.2327671667,0.0,0.0,0.0,0.0,0.0,0.0,0.0,0.0,0.0,0.0,0.0,0,0.0,0.0,0.0,0.0,90.0,61.0,90.0,90.2726821899,119.3662033081,89.6997299194,45.445999145500004,14.8655347824,3.1300001144,0,2,25,1,211,167
72,1530631793190,3706190, RC,0,39.9586186,-88.445067899,0,0.0,0.0,0.0,0.0,0.0,0.0,0.0,0.0,0.0,0.0,0.0,0.0,0.0,1500,1500,0.0,0.0,40.048358,-88.2327671667,0.0,0.0,0.0,0.0,0.0,0.0,0.0,0.0,0.0,0.0,0.0,0,0.0,0.0,0.0,0.0,90.0,61.0,90.0,90.2726821899,118.856918335,89.6997299194,45.445999145500004,14.8655347824,3.1300001144,0,2,25,1,208,170
73,1530631793240,3706240, RC,0,39.9586186,-88.445067899,0,0.0,0.0,0.0,0.0,0.0,0.0,0.0,0.0,0.0,0.0,0.0,0.0,0.0,1500,1500,0.0,0.0,40.048358,-88.2327671667,0.0,0.0,0.0,0.0,0.0,0.0,0.0,0.0,0.0,0.0,0.0,0,0.0,0.0,0.0,0.0,90.0,61.0,90.0,90.2726821899,118.856918335,89.6997299194,45.445999145500004,14.8655347824,3.1300001144,0,2,25,1,188,172
74,1530631793290,3706290, RC,0,39.9586186,-88.445067899,0,0.0,0.0,0.0,0.0,0.0,0.0,0.0,0.0,0.0,0.0,0.0,0.0,0.0,1500,1500,0.0,0.0,40.048358,-88.2327671667,0.0,0.0,0.0,0.0,0.0,0.0,0.0,0.0,0.0,0.0,0.0,0,0.0,0.0,0.0,0.0,90.0,61.0,90.0,90.2726821899,118.856918335,89.6997299194,45.445999145500004,14.8655347824,3.1300001144,0,2,25,1,165,175
75,1530631793341,3706341, RC,0,39.9586186,-88.445067899,0,0.0,0.0,0.0,0.0,0.0,0.0,0.0,0.0,0.0,0.0,0.0,0.0,0.0,1500,1500,0.0,0.0,40.048358,-88.2327671667,0.0,0.0,0.0,0.0,0.0,0.0,0.0,0.0,0.0,0.0,0.0,0,0.0,0.0,0.0,0.0,90.0,61.0,90.0,90.2726821899,118.856918335,89.6997299194,45.445999145500004,14.8655347824,3.1300001144,0,2,25,1,200,177
76,1530631793391,3706391, RC,0,39.9586186,-88.445067899,0,0.0,0.0,0.0,0.0,0.0,0.0,0.0,0.0,0.0,0.0,0.0,0.0,0.0,1500,1500,0.0,0.0,40.048358,-88.2327671667,0.0,0.0,0.0,0.0,0.0,0.0,0.0,0.0,0.0,0.0,0.0,0,0.0,0.0,0.0,0.0,90.0,61.0,90.0,90.2726821899,118.856918335,89.6997299194,45.445999145500004,14.8655347824,3.1300001144,0,2,25,1,192,180
77,1530631793441,3706441, RC,0,39.9586186,-88.445067899,0,0.0,0.0,0.0,0.0,0.0,0.0,0.0,0.0,0.0,0.0,0.0,0.0,0.0,1500,1500,0.0,0.0,40.048358,-88.2327671667,0.0,0.0,0.0,0.0,0.0,0.0,0.0,0.0,0.0,0.0,0.0,0,0.0,0.0,0.0,0.0,90.0,61.0,90.0,90.2726821899,118.856918335,89.6997299194,45.445999145500004,14.8655347824,3.1300001144,0,2,25,1,190,182
78,1530631793492,3706492, RC,0,39.9586186,-88.445067899,0,0.0,0.0,0.0,0.0,0.0,0.0,0.0,0.0,0.0,0.0,0.0,0.0,0.0,1500,1500,0.0,0.0,40.048358,-88.2327671667,0.0,0.0,0.0,0.0,0.0,0.0,0.0,0.0,0.0,0.0,0.0,0,0.0,0.0,0.0,0.0,90.0,61.0,90.0,90.2726821899,118.856918335,89.6997299194,45.445999145500004,14.8655347824,3.1300001144,0,2,25,1,192,185
79,1530631793542,3706542, RC,0,39.9586186,-88.445067899,0,0.0,0.0,0.0,0.0,0.0,0.0,0.0,0.0,0.0,0.0,0.0,0.0,0.0,1500,1500,0.0,0.0,40.048358,-88.2327671667,0.0,0.0,0.0,0.0,0.0,0.0,0.0,0.0,0.0,0.0,0.0,0,0.0,0.0,0.0,0.0,90.0,61.0,90.0,90.2726821899,118.856918335,89.6997299194,45.445999145500004,14.8655347824,3.1300001144,0,2,25,1,198,187
80,1530631793592,3706592, RC,0,39.9586186,-88.445067899,0,0.0,0.0,0.0,0.0,0.0,0.0,0.0,0.0,0.0,0.0,0.0,0.0,0.0,1500,1500,0.0,0.0,40.048358,-88.2327671667,0.0,0.0,0.0,0.0,0.0,0.0,0.0,0.0,0.0,0.0,0.0,0,0.0,0.0,0.0,0.0,90.0,61.0,90.0,90.2726821899,118.856918335,89.6997299194,45.445999145500004,14.8655347824,3.1300001144,0,2,25,1,203,190
81,1530631793645,3706645, RC,0,39.9586186,-88.445067899,0,0.0,0.0,0.0,0.0,0.0,0.0,0.0,0.0,0.0,0.0,0.0,0.0,0.0,1500,1500,0.0,0.0,40.048358,-88.2327671667,0.0,0.0,0.0,0.0,0.0,0.0,0.0,0.0,0.0,0.0,0.0,0,0.0,0.0,0.0,0.0,90.0,61.0,90.0,90.2726821899,118.856918335,89.6997299194,46.5220031738,14.860960006700001,3.4499998093,0,2,25,1,192,192
82,1530631793696,3706696, RC,0,39.9586186,-88.445067899,0,0.0,0.0,0.0,0.0,0.0,0.0,0.0,0.0,0.0,0.0,0.0,0.0,0.0,1500,1500,0.0,0.0,40.048358,-88.2327671667,0.0,0.0,0.0,0.0,0.0,0.0,0.0,0.0,0.0,0.0,0.0,0,0.0,0.0,0.0,0.0,90.0,61.0,90.0,90.2726821899,118.856918335,89.6997299194,46.5220031738,14.860960006700001,3.4499998093,0,2,25,1,193,195
83,1530631793746,3706746, RC,0,39.9586186,-88.445067899,0,0.0,0.0,0.0,0.0,0.0,0.0,0.0,0.0,0.0,0.0,0.0,0.0,0.0,1500,1500,0.0,0.0,40.048358,-88.2327671667,0.0,0.0,0.0,0.0,0.0,0.0,0.0,0.0,0.0,0.0,0.0,0,0.0,0.0,0.0,0.0,90.0,61.0,90.0,90.2726821899,118.856918335,89.6997299194,46.5220031738,14.860960006700001,3.4499998093,0,2,25,1,198,197
84,1530631793796,3706796, RC,0,39.9586186,-88.445067899,0,0.0,0.0,0.0,0.0,0.0,0.0,0.0,0.0,0.0,0.0,0.0,0.0,0.0,1500,1500,0.0,0.0,40.048358,-88.2327671667,0.0,0.0,0.0,0.0,0.0,0.0,0.0,0.0,0.0,0.0,0.0,0,0.0,0.0,0.0,0.0,90.0,61.0,90.0,90.2726821899,118.856918335,89.6997299194,46.5220031738,14.860960006700001,3.4499998093,0,2,25,1,192,200
85,1530631793847,3706847, RC,0,39.9586186,-88.445067899,0,0.0,0.0,0.0,0.0,0.0,0.0,0.0,0.0,0.0,0.0,0.0,0.0,0.0,1500,1500,0.0,0.0,40.0483565,-88.2327665,0.0,0.0,0.0,0.0,0.0,0.0,0.0,0.0,0.0,0.0,0.0,0,0.0,0.0,0.0,0.0,90.0,61.0,90.0,90.2726821899,118.856918335,89.6997299194,46.5220031738,14.860960006700001,3.4499998093,0,2,25,1,183,202
86,1530631793897,3706897, RC,0,39.9586186,-88.445067899,0,0.0,0.0,0.0,0.0,0.0,0.0,0.0,0.0,0.0,0.0,0.0,0.0,0.0,1500,1500,0.0,0.0,40.0483565,-88.2327665,0.0,0.0,0.0,0.0,0.0,0.0,0.0,0.0,0.0,0.0,0.0,0,0.0,0.0,0.0,0.0,90.0,58.0,90.0,90.2726821899,118.856918335,89.6997299194,46.5220031738,14.860960006700001,3.4499998093,0,2,25,1,200,205
87,1530631793947,3706947, RC,0,39.9586186,-88.445067899,0,0.0,0.0,0.0,0.0,0.0,0.0,0.0,0.0,0.0,0.0,0.0,0.0,0.0,1500,1500,0.0,0.0,40.0483565,-88.2327665,0.0,0.0,0.0,0.0,0.0,0.0,0.0,0.0,0.0,0.0,0.0,0,0.0,0.0,0.0,0.0,90.0,58.0,90.0,90.2726821899,118.856918335,89.6997299194,46.5220031738,14.860960006700001,3.4499998093,0,2,25,1,195,207
88,1530631793998,3706998, RC,0,39.9586186,-88.445067899,0,0.0,0.0,0.0,0.0,0.0,0.0,0.0,0.0,0.0,0.0,0.0,0.0,0.0,1500,1500,0.0,0.0,40.0483565,-88.2327665,0.0,0.0,0.0,0.0,0.0,0.0,0.0,0.0,0.0,0.0,0.0,0,0.0,0.0,0.0,0.0,90.0,58.0,90.0,90.2726821899,120.76677703860001,89.6997299194,46.5220031738,14.860960006700001,3.4499998093,0,2,25,1,195,210
89,1530631794048,3707048, RC,0,39.9586186,-88.445067899,0,0.0,0.0,0.0,0.0,0.0,0.0,0.0,0.0,0.0,0.0,0.0,0.0,0.0,1500,1500,0.0,0.0,40.0483565,-88.2327665,0.0,0.0,0.0,0.0,0.0,0.0,0.0,0.0,0.0,0.0,0.0,0,0.0,0.0,0.0,0.0,90.0,58.0,90.0,90.2726821899,122.0400161743,89.6997299194,46.5220031738,14.860960006700001,3.4499998093,0,2,25,1,206,212
90,1530631794099,3707099, RC,0,39.9586186,-88.445067899,0,0.0,0.0,0.0,0.0,0.0,0.0,0.0,0.0,0.0,0.0,0.0,0.0,0.0,1500,1500,0.0,0.0,40.0483565,-88.2327665,0.0,0.0,0.0,0.0,0.0,0.0,0.0,0.0,0.0,0.0,0.0,0,0.0,0.0,0.0,0.0,90.0,58.0,90.0,90.2726821899,122.0400161743,89.6997299194,46.5220031738,14.860960006700001,3.4499998093,0,2,25,1,197,215
91,1530631794149,3707149, RC,0,39.9586186,-88.445067899,0,0.0,0.0,0.0,0.0,0.0,0.0,0.0,0.0,0.0,0.0,0.0,0.0,0.0,1500,1500,0.0,0.0,40.0483565,-88.2327665,0.0,0.0,0.0,0.0,0.0,0.0,0.0,0.0,0.0,0.0,0.0,0,0.0,0.0,0.0,0.0,90.0,58.0,90.0,90.2726821899,122.0400161743,89.6997299194,46.5220031738,14.860960006700001,3.4499998093,0,2,25,1,192,217
92,1530631794200,3707200, RC,0,39.9586186,-88.445067899,0,0.0,0.0,0.0,0.0,0.0,0.0,0.0,0.0,0.0,0.0,0.0,0.0,0.0,1500,1500,0.0,0.0,40.0483565,-88.2327665,0.0,0.0,0.0,0.0,0.0,0.0,0.0,0.0,0.0,0.0,0.0,0,0.0,0.0,0.0,0.0,90.0,58.0,90.0,90.2726821899,122.0400161743,89.6997299194,46.5220031738,14.860960006700001,3.4499998093,0,2,25,1,192,220
93,1530631794250,3707250, RC,0,39.9586186,-88.445067899,0,0.0,0.0,0.0,0.0,0.0,0.0,0.0,0.0,0.0,0.0,0.0,0.0,0.0,1500,1500,0.0,0.0,40.0483565,-88.2327665,0.0,0.0,0.0,0.0,0.0,0.0,0.0,0.0,0.0,0.0,0.0,0,0.0,0.0,0.0,0.0,90.0,58.0,90.0,90.2726821899,122.0400161743,89.6997299194,46.5220031738,14.860960006700001,3.4499998093,0,2,25,1,202,222
94,1530631794301,3707301, RC,0,39.9586186,-88.445067899,0,0.0,0.0,0.0,0.0,0.0,0.0,0.0,0.0,0.0,0.0,0.0,0.0,0.0,1500,1500,0.0,0.0,40.0483565,-88.2327665,0.0,0.0,0.0,0.0,0.0,0.0,0.0,0.0,0.0,0.0,0.0,0,0.0,0.0,0.0,0.0,90.0,58.0,90.0,90.2726821899,122.10367584229999,89.6997299194,46.5220031738,14.860960006700001,3.4499998093,0,2,25,1,194,225
95,1530631794351,3707351, RC,0,39.9586186,-88.445067899,0,0.0,0.0,0.0,0.0,0.0,0.0,0.0,0.0,0.0,0.0,0.0,0.0,0.0,1500,1500,0.0,0.0,40.0483565,-88.2327665,0.0,0.0,0.0,0.0,0.0,0.0,0.0,0.0,0.0,0.0,0.0,0,0.0,0.0,0.0,0.0,90.0,58.0,90.0,90.2726821899,122.10367584229999,89.6997299194,46.5220031738,14.860960006700001,3.4499998093,0,2,25,1,210,227
96,1530631794402,3707402, RC,0,39.9586186,-88.445067899,0,0.0,0.0,0.0,0.0,0.0,0.0,0.0,0.0,0.0,0.0,0.0,0.0,0.0,1500,1500,0.0,0.0,40.0483565,-88.2327665,0.0,0.0,0.0,0.0,0.0,0.0,0.0,0.0,0.0,0.0,0.0,0,0.0,0.0,0.0,0.0,90.0,58.0,90.0,90.2726821899,122.10367584229999,89.6997299194,46.5220031738,14.860960006700001,3.4499998093,0,2,25,1,199,230
97,1530631794453,3707453, RC,0,39.9586186,-88.445067899,0,0.0,0.0,0.0,0.0,0.0,0.0,0.0,0.0,0.0,0.0,0.0,0.0,0.0,1500,1500,0.0,0.0,40.0483565,-88.2327665,0.0,0.0,0.0,0.0,0.0,0.0,0.0,0.0,0.0,0.0,0.0,0,0.0,0.0,0.0,0.0,90.0,58.0,90.0,90.2726821899,122.10367584229999,89.6997299194,46.5220031738,14.860960006700001,3.4499998093,0,2,25,1,196,232
98,1530631794503,3707503, RC,0,39.9586186,-88.445067899,0,0.0,0.0,0.0,0.0,0.0,0.0,0.0,0.0,0.0,0.0,0.0,0.0,0.0,1500,1500,0.0,0.0,40.0483565,-88.2327665,0.0,0.0,0.0,0.0,0.0,0.0,0.0,0.0,0.0,0.0,0.0,0,0.0,0.0,0.0,0.0,90.0,58.0,90.0,90.2726821899,122.10367584229999,89.6997299194,46.5220031738,14.860960006700001,3.4499998093,0,2,25,1,213,235
99,1530631794554,3707554, RC,0,39.9586186,-88.445067899,0,0.0,0.0,0.0,0.0,0.0,0.0,0.0,0.0,0.0,0.0,0.0,0.0,0.0,1500,1500,0.0,0.0,40.0483565,-88.2327665,0.0,0.0,0.0,0.0,0.0,0.0,0.0,0.0,0.0,0.0,0.0,0,0.0,0.0,0.0,0.0,90.0,58.0,90.0,90.2726821899,122.10367584229999,89.6997299194,46.5220031738,14.860960006700001,3.4499998093,0,2,25,1,197,237
100,1530631794604,3707604, RC,0,39.9586186,-88.445067899,0,0.0,0.0,0.0,0.0,0.0,0.0,0.0,0.0,0.0,0.0,0.0,0.0,0.0,1500,1500,0.0,0.0,40.0483565,-88.2327665,0.0,0.0,0.0,0.0,0.0,0.0,0.0,0.0,0.0,0.0,0.0,0,0.0,0.0,0.0,0.0,90.0,58.0,90.0,90.2726821899,122.10367584229999,89.6997299194,46.5220031738,14.8611249924,2.5799999237,0,2,25,1,207,240
101,1530631794655,3707655, RC,0,39.9586186,-88.445067899,0,0.0,0.0,0.0,0.0,0.0,0.0,0.0,0.0,0.0,0.0,0.0,0.0,0.0,1500,1500,0.0,0.0,40.0483565,-88.2327665,0.0,0.0,0.0,0.0,0.0,0.0,0.0,0.0,0.0,0.0,0.0,0,0.0,0.0,0.0,0.0,90.0,58.0,90.0,90.2726821899,121.84902954100001,89.6997299194,46.5220031738,14.8611249924,2.5799999237,0,2,25,1,196,243
102,1530631794705,3707705, RC,0,39.9586186,-88.445067899,0,0.0,0.0,0.0,0.0,0.0,0.0,0.0,0.0,0.0,0.0,0.0,0.0,0.0,1500,1500,0.0,0.0,40.0483565,-88.2327665,0.0,0.0,0.0,0.0,0.0,0.0,0.0,0.0,0.0,0.0,0.0,0,0.0,0.0,0.0,0.0,90.0,58.0,90.0,90.2726821899,121.84902954100001,89.6997299194,46.5220031738,14.8611249924,2.5799999237,0,2,25,1,194,245
103,1530631794756,3707756, RC,0,39.9586186,-88.445067899,0,0.0,0.0,0.0,0.0,0.0,0.0,0.0,0.0,0.0,0.0,0.0,0.0,0.0,1500,1500,0.0,0.0,40.0483565,-88.2327665,0.0,0.0,0.0,0.0,0.0,0.0,0.0,0.0,0.0,0.0,0.0,0,0.0,0.0,0.0,0.0,90.0,58.0,90.0,90.2726821899,121.84902954100001,89.6997299194,46.5220031738,14.8611249924,2.5799999237,0,2,25,1,191,248
104,1530631794807,3707807, RC,0,39.9586186,-88.445067899,0,0.0,0.0,0.0,0.0,0.0,0.0,0.0,0.0,0.0,0.0,0.0,0.0,0.0,1500,1500,0.0,0.0,40.0483558333,-88.232764,0.0,0.0,0.0,0.0,0.0,0.0,0.0,0.0,0.0,0.0,0.0,0,0.0,0.0,0.0,0.0,90.0,58.0,90.0,90.2726821899,121.84902954100001,89.6997299194,46.5220031738,14.8611249924,2.5799999237,0,2,25,1,183,250
105,1530631794857,3707857, RC,0,39.9586186,-88.445067899,0,0.0,0.0,0.0,0.0,0.0,0.0,0.0,0.0,0.0,0.0,0.0,0.0,0.0,1500,1500,0.0,0.0,40.0483558333,-88.232764,0.0,0.0,0.0,0.0,0.0,0.0,0.0,0.0,0.0,0.0,0.0,0,0.0,0.0,0.0,0.0,90.0,58.0,90.0,90.2726821899,121.84902954100001,89.6997299194,46.5220031738,14.8611249924,2.5799999237,0,2,25,1,193,253
106,1530631794908,3707908, RC,0,39.9586186,-88.445067899,0,0.0,0.0,0.0,0.0,0.0,0.0,0.0,0.0,0.0,0.0,0.0,0.0,0.0,1500,1500,0.0,0.0,40.0483558333,-88.232764,0.0,0.0,0.0,0.0,0.0,0.0,0.0,0.0,0.0,0.0,0.0,0,0.0,0.0,0.0,0.0,90.0,58.0,90.0,90.2726821899,121.84902954100001,89.6997299194,46.5220031738,14.8611249924,2.5799999237,0,2,25,1,186,255
107,1530631794958,3707958, RC,0,39.9586186,-88.445067899,0,0.0,0.0,0.0,0.0,0.0,0.0,0.0,0.0,0.0,0.0,0.0,0.0,0.0,1500,1500,0.0,0.0,40.0483558333,-88.232764,0.0,0.0,0.0,0.0,0.0,0.0,0.0,0.0,0.0,0.0,0.0,0,0.0,0.0,0.0,0.0,90.0,58.0,90.0,90.2726821899,121.84902954100001,89.6997299194,46.5220031738,14.8611249924,2.5799999237,0,2,25,1,187,258
108,1530631795009,3708009, RC,0,39.9586186,-88.445067899,0,0.0,0.0,0.0,0.0,0.0,0.0,0.0,0.0,0.0,0.0,0.0,0.0,0.0,1500,1500,0.0,0.0,40.0483558333,-88.232764,0.0,0.0,0.0,0.0,0.0,0.0,0.0,0.0,0.0,0.0,0.0,0,0.0,0.0,0.0,0.0,90.0,58.0,90.0,90.2726821899,121.84902954100001,89.6997299194,46.5220031738,14.8611249924,2.5799999237,0,2,25,1,201,260
109,1530631795059,3708059, RC,0,39.9586186,-88.445067899,0,0.0,0.0,0.0,0.0,0.0,0.0,0.0,0.0,0.0,0.0,0.0,0.0,0.0,1500,1500,0.0,0.0,40.0483558333,-88.232764,0.0,0.0,0.0,0.0,0.0,0.0,0.0,0.0,0.0,0.0,0.0,0,0.0,0.0,0.0,0.0,90.0,58.0,90.0,90.2726821899,121.84902954100001,89.6997299194,46.5220031738,14.8611249924,2.5799999237,0,2,25,1,184,263
110,1530631795110,3708110, RC,0,39.9586186,-88.445067899,0,0.0,0.0,0.0,0.0,0.0,0.0,0.0,0.0,0.0,0.0,0.0,0.0,0.0,1500,1500,0.0,0.0,40.0483558333,-88.232764,0.0,0.0,0.0,0.0,0.0,0.0,0.0,0.0,0.0,0.0,0.0,0,0.0,0.0,0.0,0.0,90.0,58.0,90.0,90.145362854,121.84902954100001,89.6997299194,46.5220031738,14.8611249924,2.5799999237,0,2,25,1,199,265
111,1530631795161,3708161, RC,0,39.9586186,-88.445067899,0,0.0,0.0,0.0,0.0,0.0,0.0,0.0,0.0,0.0,0.0,0.0,0.0,0.0,1500,1500,0.0,0.0,40.0483558333,-88.232764,0.0,0.0,0.0,0.0,0.0,0.0,0.0,0.0,0.0,0.0,0.0,0,0.0,0.0,0.0,0.0,90.0,58.0,90.0,90.145362854,121.84902954100001,89.6997299194,46.5220031738,14.8611249924,2.5799999237,0,2,25,1,197,268
112,1530631795211,3708211, RC,0,39.9586186,-88.445067899,0,0.0,0.0,0.0,0.0,0.0,0.0,0.0,0.0,0.0,0.0,0.0,0.0,0.0,1500,1500,0.0,0.0,40.0483558333,-88.232764,0.0,0.0,0.0,0.0,0.0,0.0,0.0,0.0,0.0,0.0,0.0,0,0.0,0.0,0.0,0.0,90.0,58.0,90.0,90.145362854,121.84902954100001,89.6997299194,46.5220031738,14.8611249924,2.5799999237,0,2,25,1,187,270
113,1530631795262,3708262, RC,0,39.9586186,-88.445067899,0,0.0,0.0,0.0,0.0,0.0,0.0,0.0,0.0,0.0,0.0,0.0,0.0,0.0,1500,1500,0.0,0.0,40.0483558333,-88.232764,0.0,0.0,0.0,0.0,0.0,0.0,0.0,0.0,0.0,0.0,0.0,0,0.0,0.0,0.0,0.0,90.0,58.0,90.0,90.145362854,121.84902954100001,89.6997299194,46.5220031738,14.8611249924,2.5799999237,0,2,25,1,199,273
114,1530631795312,3708312, RC,0,39.9586186,-88.445067899,0,0.0,0.0,0.0,0.0,0.0,0.0,0.0,0.0,0.0,0.0,0.0,0.0,0.0,1500,1500,0.0,0.0,40.0483558333,-88.232764,0.0,0.0,0.0,0.0,0.0,0.0,0.0,0.0,0.0,0.0,0.0,0,0.0,0.0,0.0,0.0,90.0,58.0,90.0,90.145362854,121.84902954100001,89.6997299194,46.5220031738,14.8611249924,2.5799999237,0,2,25,1,181,275
115,1530631795363,3708363, RC,0,39.9586186,-88.445067899,0,0.0,0.0,0.0,0.0,0.0,0.0,0.0,0.0,0.0,0.0,0.0,0.0,0.0,1500,1500,0.0,0.0,40.0483558333,-88.232764,0.0,0.0,0.0,0.0,0.0,0.0,0.0,0.0,0.0,0.0,0.0,0,0.0,0.0,0.0,0.0,90.0,58.0,90.0,90.145362854,121.84902954100001,89.6997299194,46.5220031738,14.8611249924,2.5799999237,0,2,25,1,191,278
116,1530631795413,3708413, RC,0,39.9586186,-88.445067899,0,0.0,0.0,0.0,0.0,0.0,0.0,0.0,0.0,0.0,0.0,0.0,0.0,0.0,1500,1500,0.0,0.0,40.0483558333,-88.232764,0.0,0.0,0.0,0.0,0.0,0.0,0.0,0.0,0.0,0.0,0.0,0,0.0,0.0,0.0,0.0,90.0,58.0,90.0,90.145362854,121.84902954100001,89.6997299194,46.5220031738,14.8611249924,2.5799999237,0,2,25,1,193,280
117,1530631795464,3708464, RC,0,39.9586186,-88.445067899,0,0.0,0.0,0.0,0.0,0.0,0.0,0.0,0.0,0.0,0.0,0.0,0.0,0.0,1500,1500,0.0,0.0,40.0483558333,-88.232764,0.0,0.0,0.0,0.0,0.0,0.0,0.0,0.0,0.0,0.0,0.0,0,0.0,0.0,0.0,0.0,90.0,58.0,90.0,90.145362854,121.84902954100001,89.6997299194,46.5220031738,14.8611249924,2.5799999237,0,2,25,1,198,283
118,1530631795515,3708515, RC,0,39.9586186,-88.445067899,0,0.0,0.0,0.0,0.0,0.0,0.0,0.0,0.0,0.0,0.0,0.0,0.0,0.0,1500,1500,0.0,0.0,40.0483558333,-88.232764,0.0,0.0,0.0,0.0,0.0,0.0,0.0,0.0,0.0,0.0,0.0,0,0.0,0.0,0.0,0.0,90.0,61.0,90.0,90.145362854,121.84902954100001,89.6997299194,46.5220031738,14.8611249924,2.5799999237,0,2,25,1,200,285
119,1530631795565,3708565, RC,0,39.9586186,-88.445067899,0,0.0,0.0,0.0,0.0,0.0,0.0,0.0,0.0,0.0,0.0,0.0,0.0,0.0,1500,1500,0.0,0.0,40.0483558333,-88.232764,0.0,0.0,0.0,0.0,0.0,0.0,0.0,0.0,0.0,0.0,0.0,0,0.0,0.0,0.0,0.0,90.0,61.0,90.0,90.145362854,121.59437561040001,89.6997299194,46.5220031738,14.8611249924,2.5799999237,0,2,25,1,190,287
120,1530631795616,3708616, RC,0,39.9586186,-88.445067899,0,0.0,0.0,0.0,0.0,0.0,0.0,0.0,0.0,0.0,0.0,0.0,0.0,0.0,1500,1500,0.0,0.0,40.0483558333,-88.232764,0.0,0.0,0.0,0.0,0.0,0.0,0.0,0.0,0.0,0.0,0.0,0,0.0,0.0,0.0,0.0,90.0,61.0,90.0,90.145362854,119.42987060549999,89.6997299194,46.5220031738,14.8613605499,2.5799999237,0,2,25,1,196,289
121,1530631795667,3708667, RC,0,39.9586186,-88.445067899,0,0.0,0.0,0.0,0.0,0.0,0.0,0.0,0.0,0.0,0.0,0.0,0.0,0.0,1500,1500,0.0,0.0,40.0483558333,-88.232764,0.0,0.0,0.0,0.0,0.0,0.0,0.0,0.0,0.0,0.0,0.0,0,0.0,0.0,0.0,0.0,90.0,61.0,90.0,90.145362854,118.6659317017,89.6997299194,46.5220031738,14.8613605499,2.5799999237,0,2,25,1,212,291
122,1530631795717,3708717, RC,0,39.9586186,-88.445067899,0,0.0,0.0,0.0,0.0,0.0,0.0,0.0,0.0,0.0,0.0,0.0,0.0,0.0,1500,1500,0.0,0.0,40.0483558333,-88.232764,0.0,0.0,0.0,0.0,0.0,0.0,0.0,0.0,0.0,0.0,0.0,0,0.0,0.0,0.0,0.0,90.0,63.0,90.0,90.145362854,118.7932434082,89.6997299194,46.5220031738,14.8613605499,2.5799999237,0,2,25,1,204,292
123,1530631795768,3708768, RC,0,39.9586186,-88.445067899,0,0.0,0.0,0.0,0.0,0.0,0.0,0.0,0.0,0.0,0.0,0.0,0.0,0.0,1500,1500,0.0,0.0,40.0483558333,-88.232764,0.0,0.0,0.0,0.0,0.0,0.0,0.0,0.0,0.0,0.0,0.0,0,0.0,0.0,0.0,0.0,90.0,63.0,90.0,90.145362854,118.72959136959999,89.6997299194,46.5220031738,14.8613605499,2.5799999237,0,2,25,1,200,294
124,1530631795818,3708818, RC,0,39.9586186,-88.445067899,0,0.0,0.0,0.0,0.0,0.0,0.0,0.0,0.0,0.0,0.0,0.0,0.0,0.0,1500,1500,0.0,0.0,40.0483568333,-88.2327635,0.0,0.0,0.0,0.0,0.0,0.0,0.0,0.0,0.0,0.0,0.0,0,0.0,0.0,0.0,0.0,90.0,64.0,90.0,90.145362854,117.3290328979,89.6997299194,46.5220031738,14.8613605499,2.5799999237,0,2,25,1,200,296
125,1530631795874,3708874, RC,0,39.9586186,-88.445067899,0,0.0,0.0,0.0,0.0,0.0,0.0,0.0,0.0,0.0,0.0,0.0,0.0,0.0,1500,1500,0.0,0.0,40.0483568333,-88.2327635,0.0,0.0,0.0,0.0,0.0,0.0,0.0,0.0,0.0,0.0,0.0,0,0.0,0.0,0.0,0.0,90.0,64.0,90.0,90.145362854,115.9284591675,89.6997299194,46.5220031738,14.8613605499,2.5799999237,0,2,25,1,198,298
126,1530631795925,3708925, RC,0,39.9586186,-88.445067899,0,0.0,0.0,0.0,0.0,0.0,0.0,0.0,0.0,0.0,0.0,0.0,0.0,0.0,1500,1500,0.0,0.0,40.0483568333,-88.2327635,0.0,0.0,0.0,0.0,0.0,0.0,0.0,0.0,0.0,0.0,0.0,0,0.0,0.0,0.0,0.0,90.0,64.0,90.0,90.145362854,116.1194458008,89.6997299194,46.5220031738,14.8613605499,2.5799999237,0,2,25,1,210,300
127,1530631795975,3708975, RC,0,39.9586186,-88.445067899,0,0.0,0.0,0.0,0.0,0.0,0.0,0.0,0.0,0.0,0.0,0.0,0.0,0.0,1500,1500,0.0,0.0,40.0483568333,-88.2327635,0.0,0.0,0.0,0.0,0.0,0.0,0.0,0.0,0.0,0.0,0.0,0,0.0,0.0,0.0,0.0,90.0,64.0,90.0,90.145362854,116.1194458008,89.6997299194,46.5220031738,14.8613605499,2.5799999237,0,2,25,1,203,301
128,1530631796026,3709026, RC,0,39.9586186,-88.445067899,0,0.0,0.0,0.0,0.0,0.0,0.0,0.0,0.0,0.0,0.0,0.0,0.0,0.0,1500,1500,0.0,0.0,40.0483568333,-88.2327635,0.0,0.0,0.0,0.0,0.0,0.0,0.0,0.0,0.0,0.0,0.0,0,0.0,0.0,0.0,0.0,90.0,64.0,90.0,90.145362854,116.1194458008,89.6997299194,46.5220031738,14.8613605499,2.5799999237,0,2,25,1,203,303
129,1530631796076,3709076, RC,0,39.9586186,-88.445067899,0,0.0,0.0,0.0,0.0,0.0,0.0,0.0,0.0,0.0,0.0,0.0,0.0,0.0,1500,1500,0.0,0.0,40.0483568333,-88.2327635,0.0,0.0,0.0,0.0,0.0,0.0,0.0,0.0,0.0,0.0,0.0,0,0.0,0.0,0.0,0.0,90.0,64.0,90.0,90.145362854,116.1194458008,89.6997299194,46.5220031738,14.8613605499,2.5799999237,0,2,25,1,206,305
130,1530631796127,3709127, RC,0,39.9586186,-88.445067899,0,0.0,0.0,0.0,0.0,0.0,0.0,0.0,0.0,0.0,0.0,0.0,0.0,0.0,1500,1500,0.0,0.0,40.0483568333,-88.2327635,0.0,0.0,0.0,0.0,0.0,0.0,0.0,0.0,0.0,0.0,0.0,0,0.0,0.0,0.0,0.0,90.0,64.0,90.0,90.145362854,116.1194458008,89.6997299194,46.5220031738,14.8613605499,2.5799999237,0,2,25,1,182,307
131,1530631796178,3709178, RC,0,39.9586186,-88.445067899,0,0.0,0.0,0.0,0.0,0.0,0.0,0.0,0.0,0.0,0.0,0.0,0.0,0.0,1500,1500,0.0,0.0,40.0483568333,-88.2327635,0.0,0.0,0.0,0.0,0.0,0.0,0.0,0.0,0.0,0.0,0.0,0,0.0,0.0,0.0,0.0,90.0,64.0,90.0,90.145362854,116.1194458008,89.6997299194,46.5220031738,14.8613605499,2.5799999237,0,2,25,1,182,308
132,1530631796228,3709228, RC,0,39.9586186,-88.445067899,0,0.0,0.0,0.0,0.0,0.0,0.0,0.0,0.0,0.0,0.0,0.0,0.0,0.0,1500,1500,0.0,0.0,40.0483568333,-88.2327635,0.0,0.0,0.0,0.0,0.0,0.0,0.0,0.0,0.0,0.0,0.0,0,0.0,0.0,0.0,0.0,90.0,64.0,90.0,90.145362854,116.1194458008,89.6997299194,46.5220031738,14.8613605499,2.5799999237,0,2,25,1,202,310
133,1530631796279,3709279, RC,0,39.9586186,-88.445067899,0,0.0,0.0,0.0,0.0,0.0,0.0,0.0,0.0,0.0,0.0,0.0,0.0,0.0,1500,1500,0.0,0.0,40.0483568333,-88.2327635,0.0,0.0,0.0,0.0,0.0,0.0,0.0,0.0,0.0,0.0,0.0,0,0.0,0.0,0.0,0.0,90.0,64.0,90.0,90.145362854,116.1194458008,89.6997299194,46.5220031738,14.8613605499,2.5799999237,0,2,25,1,200,313
134,1530631796329,3709329, RC,0,39.9586186,-88.445067899,0,0.0,0.0,0.0,0.0,0.0,0.0,0.0,0.0,0.0,0.0,0.0,0.0,0.0,1500,1500,0.0,0.0,40.0483568333,-88.2327635,0.0,0.0,0.0,0.0,0.0,0.0,0.0,0.0,0.0,0.0,0.0,0,0.0,0.0,0.0,0.0,90.0,64.0,90.0,90.145362854,115.9921188354,89.6997299194,46.5220031738,14.8613605499,2.5799999237,0,2,25,1,199,316
135,1530631796380,3709380, RC,0,39.9586186,-88.445067899,0,0.0,0.0,0.0,0.0,0.0,0.0,0.0,0.0,0.0,0.0,0.0,0.0,0.0,1500,1500,0.0,0.0,40.0483568333,-88.2327635,0.0,0.0,0.0,0.0,0.0,0.0,0.0,0.0,0.0,0.0,0.0,0,0.0,0.0,0.0,0.0,90.0,64.0,90.0,90.145362854,115.86479949950001,89.6997299194,46.5220031738,14.8613605499,2.5799999237,0,2,25,1,189,318
136,1530631796431,3709431, RC,0,39.9586186,-88.445067899,0,0.0,0.0,0.0,0.0,0.0,0.0,0.0,0.0,0.0,0.0,0.0,0.0,0.0,1500,1500,0.0,0.0,40.0483568333,-88.2327635,0.0,0.0,0.0,0.0,0.0,0.0,0.0,0.0,0.0,0.0,0.0,0,0.0,0.0,0.0,0.0,90.0,63.0,90.0,90.145362854,115.86479949950001,89.6997299194,46.5220031738,14.8613605499,2.5799999237,0,2,25,1,187,321
137,1530631796481,3709481, RC,0,39.9586186,-88.445067899,0,0.0,0.0,0.0,0.0,0.0,0.0,0.0,0.0,0.0,0.0,0.0,0.0,0.0,1500,1500,0.0,0.0,40.0483568333,-88.2327635,0.0,0.0,0.0,0.0,0.0,0.0,0.0,0.0,0.0,0.0,0.0,0,0.0,0.0,0.0,0.0,90.0,63.0,90.0,90.145362854,115.86479949950001,89.6997299194,46.5220031738,14.8613605499,2.5799999237,0,2,25,1,184,324
138,1530631796532,3709532, RC,0,39.9586186,-88.445067899,0,0.0,0.0,0.0,0.0,0.0,0.0,0.0,0.0,0.0,0.0,0.0,0.0,0.0,1500,1500,0.0,0.0,40.0483568333,-88.2327635,0.0,0.0,0.0,0.0,0.0,0.0,0.0,0.0,0.0,0.0,0.0,0,0.0,0.0,0.0,0.0,90.0,63.0,90.0,90.145362854,115.9284591675,89.6997299194,46.5220031738,14.8613605499,2.5799999237,0,2,25,1,196,327
139,1530631796583,3709583, RC,0,39.9586186,-88.445067899,0,0.0,0.0,0.0,0.0,0.0,0.0,0.0,0.0,0.0,0.0,0.0,0.0,0.0,1500,1500,0.0,0.0,40.0483568333,-88.2327635,0.0,0.0,0.0,0.0,0.0,0.0,0.0,0.0,0.0,0.0,0.0,0,0.0,0.0,0.0,0.0,90.0,63.0,90.0,90.145362854,116.3740844727,89.6997299194,46.5220031738,14.8613605499,2.5799999237,0,2,25,1,207,330
140,1530631796633,3709633, RC,0,39.9586186,-88.445067899,0,0.0,0.0,0.0,0.0,0.0,0.0,0.0,0.0,0.0,0.0,0.0,0.0,0.0,1500,1500,0.0,0.0,40.0483568333,-88.2327635,0.0,0.0,0.0,0.0,0.0,0.0,0.0,0.0,0.0,0.0,0.0,0,0.0,0.0,0.0,0.0,90.0,63.0,90.0,90.145362854,116.43775939940001,89.6997299194,46.5220031738,14.851550102200001,2.7300000191000002,0,2,25,1,188,332
141,1530631796684,3709684, RC,0,39.9586186,-88.445067899,0,0.0,0.0,0.0,0.0,0.0,0.0,0.0,0.0,0.0,0.0,0.0,0.0,0.0,1500,1500,0.0,0.0,40.0483568333,-88.2327635,0.0,0.0,0.0,0.0,0.0,0.0,0.0,0.0,0.0,0.0,0.0,0,0.0,0.0,0.0,0.0,90.0,63.0,90.0,90.145362854,116.43775939940001,89.6997299194,46.5220031738,14.851550102200001,2.7300000191000002,0,2,25,1,201,335
142,1530631796734,3709734, RC,0,39.9586186,-88.445067899,0,0.0,0.0,0.0,0.0,0.0,0.0,0.0,0.0,0.0,0.0,0.0,0.0,0.0,1500,1500,0.0,0.0,40.0483568333,-88.2327635,0.0,0.0,0.0,0.0,0.0,0.0,0.0,0.0,0.0,0.0,0.0,0,0.0,0.0,0.0,0.0,90.0,63.0,90.0,90.145362854,116.43775939940001,89.6997299194,46.5220031738,14.851550102200001,2.7300000191000002,0,2,25,1,199,338
143,1530631796785,3709785, RC,0,39.9586186,-88.445067899,0,0.0,0.0,0.0,0.0,0.0,0.0,0.0,0.0,0.0,0.0,0.0,0.0,0.0,1500,1500,0.0,0.0,40.0483568333,-88.2327635,0.0,0.0,0.0,0.0,0.0,0.0,0.0,0.0,0.0,0.0,0.0,0,0.0,0.0,0.0,0.0,90.0,63.0,90.0,90.145362854,116.43775939940001,89.6997299194,46.5220031738,14.851550102200001,2.7300000191000002,0,2,25,1,191,340
144,1530631796836,3709836, RC,0,39.9586186,-88.445067899,0,0.0,0.0,0.0,0.0,0.0,0.0,0.0,0.0,0.0,0.0,0.0,0.0,0.0,1500,1500,0.0,0.0,40.0483576667,-88.2327605,0.0,0.0,0.0,0.0,0.0,0.0,0.0,0.0,0.0,0.0,0.0,0,0.0,0.0,0.0,0.0,90.0,63.0,90.0,90.145362854,116.43775939940001,89.6997299194,46.5220031738,14.851550102200001,2.7300000191000002,0,2,25,1,198,343
145,1530631796886,3709886, RC,0,39.9586186,-88.445067899,0,0.0,0.0,0.0,0.0,0.0,0.0,0.0,0.0,0.0,0.0,0.0,0.0,0.0,1500,1500,0.0,0.0,40.0483576667,-88.2327605,0.0,0.0,0.0,0.0,0.0,0.0,0.0,0.0,0.0,0.0,0.0,0,0.0,0.0,0.0,0.0,90.0,63.0,90.0,90.145362854,116.43775939940001,89.6997299194,46.5220031738,14.851550102200001,2.7300000191000002,0,2,25,1,194,345
146,1530631796937,3709937, RC,0,39.9586186,-88.445067899,0,0.0,0.0,0.0,0.0,0.0,0.0,0.0,0.0,0.0,0.0,0.0,0.0,0.0,1500,1500,0.0,0.0,40.0483576667,-88.2327605,0.0,0.0,0.0,0.0,0.0,0.0,0.0,0.0,0.0,0.0,0.0,0,0.0,0.0,0.0,0.0,90.0,63.0,90.0,90.145362854,116.43775939940001,89.6997299194,46.5220031738,14.851550102200001,2.7300000191000002,0,2,25,1,214,348
147,1530631796987,3709987, RC,0,39.9586186,-88.445067899,0,0.0,0.0,0.0,0.0,0.0,0.0,0.0,0.0,0.0,0.0,0.0,0.0,0.0,1500,1500,0.0,0.0,40.0483576667,-88.2327605,0.0,0.0,0.0,0.0,0.0,0.0,0.0,0.0,0.0,0.0,0.0,0,0.0,0.0,0.0,0.0,90.0,63.0,90.0,90.145362854,116.43775939940001,89.6997299194,46.5220031738,14.851550102200001,2.7300000191000002,0,2,25,1,193,350
148,1530631797038,3710038, RC,0,39.9586186,-88.445067899,0,0.0,0.0,0.0,0.0,0.0,0.0,0.0,0.0,0.0,0.0,0.0,0.0,0.0,1500,1500,0.0,0.0,40.0483576667,-88.2327605,0.0,0.0,0.0,0.0,0.0,0.0,0.0,0.0,0.0,0.0,0.0,0,0.0,0.0,0.0,0.0,90.0,61.0,90.0,90.145362854,116.43775939940001,89.6997299194,46.5220031738,14.851550102200001,2.7300000191000002,0,2,25,1,202,353
149,1530631797089,3710089, RC,0,39.9586186,-88.445067899,0,0.0,0.0,0.0,0.0,0.0,0.0,0.0,0.0,0.0,0.0,0.0,0.0,0.0,1500,1500,0.0,0.0,40.0483576667,-88.2327605,0.0,0.0,0.0,0.0,0.0,0.0,0.0,0.0,0.0,0.0,0.0,0,0.0,0.0,0.0,0.0,90.0,61.0,90.0,90.145362854,116.5014190674,89.6997299194,46.5220031738,14.851550102200001,2.7300000191000002,0,2,25,1,184,356
150,1530631797139,3710139, RC,0,39.9586186,-88.445067899,0,0.0,0.0,0.0,0.0,0.0,0.0,0.0,0.0,0.0,0.0,0.0,0.0,0.0,1500,1500,0.0,0.0,40.0483576667,-88.2327605,0.0,0.0,0.0,0.0,0.0,0.0,0.0,0.0,0.0,0.0,0.0,0,0.0,0.0,0.0,0.0,90.0,61.0,90.0,90.145362854,119.2388916016,89.6997299194,46.5220031738,14.851550102200001,2.7300000191000002,0,2,25,1,180,358
151,1530631797190,3710190, RC,0,39.9586186,-88.445067899,0,0.0,0.0,0.0,0.0,0.0,0.0,0.0,0.0,0.0,0.0,0.0,0.0,0.0,1500,1500,0.0,0.0,40.0483576667,-88.2327605,0.0,0.0,0.0,0.0,0.0,0.0,0.0,0.0,0.0,0.0,0.0,0,0.0,0.0,0.0,0.0,90.0,61.0,90.0,90.145362854,119.1115570068,89.6997299194,46.5220031738,14.851550102200001,2.7300000191000002,0,2,25,1,196,361
152,1530631797241,3710241, RC,0,39.9586186,-88.445067899,0,0.0,0.0,0.0,0.0,0.0,0.0,0.0,0.0,0.0,0.0,0.0,0.0,0.0,1500,1500,0.0,0.0,40.0483576667,-88.2327605,0.0,0.0,0.0,0.0,0.0,0.0,0.0,0.0,0.0,0.0,0.0,0,0.0,0.0,0.0,0.0,90.0,61.0,90.0,90.145362854,119.1752166748,89.6997299194,46.5220031738,14.851550102200001,2.7300000191000002,0,2,25,1,181,363
153,1530631797291,3710291, RC,0,39.9586186,-88.445067899,0,0.0,0.0,0.0,0.0,0.0,0.0,0.0,0.0,0.0,0.0,0.0,0.0,0.0,1500,1500,0.0,0.0,40.0483576667,-88.2327605,0.0,0.0,0.0,0.0,0.0,0.0,0.0,0.0,0.0,0.0,0.0,0,0.0,0.0,0.0,0.0,90.0,61.0,90.0,90.145362854,119.1752166748,89.6997299194,46.5220031738,14.851550102200001,2.7300000191000002,0,2,25,1,189,366
154,1530631797342,3710342, RC,0,39.9586186,-88.445067899,0,0.0,0.0,0.0,0.0,0.0,0.0,0.0,0.0,0.0,0.0,0.0,0.0,0.0,1500,1500,0.0,0.0,40.0483576667,-88.2327605,0.0,0.0,0.0,0.0,0.0,0.0,0.0,0.0,0.0,0.0,0.0,0,0.0,0.0,0.0,0.0,90.0,61.0,90.0,90.145362854,119.1752166748,89.6997299194,46.5220031738,14.851550102200001,2.7300000191000002,0,2,25,1,194,368
155,1530631797392,3710392, RC,0,39.9586186,-88.445067899,0,0.0,0.0,0.0,0.0,0.0,0.0,0.0,0.0,0.0,0.0,0.0,0.0,0.0,1500,1500,0.0,0.0,40.0483576667,-88.2327605,0.0,0.0,0.0,0.0,0.0,0.0,0.0,0.0,0.0,0.0,0.0,0,0.0,0.0,0.0,0.0,90.0,61.0,90.0,90.145362854,119.1752166748,89.6997299194,46.5220031738,14.851550102200001,2.7300000191000002,0,2,25,1,199,369
156,1530631797443,3710443, RC,0,39.9586186,-88.445067899,0,0.0,0.0,0.0,0.0,0.0,0.0,0.0,0.0,0.0,0.0,0.0,0.0,0.0,1500,1500,0.0,0.0,40.0483576667,-88.2327605,0.0,0.0,0.0,0.0,0.0,0.0,0.0,0.0,0.0,0.0,0.0,0,0.0,0.0,0.0,0.0,90.0,61.0,90.0,90.145362854,119.1752166748,89.6997299194,46.5220031738,14.851550102200001,2.7300000191000002,0,2,25,1,201,371
157,1530631797494,3710494, RC,0,39.9586186,-88.445067899,0,0.0,0.0,0.0,0.0,0.0,0.0,0.0,0.0,0.0,0.0,0.0,0.0,0.0,1500,1500,0.0,0.0,40.0483576667,-88.2327605,0.0,0.0,0.0,0.0,0.0,0.0,0.0,0.0,0.0,0.0,0.0,0,0.0,0.0,0.0,0.0,90.0,61.0,90.0,90.145362854,119.1752166748,89.6997299194,46.5220031738,14.851550102200001,2.7300000191000002,0,2,25,1,199,373
158,1530631797545,3710545, RC,0,39.9586186,-88.445067899,0,0.0,0.0,0.0,0.0,0.0,0.0,0.0,0.0,0.0,0.0,0.0,0.0,0.0,1500,1500,0.0,0.0,40.0483576667,-88.2327605,0.0,0.0,0.0,0.0,0.0,0.0,0.0,0.0,0.0,0.0,0.0,0,0.0,0.0,0.0,0.0,90.0,61.0,90.0,90.145362854,119.1752166748,89.6997299194,46.5220031738,14.851550102200001,2.7300000191000002,0,2,25,1,196,374
159,1530631797595,3710595, RC,0,39.9586186,-88.445067899,0,0.0,0.0,0.0,0.0,0.0,0.0,0.0,0.0,0.0,0.0,0.0,0.0,0.0,1500,1500,0.0,0.0,40.0483576667,-88.2327605,0.0,0.0,0.0,0.0,0.0,0.0,0.0,0.0,0.0,0.0,0.0,0,0.0,0.0,0.0,0.0,90.0,61.0,90.0,90.145362854,119.1752166748,89.6997299194,46.5220031738,14.851550102200001,2.7300000191000002,0,2,25,1,198,376
160,1530631797646,3710646, RC,0,39.9586186,-88.445067899,0,0.0,0.0,0.0,0.0,0.0,0.0,0.0,0.0,0.0,0.0,0.0,0.0,0.0,1500,1500,0.0,0.0,40.0483576667,-88.2327605,0.0,0.0,0.0,0.0,0.0,0.0,0.0,0.0,0.0,0.0,0.0,0,0.0,0.0,0.0,0.0,90.0,61.0,90.0,90.145362854,119.1752166748,89.6997299194,46.5220031738,14.8417453766,2.5299999713999997,0,2,25,1,197,378
161,1530631797696,3710696, RC,0,39.9586186,-88.445067899,0,0.0,0.0,0.0,0.0,0.0,0.0,0.0,0.0,0.0,0.0,0.0,0.0,0.0,1500,1500,0.0,0.0,40.0483576667,-88.2327605,0.0,0.0,0.0,0.0,0.0,0.0,0.0,0.0,0.0,0.0,0.0,0,0.0,0.0,0.0,0.0,90.0,61.0,90.0,90.145362854,119.1752166748,89.6997299194,46.5220031738,14.8417453766,2.5299999713999997,0,2,25,1,190,379
162,1530631797747,3710747, RC,0,39.9586186,-88.445067899,0,0.0,0.0,0.0,0.0,0.0,0.0,0.0,0.0,0.0,0.0,0.0,0.0,0.0,1500,1500,0.0,0.0,40.0483576667,-88.2327605,0.0,0.0,0.0,0.0,0.0,0.0,0.0,0.0,0.0,0.0,0.0,0,0.0,0.0,0.0,0.0,90.0,61.0,90.0,90.145362854,119.1752166748,89.6997299194,46.5220031738,14.8417453766,2.5299999713999997,0,2,25,1,208,381
163,1530631797798,3710798, RC,0,39.9586186,-88.445067899,0,0.0,0.0,0.0,0.0,0.0,0.0,0.0,0.0,0.0,0.0,0.0,0.0,0.0,1500,1500,0.0,0.0,40.0483576667,-88.2327605,0.0,0.0,0.0,0.0,0.0,0.0,0.0,0.0,0.0,0.0,0.0,0,0.0,0.0,0.0,0.0,90.0,61.0,90.0,90.145362854,119.1752166748,89.6997299194,46.5220031738,14.8417453766,2.5299999713999997,0,2,25,1,199,383
164,1530631797848,3710848, RC,0,39.9586186,-88.445067899,0,0.0,0.0,0.0,0.0,0.0,0.0,0.0,0.0,0.0,0.0,0.0,0.0,0.0,1500,1500,0.0,0.0,40.0483568333,-88.232759,0.0,0.0,0.0,0.0,0.0,0.0,0.0,0.0,0.0,0.0,0.0,0,0.0,0.0,0.0,0.0,90.0,58.0,90.0,90.145362854,119.1752166748,89.6997299194,46.5220031738,14.8417453766,2.5299999713999997,0,2,25,1,193,384
165,1530631797899,3710899, RC,0,39.9586186,-88.445067899,0,0.0,0.0,0.0,0.0,0.0,0.0,0.0,0.0,0.0,0.0,0.0,0.0,0.0,1500,1500,0.0,0.0,40.0483568333,-88.232759,0.0,0.0,0.0,0.0,0.0,0.0,0.0,0.0,0.0,0.0,0.0,0,0.0,0.0,0.0,0.0,90.0,58.0,90.0,90.145362854,120.8940887451,89.6997299194,46.5220031738,14.8417453766,2.5299999713999997,0,2,25,1,191,386
166,1530631797950,3710950, RC,0,39.9586186,-88.445067899,0,0.0,0.0,0.0,0.0,0.0,0.0,0.0,0.0,0.0,0.0,0.0,0.0,0.0,1500,1500,0.0,0.0,40.0483568333,-88.232759,0.0,0.0,0.0,0.0,0.0,0.0,0.0,0.0,0.0,0.0,0.0,0,0.0,0.0,0.0,0.0,90.0,58.0,90.0,90.145362854,122.10367584229999,89.6997299194,46.5220031738,14.8417453766,2.5299999713999997,0,2,25,1,191,388
167,1530631798000,3711000, RC,0,39.9586186,-88.445067899,0,0.0,0.0,0.0,0.0,0.0,0.0,0.0,0.0,0.0,0.0,0.0,0.0,0.0,1500,1500,0.0,0.0,40.0483568333,-88.232759,0.0,0.0,0.0,0.0,0.0,0.0,0.0,0.0,0.0,0.0,0.0,0,0.0,0.0,0.0,0.0,90.0,58.0,90.0,90.145362854,122.10367584229999,89.6997299194,46.5220031738,14.8417453766,2.5299999713999997,0,2,25,1,202,389
168,1530631798051,3711051, RC,0,39.9586186,-88.445067899,0,0.0,0.0,0.0,0.0,0.0,0.0,0.0,0.0,0.0,0.0,0.0,0.0,0.0,1500,1500,0.0,0.0,40.0483568333,-88.232759,0.0,0.0,0.0,0.0,0.0,0.0,0.0,0.0,0.0,0.0,0.0,0,0.0,0.0,0.0,0.0,90.0,58.0,90.0,90.145362854,122.10367584229999,89.6997299194,46.5220031738,14.8417453766,2.5299999713999997,0,2,25,1,194,391
169,1530631798101,3711101, RC,0,39.9586186,-88.445067899,0,0.0,0.0,0.0,0.0,0.0,0.0,0.0,0.0,0.0,0.0,0.0,0.0,0.0,1500,1500,0.0,0.0,40.0483568333,-88.232759,0.0,0.0,0.0,0.0,0.0,0.0,0.0,0.0,0.0,0.0,0.0,0,0.0,0.0,0.0,0.0,90.0,58.0,90.0,90.145362854,122.10367584229999,89.6997299194,46.5220031738,14.8417453766,2.5299999713999997,0,2,25,1,198,393
170,1530631798152,3711152, RC,0,39.9586186,-88.445067899,0,0.0,0.0,0.0,0.0,0.0,0.0,0.0,0.0,0.0,0.0,0.0,0.0,0.0,1500,1500,0.0,0.0,40.0483568333,-88.232759,0.0,0.0,0.0,0.0,0.0,0.0,0.0,0.0,0.0,0.0,0.0,0,0.0,0.0,0.0,0.0,90.0,58.0,90.0,90.145362854,122.10367584229999,89.6997299194,46.5220031738,14.8417453766,2.5299999713999997,0,2,25,1,200,394
171,1530631798203,3711203, RC,0,39.9586186,-88.445067899,0,0.0,0.0,0.0,0.0,0.0,0.0,0.0,0.0,0.0,0.0,0.0,0.0,0.0,1500,1500,0.0,0.0,40.0483568333,-88.232759,0.0,0.0,0.0,0.0,0.0,0.0,0.0,0.0,0.0,0.0,0.0,0,0.0,0.0,0.0,0.0,90.0,58.0,90.0,90.145362854,122.10367584229999,89.6997299194,46.5220031738,14.8417453766,2.5299999713999997,0,2,25,1,196,396
