,(0)linux time (ms),    (1)uptime  (ms),      (2)drive mode,(3)mpc step counter,(4)mpc origin latitude  (deg),(5)mpc origin longitude  (deg),(6)closest trajectory point index to robot,(7)mpc error x (W;E)  (m),(8)mpc error y (W;E)  (m),(9)abs mpc error (m),(10)input [x] for mhe (m),(11)input [y] for mhe (m),(12)input [speed] for mhe (m/s),(13)input [vyaw] for mhe (rad/s),(14)mhe output x  (m),(15)mhe output y  (m),(16)mhe output speed  (m/s),(17)mhe output yaw  (rad),(18)mpc reference heading (rad),(19)mpc turn rate command (rad/s),(20)turn rate command as PWM,(21)throttle command as PWM,(22)primary gps latitude (deg),(23)primary gps longitude (deg),(24)secondary gps latitude  (deg),(25)secondary gps longitude (deg),(26)accelerometer x (m/s^2),(27)accelerometer y (m/s^2),(28)accelerometer z (m/s^2),(29)gyro yaw rate (rad/s),(30)gyro pitch rate   (rad/s),(31)gyro roll rate (rad/s),      (32)yaw (rad),  (33)pitch   (rad),     (34)roll (rad),(35)sonar1 measurement (m),(36)ultrasonic sensor measurement (m),(37)primary gps time (s),(38)normalized turn rate command,(39)normalized throttle command,(40)speed calculation from encoder left (m/s),(41)speed calculation from encoder right (m/s),(42)front gimbal target angle (degrees from straight down),(43)left gimbal target angle  (degrees from straight down),(44)right gimbal target angle  (degrees from straight down),(45)front gimbal measured angle  (degrees from straight down),(46)left gimbal measured angle    (degrees from straight down),(47)right gimbal measured angle  (degrees from straight down),(48)internal temperature (C),(49)battery voltage (V),(50)primary gps type,(51)secondary gps type,    (52)MPC R value, (53)MPC Q[0] value,Unnamed: 54,weed_num,start
0,1530635517338,206338, RC,0,39.9586186,-88.445067899,0,0.0,0.0,0.0,0.0,0.0,0.0179335643,0.0,0.0,0.0,0.0,0.0,0.0,0.0,1500,1500,0.0,0.0,40.0484573333,-88.2328288333,0.0,0.0,0.0,0.0,0.0,0.0,0.0,0.0,0.0,0.0,0.0,0,0.0,0.0,0.0204166733,0.015450455200000001,90.0,60.0,60.0,90.5909881592,120.19381713870001,120.13014221190001,49.2119979858,15.9266719818,5.0500001907,0,2,25,1,71,5981
1,1530635517389,206389, RC,0,39.9586186,-88.445067899,0,0.0,0.0,0.0,0.0,0.0,0.0134271812,0.0,0.0,0.0,0.0,0.0,0.0,0.0,1500,1500,0.0,0.0,40.0484573333,-88.2328288333,0.0,0.0,0.0,0.0,0.0,0.0,0.0,0.0,0.0,0.0,0.0,0,0.0,0.0,0.0152665218,0.011587841399999998,90.0,60.0,60.0,90.5273361206,120.2574768066,120.2574768066,49.2119979858,15.9266719818,5.0500001907,0,2,25,1,75,5983
2,1530635517440,206440, RC,0,39.9586186,-88.445067899,0,0.0,0.0,0.0,0.0,0.0,0.011219973700000002,0.0,0.0,0.0,0.0,0.0,0.0,0.0,1500,1500,0.0,0.0,40.0484573333,-88.2328288333,0.0,0.0,0.0,0.0,0.0,0.0,0.0,0.0,0.0,0.0,0.0,0,0.0,0.0,0.0126914456,0.0097485017,90.0,60.0,60.0,90.5273361206,120.2574768066,120.2574768066,49.2119979858,15.9266719818,5.0500001907,0,2,25,1,75,5984
3,1530635517490,206490, RC,0,39.9586186,-88.445067899,0,0.0,0.0,0.0,0.0,0.0,0.0083689969,0.0,0.0,0.0,0.0,0.0,0.0,0.0,1500,1500,0.0,0.0,40.0484573333,-88.2328288333,0.0,0.0,0.0,0.0,0.0,0.0,0.0,0.0,0.0,0.0,0.0,0,0.0,0.0,0.0095645674,0.007173426,90.0,60.0,60.0,90.5273361206,120.2574768066,120.32112884520001,49.2119979858,15.9266719818,5.0500001907,0,2,25,1,66,5985
4,1530635517541,206541, RC,0,39.9586186,-88.445067899,0,0.0,0.0,0.0,0.0,0.0,0.0068975249,0.0,0.0,0.0,0.0,0.0,0.0,0.0,1500,1500,0.0,0.0,40.0484573333,-88.2328288333,0.0,0.0,0.0,0.0,0.0,0.0,0.0,0.0,0.0,0.0,0.0,0,0.0,0.0,0.007909161999999999,0.0058858879,90.0,60.0,60.0,90.5273361206,120.2574768066,120.38480377200001,49.2119979858,15.9383182526,3.3999998569,0,2,25,1,68,5987
5,1530635517592,206592, RC,0,39.9586186,-88.445067899,0,0.0,0.0,0.0,0.0,0.0,0.0052421186,0.0,0.0,0.0,0.0,0.0,0.0,0.0,1500,1500,0.0,0.0,40.0484573333,-88.2328288333,0.0,0.0,0.0,0.0,0.0,0.0,0.0,0.0,0.0,0.0,0.0,0,0.0,0.0,0.0058858879,0.0045983498,90.0,60.0,60.0,90.5273361206,120.2574768066,120.4484634399,49.2119979858,15.9383182526,3.3999998569,0,2,25,1,62,5988
6,1530635517642,206642, RC,0,39.9586186,-88.445067899,0,0.0,0.0,0.0,0.0,0.0,0.0038626138000000003,0.0,0.0,0.0,0.0,0.0,0.0,0.0,1500,1500,0.0,0.0,40.0484573333,-88.2328288333,0.0,0.0,0.0,0.0,0.0,0.0,0.0,0.0,0.0,0.0,0.0,0,0.0,0.0,0.0044144159,0.0033108116999999997,90.0,60.0,60.0,90.5273361206,120.2574768066,120.51211547850001,49.2119979858,15.9383182526,3.3999998569,0,2,25,1,74,5990
7,1530635517693,206693, RC,0,39.9586186,-88.445067899,0,0.0,0.0,0.0,0.0,0.0,0.0032188447999999996,0.0,0.0,0.0,0.0,0.0,0.0,0.0,1500,1500,0.0,0.0,40.0484573333,-88.2328288333,0.0,0.0,0.0,0.0,0.0,0.0,0.0,0.0,0.0,0.0,0.0,0,0.0,0.0,0.0036786796999999996,0.0027590097999999996,90.0,60.0,60.0,90.5273361206,120.2574768066,120.57579040530001,49.2119979858,15.9383182526,3.3999998569,0,2,25,1,62,5991
8,1530635517744,206744, RC,0,39.9586186,-88.445067899,0,0.0,0.0,0.0,0.0,0.0,0.0023911418,0.0,0.0,0.0,0.0,0.0,0.0,0.0,1500,1500,0.0,0.0,40.0484573333,-88.2328288333,0.0,0.0,0.0,0.0,0.0,0.0,0.0,0.0,0.0,0.0,0.0,0,0.0,0.0,0.0027590097999999996,0.0020232738,90.0,60.0,60.0,90.4636688232,120.2574768066,120.57579040530001,49.2119979858,15.9383182526,3.3999998569,0,2,25,1,74,5993
9,1530635517794,206794, RC,0,39.9586186,-88.445067899,0,0.0,0.0,0.0,0.0,0.0,0.0019313069000000001,0.0,0.0,0.0,0.0,0.0,0.0,0.0,1500,1500,0.0,0.0,40.0484573333,-88.2328288333,0.0,0.0,0.0,0.0,0.0,0.0,0.0,0.0,0.0,0.0,0.0,0,0.0,0.0,0.002207208,0.0016554058999999999,90.0,60.0,60.0,90.4636688232,120.2574768066,120.6394424438,49.2119979858,15.9383182526,3.3999998569,0,2,25,1,81,5994
10,1530635517845,206845, RC,0,39.9586186,-88.445067899,0,0.0,0.0,0.0,0.0,0.0,0.0014714720000000001,0.0,0.0,0.0,0.0,0.0,0.0,0.0,1500,1500,0.0,0.0,40.0484573333,-88.2328288333,0.0,0.0,0.0,0.0,0.0,0.0,0.0,0.0,0.0,0.0,0.0,0,0.0,0.0,0.0016554058999999999,0.001287538,90.0,60.0,60.0,90.4636688232,120.2574768066,120.7031021118,49.2119979858,15.9383182526,3.3999998569,0,2,25,1,64,5995
11,1530635517896,206896, RC,0,39.9586186,-88.445067899,0,0.0,0.0,0.0,0.0,0.0,0.0011955709,0.0,0.0,0.0,0.0,0.0,0.0,0.0,1500,1500,0.0,0.0,40.0484573333,-88.2328288333,0.0,0.0,0.0,0.0,0.0,0.0,0.0,0.0,0.0,0.0,0.0,0,0.0,0.0,0.001287538,0.001103604,90.0,60.0,60.0,90.4636688232,120.2574768066,120.76677703860001,49.2119979858,15.9383182526,3.3999998569,0,2,25,1,70,5997
12,1530635517946,206946, RC,0,39.9586186,-88.445067899,0,0.0,0.0,0.0,0.0,0.0,0.0008277028999999999,0.0,0.0,0.0,0.0,0.0,0.0,0.0,1500,1500,0.0,0.0,40.0484573333,-88.2328288333,0.0,0.0,0.0,0.0,0.0,0.0,0.0,0.0,0.0,0.0,0.0,0,0.0,0.0,0.0009196699,0.0007357360000000001,90.0,60.0,60.0,90.4636688232,120.2574768066,120.76677703860001,49.2119979858,15.9383182526,3.3999998569,0,2,25,1,69,5998
13,1530635517997,206997, RC,0,39.9586186,-88.445067899,0,0.0,0.0,0.0,0.0,0.0,0.0007357360000000001,0.0,0.0,0.0,0.0,0.0,0.0,0.0,1500,1500,0.0,0.0,40.0484573333,-88.2328288333,0.0,0.0,0.0,0.0,0.0,0.0,0.0,0.0,0.0,0.0,0.0,0,0.0,0.0,0.0007357360000000001,0.0007357360000000001,90.0,60.0,60.0,90.4636688232,120.2574768066,120.83042907709999,49.2119979858,15.9383182526,3.3999998569,0,2,25,1,64,5999
14,1530635518048,207048, RC,0,39.9586186,-88.445067899,0,0.0,0.0,0.0,0.0,0.0,0.000551802,0.0,0.0,0.0,0.0,0.0,0.0,0.0,1500,1500,0.0,0.0,40.0484573333,-88.2328288333,0.0,0.0,0.0,0.0,0.0,0.0,0.0,0.0,0.0,0.0,0.0,0,0.0,0.0,0.000551802,0.000551802,90.0,60.0,60.0,90.40000915530001,120.2574768066,120.83042907709999,49.2119979858,15.9383182526,3.3999998569,0,2,25,1,64,6000
15,1530635518098,207098, RC,0,39.9586186,-88.445067899,0,0.0,0.0,0.0,0.0,0.0,0.000459835,0.0,0.0,0.0,0.0,0.0,0.0,0.0,1500,1500,0.0,0.0,40.0484573333,-88.2328288333,0.0,0.0,0.0,0.0,0.0,0.0,0.0,0.0,0.0,0.0,0.0,0,0.0,0.0,0.000551802,0.00036786800000000004,90.0,60.0,60.0,90.40000915530001,120.2574768066,120.8940887451,49.2119979858,15.9383182526,3.3999998569,0,2,25,1,71,6002
16,1530635518149,207149, RC,0,39.9586186,-88.445067899,0,0.0,0.0,0.0,0.0,0.0,0.00036786800000000004,0.0,0.0,0.0,0.0,0.0,0.0,0.0,1500,1500,0.0,0.0,40.0484573333,-88.2328288333,0.0,0.0,0.0,0.0,0.0,0.0,0.0,0.0,0.0,0.0,0.0,0,0.0,0.0,0.00036786800000000004,0.00036786800000000004,90.0,60.0,60.0,90.40000915530001,120.2574768066,120.8940887451,49.2119979858,15.9383182526,3.3999998569,0,2,25,1,71,6003
17,1530635518200,207200, RC,0,39.9586186,-88.445067899,0,0.0,0.0,0.0,0.0,0.0,0.000275901,0.0,0.0,0.0,0.0,0.0,0.0,0.0,1500,1500,0.0,0.0,40.0484573333,-88.2328288333,0.0,0.0,0.0,0.0,0.0,0.0,0.0,0.0,0.0,0.0,0.0,0,0.0,0.0,0.00036786800000000004,0.00018393400000000002,90.0,60.0,60.0,90.40000915530001,120.2574768066,120.6394424438,49.2119979858,15.9383182526,3.3999998569,0,2,25,1,80,6004
18,1530635518250,207250, RC,0,39.9586186,-88.445067899,0,0.0,0.0,0.0,0.0,0.0,0.00018393400000000002,0.0,0.0,0.0,0.0,0.0,0.0,0.0,1500,1500,0.0,0.0,40.0484573333,-88.2328288333,0.0,0.0,0.0,0.0,0.0,0.0,0.0,0.0,0.0,0.0,0.0,0,0.0,0.0,0.00018393400000000002,0.00018393400000000002,90.0,60.0,60.0,90.40000915530001,120.2574768066,120.4484634399,49.2119979858,15.9383182526,3.3999998569,0,2,25,1,75,6006
19,1530635518301,207301, RC,0,39.9586186,-88.445067899,0,0.0,0.0,0.0,0.0,0.0,0.00018393400000000002,0.0,0.0,0.0,0.0,0.0,0.0,0.0,1500,1500,0.0,0.0,40.0484573333,-88.2328288333,0.0,0.0,0.0,0.0,0.0,0.0,0.0,0.0,0.0,0.0,0.0,0,0.0,0.0,0.00018393400000000002,0.00018393400000000002,90.0,60.0,60.0,90.40000915530001,120.2574768066,120.51211547850001,49.2119979858,15.9383182526,3.3999998569,0,2,25,1,74,6007
20,1530635518351,207351, RC,0,39.9586186,-88.445067899,0,0.0,0.0,0.0,0.0,0.0,0.00018393400000000002,0.0,0.0,0.0,0.0,0.0,0.0,0.0,1500,1500,0.0,0.0,40.048459,-88.2328343333,0.0,0.0,0.0,0.0,0.0,0.0,0.0,0.0,0.0,0.0,0.0,0,0.0,0.0,0.00018393400000000002,0.00018393400000000002,90.0,60.0,60.0,90.40000915530001,120.2574768066,120.51211547850001,49.2119979858,15.9383182526,3.3999998569,0,2,25,1,72,6008
21,1530635518402,207402, RC,0,39.9586186,-88.445067899,0,0.0,0.0,0.0,0.0,0.0,9.196700000000001e-05,0.0,0.0,0.0,0.0,0.0,0.0,0.0,1500,1500,0.0,0.0,40.048459,-88.2328343333,0.0,0.0,0.0,0.0,0.0,0.0,0.0,0.0,0.0,0.0,0.0,0,0.0,0.0,0.00018393400000000002,0.0,90.0,60.0,60.0,90.40000915530001,120.2574768066,120.51211547850001,49.2119979858,15.9383182526,3.3999998569,0,2,25,1,79,6010
22,1530635518453,207453, RC,0,39.9586186,-88.445067899,0,0.0,0.0,0.0,0.0,0.0,0.0,0.0,0.0,0.0,0.0,0.0,0.0,0.0,1500,1500,0.0,0.0,40.048459,-88.2328343333,0.0,0.0,0.0,0.0,0.0,0.0,0.0,0.0,0.0,0.0,0.0,0,0.0,0.0,0.0,0.0,90.0,60.0,60.0,90.40000915530001,120.2574768066,120.57579040530001,49.2119979858,15.9383182526,3.3999998569,0,2,25,1,77,6011
23,1530635518503,207503, RC,0,39.9586186,-88.445067899,0,0.0,0.0,0.0,0.0,0.0,0.0,0.0,0.0,0.0,0.0,0.0,0.0,0.0,1500,1500,0.0,0.0,40.048459,-88.2328343333,0.0,0.0,0.0,0.0,0.0,0.0,0.0,0.0,0.0,0.0,0.0,0,0.0,0.0,0.0,0.0,90.0,60.0,60.0,90.40000915530001,120.2574768066,120.57579040530001,49.2119979858,15.9383182526,3.3999998569,0,2,25,1,73,6012
24,1530635518554,207554, RC,0,39.9586186,-88.445067899,0,0.0,0.0,0.0,0.0,0.0,0.0,0.0,0.0,0.0,0.0,0.0,0.0,0.0,1500,1500,0.0,0.0,40.048459,-88.2328343333,0.0,0.0,0.0,0.0,0.0,0.0,0.0,0.0,0.0,0.0,0.0,0,0.0,0.0,0.0,0.0,90.0,60.0,60.0,90.40000915530001,120.2574768066,120.57579040530001,49.2119979858,15.9511995316,3.5699999332,0,2,25,1,81,6014
25,1530635518605,207605, RC,0,39.9586186,-88.445067899,0,0.0,0.0,0.0,0.0,0.0,0.0,0.0,0.0,0.0,0.0,0.0,0.0,0.0,1500,1500,0.0,0.0,40.048459,-88.2328343333,0.0,0.0,0.0,0.0,0.0,0.0,0.0,0.0,0.0,0.0,0.0,0,0.0,0.0,0.0,0.0,90.0,60.0,60.0,90.40000915530001,120.2574768066,120.6394424438,49.2119979858,15.9511995316,3.5699999332,0,2,25,1,78,6015
26,1530635518655,207655, RC,0,39.9586186,-88.445067899,0,0.0,0.0,0.0,0.0,0.0,0.0,0.0,0.0,0.0,0.0,0.0,0.0,0.0,1500,1500,0.0,0.0,40.048459,-88.2328343333,0.0,0.0,0.0,0.0,0.0,0.0,0.0,0.0,0.0,0.0,0.0,0,0.0,0.0,0.0,0.0,90.0,60.0,60.0,90.40000915530001,120.2574768066,120.6394424438,49.2119979858,15.9511995316,3.5699999332,0,2,25,1,71,6017
27,1530635518706,207706, RC,0,39.9586186,-88.445067899,0,0.0,0.0,0.0,0.0,0.0,0.0,0.0,0.0,0.0,0.0,0.0,0.0,0.0,1500,1500,0.0,0.0,40.048459,-88.2328343333,0.0,0.0,0.0,0.0,0.0,0.0,0.0,0.0,0.0,0.0,0.0,0,0.0,0.0,0.0,0.0,90.0,60.0,60.0,90.40000915530001,120.2574768066,120.6394424438,49.2119979858,15.9511995316,3.5699999332,0,2,25,1,66,6018
28,1530635518757,207757, RC,0,39.9586186,-88.445067899,0,0.0,0.0,0.0,0.0,0.0,0.0,0.0,0.0,0.0,0.0,0.0,0.0,0.0,1500,1500,0.0,0.0,40.048459,-88.2328343333,0.0,0.0,0.0,0.0,0.0,0.0,0.0,0.0,0.0,0.0,0.0,0,0.0,0.0,0.0,0.0,90.0,60.0,60.0,90.40000915530001,120.2574768066,120.6394424438,49.2119979858,15.9511995316,3.5699999332,0,2,25,1,73,6019
29,1530635518807,207807, RC,0,39.9586186,-88.445067899,0,0.0,0.0,0.0,0.0,0.0,0.0,0.0,0.0,0.0,0.0,0.0,0.0,0.0,1500,1500,0.0,0.0,40.048459,-88.2328343333,0.0,0.0,0.0,0.0,0.0,0.0,0.0,0.0,0.0,0.0,0.0,0,0.0,0.0,0.0,0.0,90.0,60.0,60.0,90.40000915530001,120.2574768066,120.6394424438,49.2119979858,15.9511995316,3.5699999332,0,2,25,1,77,6021
30,1530635518858,207858, RC,0,39.9586186,-88.445067899,0,0.0,0.0,0.0,0.0,0.0,0.0,0.0,0.0,0.0,0.0,0.0,0.0,0.0,1500,1500,0.0,0.0,40.048459,-88.2328343333,0.0,0.0,0.0,0.0,0.0,0.0,0.0,0.0,0.0,0.0,0.0,0,0.0,0.0,0.0,0.0,90.0,60.0,60.0,90.40000915530001,120.2574768066,120.6394424438,49.2119979858,15.9511995316,3.5699999332,0,2,25,1,82,6022
31,1530635518908,207908, RC,0,39.9586186,-88.445067899,0,0.0,0.0,0.0,0.0,0.0,0.0,0.0,0.0,0.0,0.0,0.0,0.0,0.0,1500,1500,0.0,0.0,40.048459,-88.2328343333,0.0,0.0,0.0,0.0,0.0,0.0,0.0,0.0,0.0,0.0,0.0,0,0.0,0.0,0.0,0.0,90.0,60.0,60.0,90.40000915530001,120.2574768066,120.6394424438,49.2119979858,15.9511995316,3.5699999332,0,2,25,1,63,6024
32,1530635518959,207959, RC,0,39.9586186,-88.445067899,0,0.0,0.0,0.0,0.0,0.0,0.0,0.0,0.0,0.0,0.0,0.0,0.0,0.0,1500,1500,0.0,0.0,40.048459,-88.2328343333,0.0,0.0,0.0,0.0,0.0,0.0,0.0,0.0,0.0,0.0,0.0,0,0.0,0.0,0.0,0.0,90.0,60.0,60.0,90.40000915530001,120.2574768066,120.6394424438,49.2119979858,15.9511995316,3.5699999332,0,2,25,1,61,6025
33,1530635519010,208010, RC,0,39.9586186,-88.445067899,0,0.0,0.0,0.0,0.0,0.0,0.0,0.0,0.0,0.0,0.0,0.0,0.0,0.0,1500,1500,0.0,0.0,40.048459,-88.2328343333,0.0,0.0,0.0,0.0,0.0,0.0,0.0,0.0,0.0,0.0,0.0,0,0.0,0.0,0.0,0.0,90.0,60.0,60.0,90.40000915530001,120.2574768066,120.6394424438,49.2119979858,15.9511995316,3.5699999332,0,2,25,1,70,6026
34,1530635519061,208061, RC,0,39.9586186,-88.445067899,0,0.0,0.0,0.0,0.0,0.0,0.0,0.0,0.0,0.0,0.0,0.0,0.0,0.0,1500,1500,0.0,0.0,40.048459,-88.2328343333,0.0,0.0,0.0,0.0,0.0,0.0,0.0,0.0,0.0,0.0,0.0,0,0.0,0.0,0.0,0.0,90.0,60.0,60.0,90.40000915530001,120.2574768066,120.6394424438,49.2119979858,15.9511995316,3.5699999332,0,2,25,1,85,6027
35,1530635519112,208112, RC,0,39.9586186,-88.445067899,0,0.0,0.0,0.0,0.0,0.0,0.0,0.0,0.0,0.0,0.0,0.0,0.0,0.0,1500,1500,0.0,0.0,40.048459,-88.2328343333,0.0,0.0,0.0,0.0,0.0,0.0,0.0,0.0,0.0,0.0,0.0,0,0.0,0.0,0.0,0.0,90.0,60.0,60.0,90.40000915530001,120.2574768066,120.6394424438,49.2119979858,15.9511995316,3.5699999332,0,2,25,1,74,6029
36,1530635519162,208162, RC,0,39.9586186,-88.445067899,0,0.0,0.0,0.0,0.0,0.0,0.0,0.0,0.0,0.0,0.0,0.0,0.0,0.0,1500,1500,0.0,0.0,40.048459,-88.2328343333,0.0,0.0,0.0,0.0,0.0,0.0,0.0,0.0,0.0,0.0,0.0,0,0.0,0.0,0.0,0.0,90.0,60.0,60.0,90.40000915530001,120.2574768066,120.6394424438,49.2119979858,15.9511995316,3.5699999332,0,2,25,1,82,6030
37,1530635519213,208213, RC,0,39.9586186,-88.445067899,0,0.0,0.0,0.0,0.0,0.0,0.0,0.0,0.0,0.0,0.0,0.0,0.0,0.0,1500,1500,0.0,0.0,40.048459,-88.2328343333,0.0,0.0,0.0,0.0,0.0,0.0,0.0,0.0,0.0,0.0,0.0,0,0.0,0.0,0.0,0.0,90.0,60.0,60.0,90.40000915530001,120.2574768066,120.6394424438,49.2119979858,15.9511995316,3.5699999332,0,2,25,1,83,6031
38,1530635519264,208264, RC,0,39.9586186,-88.445067899,0,0.0,0.0,0.0,0.0,0.0,0.0,0.0,0.0,0.0,0.0,0.0,0.0,0.0,1500,1500,0.0,0.0,40.048459,-88.2328343333,0.0,0.0,0.0,0.0,0.0,0.0,0.0,0.0,0.0,0.0,0.0,0,0.0,0.0,0.0,0.0,90.0,60.0,60.0,90.4636688232,120.19381713870001,120.4484634399,49.2119979858,15.9511995316,3.5699999332,0,2,25,1,84,6033
39,1530635519314,208314, RC,0,39.9586186,-88.445067899,0,0.0,0.0,0.0,0.0,0.0,0.0,0.0,0.0,0.0,0.0,0.0,0.0,0.0,1500,1500,0.0,0.0,40.048459,-88.2328343333,0.0,0.0,0.0,0.0,0.0,0.0,0.0,0.0,0.0,0.0,0.0,0,0.0,0.0,0.0,0.0,90.0,60.0,60.0,90.5273361206,120.19381713870001,120.4484634399,49.2119979858,15.9511995316,3.5699999332,0,2,25,1,80,6035
40,1530635519365,208365, RC,0,39.9586186,-88.445067899,0,0.0,0.0,0.0,0.0,0.0,0.0,0.0,0.0,0.0,0.0,0.0,0.0,0.0,1500,1500,0.0,0.0,40.048457,-88.2328251667,0.0,0.0,0.0,0.0,0.0,0.0,0.0,0.0,0.0,0.0,0.0,0,0.0,0.0,0.0,0.0,90.0,60.0,60.0,90.5273361206,120.0664901733,120.51211547850001,49.2119979858,15.9511995316,3.5699999332,0,2,25,1,74,6037
41,1530635519415,208415, RC,0,39.9586186,-88.445067899,0,0.0,0.0,0.0,0.0,0.0,0.0,0.0,0.0,0.0,0.0,0.0,0.0,0.0,1500,1500,0.0,0.0,40.048457,-88.2328251667,0.0,0.0,0.0,0.0,0.0,0.0,0.0,0.0,0.0,0.0,0.0,0,0.0,0.0,0.0,0.0,90.0,60.0,60.0,90.7183227539,119.939163208,120.6394424438,49.2119979858,15.9511995316,3.5699999332,0,2,25,1,52,6040
42,1530635519466,208466, RC,0,39.9586186,-88.445067899,0,0.0,0.0,0.0,0.0,0.0,0.0,0.0,0.0,0.0,0.0,0.0,0.0,0.0,1500,1500,0.0,0.0,40.048457,-88.2328251667,0.0,0.0,0.0,0.0,0.0,0.0,0.0,0.0,0.0,0.0,0.0,0,0.0,0.0,0.0,0.0,90.0,60.0,60.0,90.5909881592,119.939163208,120.51211547850001,49.2119979858,15.9511995316,3.5699999332,0,2,25,1,52,6042
43,1530635519517,208517, RC,0,39.9586186,-88.445067899,0,0.0,0.0,0.0,0.0,0.0,0.0,0.0,0.0,0.0,0.0,0.0,0.0,0.0,1500,1500,0.0,0.0,40.048457,-88.2328251667,0.0,0.0,0.0,0.0,0.0,0.0,0.0,0.0,0.0,0.0,0.0,0,0.0,0.0,0.0,0.0,90.0,60.0,60.0,90.40000915530001,119.87550354,120.38480377200001,49.2119979858,15.9511995316,3.5699999332,0,2,25,1,43,6044
44,1530635519567,208567, RC,0,39.9586186,-88.445067899,0,0.0,0.0,0.0,0.0,0.0,0.0,0.0,0.0,0.0,0.0,0.0,0.0,0.0,1500,1500,0.0,0.0,40.048457,-88.2328251667,0.0,0.0,0.0,0.0,0.0,0.0,0.0,0.0,0.0,0.0,0.0,0,0.0,0.0,0.0,0.0,90.0,60.0,60.0,90.4636688232,119.939163208,120.38480377200001,49.2119979858,15.9728422165,3.5599999427999998,0,2,25,1,73,6046
45,1530635519618,208618, RC,0,39.9586186,-88.445067899,0,0.0,0.0,0.0,0.0,0.0,0.0,0.0,0.0,0.0,0.0,0.0,0.0,0.0,1500,1500,0.0,0.0,40.048457,-88.2328251667,0.0,0.0,0.0,0.0,0.0,0.0,0.0,0.0,0.0,0.0,0.0,0,0.0,0.0,0.0,0.0,90.0,60.0,60.0,90.4636688232,120.0664901733,120.19381713870001,49.2119979858,15.9728422165,3.5599999427999998,0,2,25,1,54,6048
46,1530635519668,208668, RC,0,39.9586186,-88.445067899,0,0.0,0.0,0.0,0.0,0.0,0.0,0.0,0.0,0.0,0.0,0.0,0.0,0.0,1500,1500,0.0,0.0,40.048457,-88.2328251667,0.0,0.0,0.0,0.0,0.0,0.0,0.0,0.0,0.0,0.0,0.0,0,0.0,0.0,0.0,0.0,90.0,60.0,60.0,90.4636688232,120.0664901733,120.2574768066,49.2119979858,15.9728422165,3.5599999427999998,0,2,25,1,60,6050
47,1530635519719,208719, RC,0,39.9586186,-88.445067899,0,0.0,0.0,0.0,0.0,0.0,0.0,0.0,0.0,0.0,0.0,0.0,0.0,0.0,1500,1500,0.0,0.0,40.048457,-88.2328251667,0.0,0.0,0.0,0.0,0.0,0.0,0.0,0.0,0.0,0.0,0.0,0,0.0,0.0,0.0,0.0,90.0,60.0,60.0,90.4636688232,120.00283050540001,120.2574768066,49.2119979858,15.9728422165,3.5599999427999998,0,2,25,1,53,6053
48,1530635519770,208770, RC,0,39.9586186,-88.445067899,0,0.0,0.0,0.0,0.0,0.0,0.0,0.0,0.0,0.0,0.0,0.0,0.0,0.0,1500,1500,0.0,0.0,40.048457,-88.2328251667,0.0,0.0,0.0,0.0,0.0,0.0,0.0,0.0,0.0,0.0,0.0,0,0.0,0.0,0.0,0.0,90.0,60.0,60.0,90.4636688232,120.00283050540001,120.2574768066,49.2119979858,15.9728422165,3.5599999427999998,0,2,25,1,63,6055
49,1530635519820,208820, RC,0,39.9586186,-88.445067899,0,0.0,0.0,0.0,0.0,0.0,0.0,0.0,0.0,0.0,0.0,0.0,0.0,0.0,1500,1500,0.0,0.0,40.048457,-88.2328251667,0.0,0.0,0.0,0.0,0.0,0.0,0.0,0.0,0.0,0.0,0.0,0,0.0,0.0,0.0,0.0,90.0,60.0,60.0,90.4636688232,120.00283050540001,120.2574768066,49.2119979858,15.9728422165,3.5599999427999998,0,2,25,1,77,6057
50,1530635519871,208871, RC,0,39.9586186,-88.445067899,0,0.0,0.0,0.0,0.0,0.0,0.0,0.0,0.0,0.0,0.0,0.0,0.0,0.0,1500,1500,0.0,0.0,40.048457,-88.2328251667,0.0,0.0,0.0,0.0,0.0,0.0,0.0,0.0,0.0,0.0,0.0,0,0.0,0.0,0.0,0.0,90.0,60.0,60.0,90.4636688232,120.00283050540001,120.2574768066,49.2119979858,15.9728422165,3.5599999427999998,0,2,25,1,87,6059
51,1530635519921,208921, RC,0,39.9586186,-88.445067899,0,0.0,0.0,0.0,0.0,0.0,0.0,0.0,0.0,0.0,0.0,0.0,0.0,0.0,1500,1500,0.0,0.0,40.048457,-88.2328251667,0.0,0.0,0.0,0.0,0.0,0.0,0.0,0.0,0.0,0.0,0.0,0,0.0,0.0,0.0,0.0,90.0,60.0,60.0,90.4636688232,120.00283050540001,120.32112884520001,49.2119979858,15.9728422165,3.5599999427999998,0,2,25,1,80,6061
52,1530635519972,208972, RC,0,39.9586186,-88.445067899,0,0.0,0.0,0.0,0.0,0.0,0.0,0.0,0.0,0.0,0.0,0.0,0.0,0.0,1500,1500,0.0,0.0,40.048457,-88.2328251667,0.0,0.0,0.0,0.0,0.0,0.0,0.0,0.0,0.0,0.0,0.0,0,0.0,0.0,0.0,0.0,90.0,60.0,60.0,90.4636688232,120.00283050540001,120.32112884520001,49.2119979858,15.9728422165,3.5599999427999998,0,2,25,1,73,6062
53,1530635520022,209022, RC,0,39.9586186,-88.445067899,0,0.0,0.0,0.0,0.0,0.0,0.0,0.0,0.0,0.0,0.0,0.0,0.0,0.0,1500,1500,0.0,0.0,40.048457,-88.2328251667,0.0,0.0,0.0,0.0,0.0,0.0,0.0,0.0,0.0,0.0,0.0,0,0.0,0.0,0.0,0.0,90.0,60.0,60.0,90.4636688232,120.00283050540001,120.32112884520001,49.2119979858,15.9728422165,3.5599999427999998,0,2,25,1,55,6064
54,1530635520073,209073, RC,0,39.9586186,-88.445067899,0,0.0,0.0,0.0,0.0,0.0,0.0,0.0,0.0,0.0,0.0,0.0,0.0,0.0,1500,1500,0.0,0.0,40.048457,-88.2328251667,0.0,0.0,0.0,0.0,0.0,0.0,0.0,0.0,0.0,0.0,0.0,0,0.0,0.0,0.0,0.0,90.0,60.0,60.0,90.4636688232,120.00283050540001,120.38480377200001,49.2119979858,15.9728422165,3.5599999427999998,0,2,25,1,51,6065
55,1530635520124,209124, RC,0,39.9586186,-88.445067899,0,0.0,0.0,0.0,0.0,0.0,0.0,0.0,0.0,0.0,0.0,0.0,0.0,0.0,1500,1500,0.0,0.0,40.048457,-88.2328251667,0.0,0.0,0.0,0.0,0.0,0.0,0.0,0.0,0.0,0.0,0.0,0,0.0,0.0,0.0,0.0,90.0,60.0,60.0,90.4636688232,120.00283050540001,120.38480377200001,49.2119979858,15.9728422165,3.5599999427999998,0,2,25,1,51,6066
56,1530635520174,209174, RC,0,39.9586186,-88.445067899,0,0.0,0.0,0.0,0.0,0.0,0.0,0.0,0.0,0.0,0.0,0.0,0.0,0.0,1500,1500,0.0,0.0,40.048457,-88.2328251667,0.0,0.0,0.0,0.0,0.0,0.0,0.0,0.0,0.0,0.0,0.0,0,0.0,0.0,0.0,0.0,90.0,60.0,60.0,90.40000915530001,120.0664901733,120.32112884520001,49.2119979858,15.9728422165,3.5599999427999998,0,2,25,1,32,6068
57,1530635520225,209225, RC,0,39.9586186,-88.445067899,0,0.0,0.0,0.0,0.0,0.0,0.0,0.0,0.0,0.0,0.0,0.0,0.0,0.0,1500,1500,0.0,0.0,40.048457,-88.2328251667,0.0,0.0,0.0,0.0,0.0,0.0,0.0,0.0,0.0,0.0,0.0,0,0.0,0.0,0.0,0.0,90.0,60.0,60.0,90.4636688232,120.0664901733,120.38480377200001,49.2119979858,15.9728422165,3.5599999427999998,0,2,25,1,58,6069
58,1530635520275,209275, RC,0,39.9586186,-88.445067899,0,0.0,0.0,0.0,0.0,0.0,0.0,0.0,0.0,0.0,0.0,0.0,0.0,0.0,1500,1500,0.0,0.0,40.048457,-88.2328251667,0.0,0.0,0.0,0.0,0.0,0.0,0.0,0.0,0.0,0.0,0.0,0,0.0,0.0,0.0,0.0,90.0,60.0,60.0,90.5273361206,120.0664901733,120.38480377200001,49.2119979858,15.9728422165,3.5599999427999998,0,2,25,1,75,6071
59,1530635520326,209326, RC,0,39.9586186,-88.445067899,0,0.0,0.0,0.0,0.0,0.0,0.0,0.0,0.0,0.0,0.0,0.0,0.0,0.0,1500,1500,0.0,0.0,40.0484578333,-88.2328228333,0.0,0.0,0.0,0.0,0.0,0.0,0.0,0.0,0.0,0.0,0.0,0,0.0,0.0,0.0,0.0,90.0,60.0,60.0,90.5273361206,120.13014221190001,120.2574768066,49.2119979858,15.9728422165,3.5599999427999998,0,2,25,1,73,6072
60,1530635520376,209376, RC,0,39.9586186,-88.445067899,0,0.0,0.0,0.0,0.0,0.0,0.0,0.0,0.0,0.0,0.0,0.0,0.0,0.0,1500,1500,0.0,0.0,40.0484578333,-88.2328228333,0.0,0.0,0.0,0.0,0.0,0.0,0.0,0.0,0.0,0.0,0.0,0,0.0,0.0,0.0,0.0,90.0,60.0,60.0,90.6546554565,120.19381713870001,120.2574768066,49.2119979858,15.9728422165,3.5599999427999998,0,2,25,1,65,6074
61,1530635520427,209427, RC,0,39.9586186,-88.445067899,0,0.0,0.0,0.0,0.0,0.0,0.0,0.0,0.0,0.0,0.0,0.0,0.0,0.0,1500,1500,0.0,0.0,40.0484578333,-88.2328228333,0.0,0.0,0.0,0.0,0.0,0.0,0.0,0.0,0.0,0.0,0.0,0,0.0,0.0,0.0,0.0,90.0,60.0,60.0,90.5909881592,120.19381713870001,120.19381713870001,49.2119979858,15.9728422165,3.5599999427999998,0,2,25,1,76,6075
62,1530635520478,209478, RC,0,39.9586186,-88.445067899,0,0.0,0.0,0.0,0.0,0.0,0.0,0.0,0.0,0.0,0.0,0.0,0.0,0.0,1500,1500,0.0,0.0,40.0484578333,-88.2328228333,0.0,0.0,0.0,0.0,0.0,0.0,0.0,0.0,0.0,0.0,0.0,0,0.0,0.0,0.0,0.0,90.0,60.0,60.0,90.3363494873,120.32112884520001,120.13014221190001,49.2119979858,15.9728422165,3.5599999427999998,0,2,25,1,67,6077
63,1530635520528,209528, RC,0,39.9586186,-88.445067899,0,0.0,0.0,0.0,0.0,0.0,0.0,0.0,0.0,0.0,0.0,0.0,0.0,0.0,1500,1500,0.0,0.0,40.0484578333,-88.2328228333,0.0,0.0,0.0,0.0,0.0,0.0,0.0,0.0,0.0,0.0,0.0,0,0.0,0.0,0.0,0.0,90.0,60.0,60.0,90.4636688232,120.19381713870001,120.2574768066,49.2119979858,15.991337776199998,2.6799998283,0,2,25,1,68,6078
64,1530635520579,209579, RC,0,39.9586186,-88.445067899,0,0.0,0.0,0.0,0.0,0.0,0.000459835,0.0,0.0,0.0,0.0,0.0,0.0,0.0,1500,1500,0.0,0.0,40.0484578333,-88.2328228333,0.0,0.0,0.0,0.0,0.0,0.0,0.0,0.0,0.0,0.0,0.0,0,0.0,0.0,-0.0009196699,0.0,90.0,60.0,60.0,90.3363494873,120.0664901733,120.32112884520001,49.2119979858,15.991337776199998,2.6799998283,0,2,25,1,58,6079
65,1530635520629,209629, RC,0,39.9586186,-88.445067899,0,0.0,0.0,0.0,0.0,0.0,0.00036786800000000004,0.0,0.0,0.0,0.0,0.0,0.0,0.0,1500,1500,0.0,0.0,40.0484578333,-88.2328228333,0.0,0.0,0.0,0.0,0.0,0.0,0.0,0.0,0.0,0.0,0.0,0,0.0,0.0,-0.0007357360000000001,0.0,90.0,60.0,60.0,90.3363494873,120.0664901733,120.38480377200001,49.2119979858,15.991337776199998,2.6799998283,0,2,25,1,61,6081
66,1530635520680,209680, RC,0,39.9586186,-88.445067899,0,0.0,0.0,0.0,0.0,0.0,0.000275901,0.0,0.0,0.0,0.0,0.0,0.0,0.0,1500,1500,0.0,0.0,40.0484578333,-88.2328228333,0.0,0.0,0.0,0.0,0.0,0.0,0.0,0.0,0.0,0.0,0.0,0,0.0,0.0,-0.000551802,0.0,90.0,60.0,60.0,90.40000915530001,120.13014221190001,120.32112884520001,49.2119979858,15.991337776199998,2.6799998283,0,2,25,1,62,6082
67,1530635520730,209730, RC,0,39.9586186,-88.445067899,0,0.0,0.0,0.0,0.0,0.0,0.000275901,0.0,0.0,0.0,0.0,0.0,0.0,0.0,1500,1500,0.0,0.0,40.0484578333,-88.2328228333,0.0,0.0,0.0,0.0,0.0,0.0,0.0,0.0,0.0,0.0,0.0,0,0.0,0.0,-0.000551802,0.0,90.0,60.0,60.0,90.40000915530001,120.13014221190001,120.32112884520001,49.2119979858,15.991337776199998,2.6799998283,0,2,25,1,52,6084
68,1530635520781,209781, RC,0,39.9586186,-88.445067899,0,0.0,0.0,0.0,0.0,0.0,0.00018393400000000002,0.0,0.0,0.0,0.0,0.0,0.0,0.0,1500,1500,0.0,0.0,40.0484578333,-88.2328228333,0.0,0.0,0.0,0.0,0.0,0.0,0.0,0.0,0.0,0.0,0.0,0,0.0,0.0,-0.00036786800000000004,0.0,90.0,60.0,60.0,90.40000915530001,120.0664901733,120.32112884520001,49.2119979858,15.991337776199998,2.6799998283,0,2,25,1,49,6085
69,1530635520832,209832, RC,0,39.9586186,-88.445067899,0,0.0,0.0,0.0,0.0,0.0,0.00018393400000000002,0.0,0.0,0.0,0.0,0.0,0.0,0.0,1500,1500,0.0,0.0,40.0484578333,-88.2328228333,0.0,0.0,0.0,0.0,0.0,0.0,0.0,0.0,0.0,0.0,0.0,0,0.0,0.0,-0.00036786800000000004,0.0,90.0,60.0,60.0,90.3363494873,120.0664901733,120.32112884520001,49.2119979858,15.991337776199998,2.6799998283,0,2,25,1,47,6086
70,1530635520882,209882, RC,0,39.9586186,-88.445067899,0,0.0,0.0,0.0,0.0,0.0,0.00018393400000000002,0.0,0.0,0.0,0.0,0.0,0.0,0.0,1500,1500,0.0,0.0,40.0484578333,-88.2328228333,0.0,0.0,0.0,0.0,0.0,0.0,0.0,0.0,0.0,0.0,0.0,0,0.0,0.0,-0.00036786800000000004,0.0,90.0,60.0,60.0,90.3363494873,120.0664901733,120.32112884520001,49.2119979858,15.991337776199998,2.6799998283,0,2,25,1,52,6088
71,1530635520933,209933, RC,0,39.9586186,-88.445067899,0,0.0,0.0,0.0,0.0,0.0,0.00018393400000000002,0.0,0.0,0.0,0.0,0.0,0.0,0.0,1500,1500,0.0,0.0,40.0484578333,-88.2328228333,0.0,0.0,0.0,0.0,0.0,0.0,0.0,0.0,0.0,0.0,0.0,0,0.0,0.0,-0.00036786800000000004,0.0,90.0,60.0,60.0,90.3363494873,120.0664901733,120.38480377200001,49.2119979858,15.991337776199998,2.6799998283,0,2,25,1,56,6089
72,1530635520983,209983, RC,0,39.9586186,-88.445067899,0,0.0,0.0,0.0,0.0,0.0,0.00018393400000000002,0.0,0.0,0.0,0.0,0.0,0.0,0.0,1500,1500,0.0,0.0,40.0484578333,-88.2328228333,0.0,0.0,0.0,0.0,0.0,0.0,0.0,0.0,0.0,0.0,0.0,0,0.0,0.0,-0.00036786800000000004,0.0,90.0,60.0,60.0,90.3363494873,120.0664901733,120.38480377200001,49.2119979858,15.991337776199998,2.6799998283,0,2,25,1,60,6091
73,1530635521034,210034, RC,0,39.9586186,-88.445067899,0,0.0,0.0,0.0,0.0,0.0,0.0,0.0,0.0,0.0,0.0,0.0,0.0,0.0,1500,1500,0.0,0.0,40.0484578333,-88.2328228333,0.0,0.0,0.0,0.0,0.0,0.0,0.0,0.0,0.0,0.0,0.0,0,0.0,0.0,0.0,0.0,90.0,60.0,60.0,90.3363494873,120.0664901733,120.38480377200001,49.2119979858,15.991337776199998,2.6799998283,0,2,25,1,68,6092
74,1530635521085,210085, RC,0,39.9586186,-88.445067899,0,0.0,0.0,0.0,0.0,0.0,0.0,0.0,0.0,0.0,0.0,0.0,0.0,0.0,1500,1500,0.0,0.0,40.0484578333,-88.2328228333,0.0,0.0,0.0,0.0,0.0,0.0,0.0,0.0,0.0,0.0,0.0,0,0.0,0.0,0.0,0.0,90.0,60.0,60.0,90.3363494873,120.0664901733,120.38480377200001,49.2119979858,15.991337776199998,2.6799998283,0,2,25,1,53,6094
75,1530635521135,210135, RC,0,39.9586186,-88.445067899,0,0.0,0.0,0.0,0.0,0.0,0.0,0.0,0.0,0.0,0.0,0.0,0.0,0.0,1500,1500,0.0,0.0,40.0484578333,-88.2328228333,0.0,0.0,0.0,0.0,0.0,0.0,0.0,0.0,0.0,0.0,0.0,0,0.0,0.0,0.0,0.0,90.0,60.0,60.0,90.3363494873,120.0664901733,120.38480377200001,49.2119979858,15.991337776199998,2.6799998283,0,2,25,1,50,6095
76,1530635521186,210186, RC,0,39.9586186,-88.445067899,0,0.0,0.0,0.0,0.0,0.0,0.0,0.0,0.0,0.0,0.0,0.0,0.0,0.0,1500,1500,0.0,0.0,40.0484578333,-88.2328228333,0.0,0.0,0.0,0.0,0.0,0.0,0.0,0.0,0.0,0.0,0.0,0,0.0,0.0,0.0,0.0,90.0,60.0,60.0,90.3363494873,120.0664901733,120.38480377200001,49.2119979858,15.991337776199998,2.6799998283,0,2,25,1,60,6097
77,1530635521236,210236, RC,0,39.9586186,-88.445067899,0,0.0,0.0,0.0,0.0,0.0,0.0,0.0,0.0,0.0,0.0,0.0,0.0,0.0,1500,1500,0.0,0.0,40.0484578333,-88.2328228333,0.0,0.0,0.0,0.0,0.0,0.0,0.0,0.0,0.0,0.0,0.0,0,0.0,0.0,0.0,0.0,90.0,60.0,60.0,90.2726821899,120.0664901733,120.38480377200001,49.2119979858,15.991337776199998,2.6799998283,0,2,25,1,53,6098
78,1530635521287,210287, RC,0,39.9586186,-88.445067899,0,0.0,0.0,0.0,0.0,0.0,0.0,0.0,0.0,0.0,0.0,0.0,0.0,0.0,1500,1500,0.0,0.0,40.0484578333,-88.2328228333,0.0,0.0,0.0,0.0,0.0,0.0,0.0,0.0,0.0,0.0,0.0,0,0.0,0.0,0.0,0.0,90.0,60.0,60.0,90.2726821899,120.0664901733,120.4484634399,49.2119979858,15.991337776199998,2.6799998283,0,2,25,1,50,6100
79,1530635521338,210338, RC,0,39.9586186,-88.445067899,0,0.0,0.0,0.0,0.0,0.0,0.0,0.0,0.0,0.0,0.0,0.0,0.0,0.0,1500,1500,0.0,0.0,40.0484563333,-88.23282066670001,0.0,0.0,0.0,0.0,0.0,0.0,0.0,0.0,0.0,0.0,0.0,0,0.0,0.0,0.0,0.0,90.0,60.0,60.0,90.2726821899,120.0664901733,120.4484634399,49.2119979858,15.991337776199998,2.6799998283,0,2,25,1,71,6101
80,1530635521388,210388, RC,0,39.9586186,-88.445067899,0,0.0,0.0,0.0,0.0,0.0,0.0,0.0,0.0,0.0,0.0,0.0,0.0,0.0,1500,1500,0.0,0.0,40.0484563333,-88.23282066670001,0.0,0.0,0.0,0.0,0.0,0.0,0.0,0.0,0.0,0.0,0.0,0,0.0,0.0,0.0,0.0,90.0,60.0,60.0,90.2726821899,120.0664901733,120.4484634399,49.2119979858,15.991337776199998,2.6799998283,0,2,25,1,63,6103
81,1530635521439,210439, RC,0,39.9586186,-88.445067899,0,0.0,0.0,0.0,0.0,0.0,0.0,0.0,0.0,0.0,0.0,0.0,0.0,0.0,1500,1500,0.0,0.0,40.0484563333,-88.23282066670001,0.0,0.0,0.0,0.0,0.0,0.0,0.0,0.0,0.0,0.0,0.0,0,0.0,0.0,0.0,0.0,90.0,60.0,60.0,90.2726821899,120.0664901733,120.4484634399,49.2119979858,15.991337776199998,2.6799998283,0,2,25,1,62,6104
82,1530635521489,210489, RC,0,39.9586186,-88.445067899,0,0.0,0.0,0.0,0.0,0.0,0.0,0.0,0.0,0.0,0.0,0.0,0.0,0.0,1500,1500,0.0,0.0,40.0484563333,-88.23282066670001,0.0,0.0,0.0,0.0,0.0,0.0,0.0,0.0,0.0,0.0,0.0,0,0.0,0.0,0.0,0.0,90.0,60.0,60.0,90.2726821899,120.0664901733,120.4484634399,49.2119979858,15.991337776199998,2.6799998283,0,2,25,1,61,6106
83,1530635521540,210540, RC,0,39.9586186,-88.445067899,0,0.0,0.0,0.0,0.0,0.0,0.0,0.0,0.0,0.0,0.0,0.0,0.0,0.0,1500,1500,0.0,0.0,40.0484563333,-88.23282066670001,0.0,0.0,0.0,0.0,0.0,0.0,0.0,0.0,0.0,0.0,0.0,0,0.0,0.0,0.0,0.0,90.0,60.0,60.0,90.2726821899,120.0664901733,120.4484634399,49.2119979858,16.0045070648,3.6199998856,0,2,25,1,60,6107
84,1530635521590,210590, RC,0,39.9586186,-88.445067899,0,0.0,0.0,0.0,0.0,0.0,0.0,0.0,0.0,0.0,0.0,0.0,0.0,0.0,1500,1500,0.0,0.0,40.0484563333,-88.23282066670001,0.0,0.0,0.0,0.0,0.0,0.0,0.0,0.0,0.0,0.0,0.0,0,0.0,0.0,0.0,0.0,90.0,60.0,60.0,90.2726821899,120.13014221190001,120.4484634399,49.2119979858,16.0045070648,3.6199998856,0,2,25,1,55,6109
85,1530635521641,210641, RC,0,39.9586186,-88.445067899,0,0.0,0.0,0.0,0.0,0.0,0.0,0.0,0.0,0.0,0.0,0.0,0.0,0.0,1500,1500,0.0,0.0,40.0484563333,-88.23282066670001,0.0,0.0,0.0,0.0,0.0,0.0,0.0,0.0,0.0,0.0,0.0,0,0.0,0.0,0.0,0.0,90.0,60.0,60.0,90.2726821899,120.13014221190001,120.4484634399,49.2119979858,16.0045070648,3.6199998856,0,2,25,1,55,6110
86,1530635521692,210692, RC,0,39.9586186,-88.445067899,0,0.0,0.0,0.0,0.0,0.0,0.0,0.0,0.0,0.0,0.0,0.0,0.0,0.0,1500,1500,0.0,0.0,40.0484563333,-88.23282066670001,0.0,0.0,0.0,0.0,0.0,0.0,0.0,0.0,0.0,0.0,0.0,0,0.0,0.0,0.0,0.0,90.0,60.0,60.0,90.2726821899,120.13014221190001,120.4484634399,49.2119979858,16.0045070648,3.6199998856,0,2,25,1,54,6112
87,1530635521742,210742, RC,0,39.9586186,-88.445067899,0,0.0,0.0,0.0,0.0,0.0,0.0,0.0,0.0,0.0,0.0,0.0,0.0,0.0,1500,1500,0.0,0.0,40.0484563333,-88.23282066670001,0.0,0.0,0.0,0.0,0.0,0.0,0.0,0.0,0.0,0.0,0.0,0,0.0,0.0,0.0,0.0,90.0,60.0,60.0,90.2726821899,120.13014221190001,120.4484634399,49.2119979858,16.0045070648,3.6199998856,0,2,25,1,53,6113
88,1530635521793,210793, RC,0,39.9586186,-88.445067899,0,0.0,0.0,0.0,0.0,0.0,0.0,0.0,0.0,0.0,0.0,0.0,0.0,0.0,1500,1500,0.0,0.0,40.0484563333,-88.23282066670001,0.0,0.0,0.0,0.0,0.0,0.0,0.0,0.0,0.0,0.0,0.0,0,0.0,0.0,0.0,0.0,90.0,60.0,60.0,90.2726821899,120.13014221190001,120.4484634399,49.2119979858,16.0045070648,3.6199998856,0,2,25,1,22,6115
89,1530635521844,210844, RC,0,39.9586186,-88.445067899,0,0.0,0.0,0.0,0.0,0.0,0.0,0.0,0.0,0.0,0.0,0.0,0.0,0.0,1500,1500,0.0,0.0,40.0484563333,-88.23282066670001,0.0,0.0,0.0,0.0,0.0,0.0,0.0,0.0,0.0,0.0,0.0,0,0.0,0.0,0.0,0.0,90.0,60.0,60.0,90.2726821899,120.13014221190001,120.4484634399,49.2119979858,16.0045070648,3.6199998856,0,2,25,1,16,6116
90,1530635521894,210894, RC,0,39.9586186,-88.445067899,0,0.0,0.0,0.0,0.0,0.0,0.0,0.0,0.0,0.0,0.0,0.0,0.0,0.0,1500,1500,0.0,0.0,40.0484563333,-88.23282066670001,0.0,0.0,0.0,0.0,0.0,0.0,0.0,0.0,0.0,0.0,0.0,0,0.0,0.0,0.0,0.0,90.0,60.0,60.0,90.2726821899,120.13014221190001,120.4484634399,49.2119979858,16.0045070648,3.6199998856,0,2,25,1,15,6118
91,1530635521945,210945, RC,0,39.9586186,-88.445067899,0,0.0,0.0,0.0,0.0,0.0,0.0,0.0,0.0,0.0,0.0,0.0,0.0,0.0,1500,1500,0.0,0.0,40.0484563333,-88.23282066670001,0.0,0.0,0.0,0.0,0.0,0.0,0.0,0.0,0.0,0.0,0.0,0,0.0,0.0,0.0,0.0,90.0,60.0,60.0,90.2726821899,120.13014221190001,120.4484634399,49.2119979858,16.0045070648,3.6199998856,0,2,25,1,11,6120
92,1530635521995,210995, RC,0,39.9586186,-88.445067899,0,0.0,0.0,0.0,0.0,0.0,0.0,0.0,0.0,0.0,0.0,0.0,0.0,0.0,1500,1500,0.0,0.0,40.0484563333,-88.23282066670001,0.0,0.0,0.0,0.0,0.0,0.0,0.0,0.0,0.0,0.0,0.0,0,0.0,0.0,0.0,0.0,90.0,60.0,60.0,90.2726821899,120.13014221190001,120.4484634399,49.2119979858,16.0045070648,3.6199998856,0,2,25,1,11,6121
93,1530635522046,211046, RC,0,39.9586186,-88.445067899,0,0.0,0.0,0.0,0.0,0.0,0.0,0.0,0.0,0.0,0.0,0.0,0.0,0.0,1500,1500,0.0,0.0,40.0484563333,-88.23282066670001,0.0,0.0,0.0,0.0,0.0,0.0,0.0,0.0,0.0,0.0,0.0,0,0.0,0.0,0.0,0.0,90.0,60.0,60.0,90.2726821899,120.13014221190001,120.4484634399,49.2119979858,16.0045070648,3.6199998856,0,2,25,1,20,6123
94,1530635522096,211096, RC,0,39.9586186,-88.445067899,0,0.0,0.0,0.0,0.0,0.0,0.0,0.0,0.0,0.0,0.0,0.0,0.0,0.0,1500,1500,0.0,0.0,40.0484563333,-88.23282066670001,0.0,0.0,0.0,0.0,0.0,0.0,0.0,0.0,0.0,0.0,0.0,0,0.0,0.0,0.0,0.0,90.0,60.0,60.0,90.2726821899,120.13014221190001,120.4484634399,49.2119979858,16.0045070648,3.6199998856,0,2,25,1,20,6125
95,1530635522147,211147, RC,0,39.9586186,-88.445067899,0,0.0,0.0,0.0,0.0,0.0,0.0,0.0,0.0,0.0,0.0,0.0,0.0,0.0,1500,1500,0.0,0.0,40.0484563333,-88.23282066670001,0.0,0.0,0.0,0.0,0.0,0.0,0.0,0.0,0.0,0.0,0.0,0,0.0,0.0,0.0,0.0,90.0,60.0,60.0,90.2726821899,120.13014221190001,120.4484634399,49.2119979858,16.0045070648,3.6199998856,0,2,25,1,17,6126
96,1530635522198,211198, RC,0,39.9586186,-88.445067899,0,0.0,0.0,0.0,0.0,0.0,0.0,0.0,0.0,0.0,0.0,0.0,0.0,0.0,1500,1500,0.0,0.0,40.0484563333,-88.23282066670001,0.0,0.0,0.0,0.0,0.0,0.0,0.0,0.0,0.0,0.0,0.0,0,0.0,0.0,0.0,0.0,90.0,60.0,60.0,90.2726821899,120.13014221190001,120.4484634399,49.2119979858,16.0045070648,3.6199998856,0,2,25,1,10,6129
97,1530635522248,211248, RC,0,39.9586186,-88.445067899,0,0.0,0.0,0.0,0.0,0.0,0.0,0.0,0.0,0.0,0.0,0.0,0.0,0.0,1500,1500,0.0,0.0,40.0484563333,-88.23282066670001,0.0,0.0,0.0,0.0,0.0,0.0,0.0,0.0,0.0,0.0,0.0,0,0.0,0.0,0.0,0.0,90.0,60.0,60.0,90.2726821899,120.13014221190001,120.4484634399,49.2119979858,16.0045070648,3.6199998856,0,2,25,1,9,6132
98,1530635522299,211299, RC,0,39.9586186,-88.445067899,0,0.0,0.0,0.0,0.0,0.0,0.0,0.0,0.0,0.0,0.0,0.0,0.0,0.0,1500,1500,0.0,0.0,40.0484563333,-88.23282066670001,0.0,0.0,0.0,0.0,0.0,0.0,0.0,0.0,0.0,0.0,0.0,0,0.0,0.0,0.0,0.0,90.0,60.0,60.0,90.2726821899,120.13014221190001,120.4484634399,49.2119979858,16.0045070648,3.6199998856,0,2,25,1,7,6135
99,1530635522349,211349, RC,0,39.9586186,-88.445067899,0,0.0,0.0,0.0,0.0,0.0,0.0,0.0,0.0,0.0,0.0,0.0,0.0,0.0,1500,1500,0.0,0.0,40.048453333299996,-88.2328163333,0.0,0.0,0.0,0.0,0.0,0.0,0.0,0.0,0.0,0.0,0.0,0,0.0,0.0,0.0,0.0,90.0,60.0,60.0,90.2726821899,120.0664901733,120.4484634399,49.2119979858,16.0045070648,3.6199998856,0,2,25,1,8,6138
100,1530635522400,211400, RC,0,39.9586186,-88.445067899,0,0.0,0.0,0.0,0.0,0.0,0.0,0.0,0.0,0.0,0.0,0.0,0.0,0.0,1500,1500,0.0,0.0,40.048453333299996,-88.2328163333,0.0,0.0,0.0,0.0,0.0,0.0,0.0,0.0,0.0,0.0,0.0,0,0.0,0.0,0.0,0.0,90.0,60.0,60.0,90.2726821899,120.0664901733,120.4484634399,49.2119979858,16.0045070648,3.6199998856,0,2,25,1,10,6141
101,1530635522450,211450, RC,0,39.9586186,-88.445067899,0,0.0,0.0,0.0,0.0,0.0,0.0,0.0,0.0,0.0,0.0,0.0,0.0,0.0,1500,1500,0.0,0.0,40.048453333299996,-88.2328163333,0.0,0.0,0.0,0.0,0.0,0.0,0.0,0.0,0.0,0.0,0.0,0,0.0,0.0,0.0,0.0,90.0,60.0,60.0,90.2726821899,120.0664901733,120.51211547850001,49.2119979858,16.0045070648,3.6199998856,0,2,25,1,14,6144
102,1530635522501,211501, RC,0,39.9586186,-88.445067899,0,0.0,0.0,0.0,0.0,0.0,0.0,0.0,0.0,0.0,0.0,0.0,0.0,0.0,1500,1500,0.0,0.0,40.048453333299996,-88.2328163333,0.0,0.0,0.0,0.0,0.0,0.0,0.0,0.0,0.0,0.0,0.0,0,0.0,0.0,0.0,0.0,90.0,60.0,60.0,90.2726821899,120.00283050540001,120.51211547850001,49.2119979858,16.0045070648,3.6199998856,0,2,25,1,24,6146
103,1530635522552,211552, RC,0,39.9586186,-88.445067899,0,0.0,0.0,0.0,0.0,0.0,0.0,0.0,0.0,0.0,0.0,0.0,0.0,0.0,1500,1500,0.0,0.0,40.048453333299996,-88.2328163333,0.0,0.0,0.0,0.0,0.0,0.0,0.0,0.0,0.0,0.0,0.0,0,0.0,0.0,0.0,0.0,90.0,60.0,60.0,90.2726821899,120.00283050540001,120.57579040530001,49.2119979858,16.0226802826,3.2400000094999997,0,2,25,1,13,6149
104,1530635522602,211602, RC,0,39.9586186,-88.445067899,0,0.0,0.0,0.0,0.0,0.0,0.0,0.0,0.0,0.0,0.0,0.0,0.0,0.0,1500,1500,0.0,0.0,40.048453333299996,-88.2328163333,0.0,0.0,0.0,0.0,0.0,0.0,0.0,0.0,0.0,0.0,0.0,0,0.0,0.0,0.0,0.0,90.0,60.0,60.0,90.2726821899,119.939163208,120.2574768066,49.2119979858,16.0226802826,3.2400000094999997,0,2,25,1,9,6152
105,1530635522653,211653, RC,0,39.9586186,-88.445067899,0,0.0,0.0,0.0,0.0,0.0,0.0,0.0,0.0,0.0,0.0,0.0,0.0,0.0,1500,1500,0.0,0.0,40.048453333299996,-88.2328163333,0.0,0.0,0.0,0.0,0.0,0.0,0.0,0.0,0.0,0.0,0.0,0,0.0,0.0,0.0,0.0,90.0,60.0,60.0,90.2726821899,120.00283050540001,120.19381713870001,49.2119979858,16.0226802826,3.2400000094999997,0,2,25,1,6,6154
106,1530635522703,211703, RC,0,39.9586186,-88.445067899,0,0.0,0.0,0.0,0.0,0.0,0.0,0.0,0.0,0.0,0.0,0.0,0.0,0.0,1500,1500,0.0,0.0,40.048453333299996,-88.2328163333,0.0,0.0,0.0,0.0,0.0,0.0,0.0,0.0,0.0,0.0,0.0,0,0.0,0.0,0.0,0.0,90.0,60.0,60.0,90.2726821899,119.939163208,120.2574768066,49.2119979858,16.0226802826,3.2400000094999997,0,2,25,1,4,6156
107,1530635522754,211754, RC,0,39.9586186,-88.445067899,0,0.0,0.0,0.0,0.0,0.0,0.0,0.0,0.0,0.0,0.0,0.0,0.0,0.0,1500,1500,0.0,0.0,40.048453333299996,-88.2328163333,0.0,0.0,0.0,0.0,0.0,0.0,0.0,0.0,0.0,0.0,0.0,0,0.0,0.0,0.0,0.0,90.0,60.0,60.0,90.2726821899,119.939163208,120.2574768066,49.2119979858,16.0226802826,3.2400000094999997,0,2,25,1,13,6159
108,1530635522805,211805, RC,0,39.9586186,-88.445067899,0,0.0,0.0,0.0,0.0,0.0,0.0,0.0,0.0,0.0,0.0,0.0,0.0,0.0,1500,1500,0.0,0.0,40.048453333299996,-88.2328163333,0.0,0.0,0.0,0.0,0.0,0.0,0.0,0.0,0.0,0.0,0.0,0,0.0,0.0,0.0,0.0,90.0,60.0,60.0,90.3363494873,120.00283050540001,120.19381713870001,49.2119979858,16.0226802826,3.2400000094999997,0,2,25,1,12,6161
109,1530635522855,211855, RC,0,39.9586186,-88.445067899,0,0.0,0.0,0.0,0.0,0.0,0.0,0.0,0.0,0.0,0.0,0.0,0.0,0.0,1500,1500,0.0,0.0,40.048453333299996,-88.2328163333,0.0,0.0,0.0,0.0,0.0,0.0,0.0,0.0,0.0,0.0,0.0,0,0.0,0.0,0.0,0.0,90.0,60.0,60.0,90.2726821899,120.00283050540001,120.19381713870001,49.2119979858,16.0226802826,3.2400000094999997,0,2,25,1,17,6164
110,1530635522906,211906, RC,0,39.9586186,-88.445067899,0,0.0,0.0,0.0,0.0,0.0,0.0,0.0,0.0,0.0,0.0,0.0,0.0,0.0,1500,1500,0.0,0.0,40.048453333299996,-88.2328163333,0.0,0.0,0.0,0.0,0.0,0.0,0.0,0.0,0.0,0.0,0.0,0,0.0,0.0,0.0,0.0,90.0,60.0,60.0,90.3363494873,120.00283050540001,120.19381713870001,49.2119979858,16.0226802826,3.2400000094999997,0,2,25,1,11,6166
111,1530635522956,211956, RC,0,39.9586186,-88.445067899,0,0.0,0.0,0.0,0.0,0.0,0.0,0.0,0.0,0.0,0.0,0.0,0.0,0.0,1500,1500,0.0,0.0,40.048453333299996,-88.2328163333,0.0,0.0,0.0,0.0,0.0,0.0,0.0,0.0,0.0,0.0,0.0,0,0.0,0.0,0.0,0.0,90.0,60.0,60.0,90.2726821899,120.00283050540001,120.19381713870001,49.2119979858,16.0226802826,3.2400000094999997,0,2,25,1,12,6168
112,1530635523007,212007, RC,0,39.9586186,-88.445067899,0,0.0,0.0,0.0,0.0,0.0,0.0,0.0,0.0,0.0,0.0,0.0,0.0,0.0,1500,1500,0.0,0.0,40.048453333299996,-88.2328163333,0.0,0.0,0.0,0.0,0.0,0.0,0.0,0.0,0.0,0.0,0.0,0,0.0,0.0,0.0,0.0,90.0,60.0,60.0,90.2726821899,120.00283050540001,120.19381713870001,49.2119979858,16.0226802826,3.2400000094999997,0,2,25,1,15,6170
113,1530635523057,212057, RC,0,39.9586186,-88.445067899,0,0.0,0.0,0.0,0.0,0.0,0.0,0.0,0.0,0.0,0.0,0.0,0.0,0.0,1500,1500,0.0,0.0,40.048453333299996,-88.2328163333,0.0,0.0,0.0,0.0,0.0,0.0,0.0,0.0,0.0,0.0,0.0,0,0.0,0.0,0.0,0.0,90.0,60.0,60.0,90.2726821899,120.00283050540001,120.19381713870001,49.2119979858,16.0226802826,3.2400000094999997,0,2,25,1,18,6172
114,1530635523108,212108, RC,0,39.9586186,-88.445067899,0,0.0,0.0,0.0,0.0,0.0,0.0,0.0,0.0,0.0,0.0,0.0,0.0,0.0,1500,1500,0.0,0.0,40.048453333299996,-88.2328163333,0.0,0.0,0.0,0.0,0.0,0.0,0.0,0.0,0.0,0.0,0.0,0,0.0,0.0,0.0,0.0,90.0,60.0,60.0,90.2726821899,120.00283050540001,120.19381713870001,49.2119979858,16.0226802826,3.2400000094999997,0,2,25,1,20,6173
115,1530635523212,212212, RC,0,39.9586186,-88.445067899,0,0.0,0.0,0.0,0.0,0.0,0.0,0.0,0.0,0.0,0.0,0.0,0.0,0.0,1500,1500,0.0,0.0,40.048453333299996,-88.2328163333,0.0,0.0,0.0,0.0,0.0,0.0,0.0,0.0,0.0,0.0,0.0,0,0.0,0.0,0.0,0.0,90.0,60.0,60.0,90.2726821899,120.00283050540001,120.19381713870001,49.2119979858,16.0226802826,3.2400000094999997,0,2,25,1,16,6178
116,1530635523263,212263, RC,0,39.9586186,-88.445067899,0,0.0,0.0,0.0,0.0,0.0,0.0,0.0,0.0,0.0,0.0,0.0,0.0,0.0,1500,1500,0.0,0.0,40.048453333299996,-88.2328163333,0.0,0.0,0.0,0.0,0.0,0.0,0.0,0.0,0.0,0.0,0.0,0,0.0,0.0,0.0,0.0,90.0,60.0,60.0,90.3363494873,120.00283050540001,120.19381713870001,49.2119979858,16.0226802826,3.2400000094999997,0,2,25,1,71,6180
117,1530635523313,212313, RC,0,39.9586186,-88.445067899,0,0.0,0.0,0.0,0.0,0.0,0.0,0.0,0.0,0.0,0.0,0.0,0.0,0.0,1500,1500,0.0,0.0,40.048453333299996,-88.2328163333,0.0,0.0,0.0,0.0,0.0,0.0,0.0,0.0,0.0,0.0,0.0,0,0.0,0.0,0.0,0.0,90.0,60.0,60.0,90.40000915530001,119.939163208,120.2574768066,49.2119979858,16.0226802826,3.2400000094999997,0,2,25,1,65,6183
118,1530635523364,212364, RC,0,39.9586186,-88.445067899,0,0.0,0.0,0.0,0.0,0.0,0.00036786800000000004,0.0,0.0,0.0,0.0,0.0,0.0,0.0,1500,1500,0.0,0.0,40.0484523333,-88.2328135,0.0,0.0,0.0,0.0,0.0,0.0,0.0,0.0,0.0,0.0,0.0,0,0.0,0.0,0.0,-0.0007357360000000001,90.0,60.0,60.0,90.5909881592,119.81184387209998,120.4484634399,49.2119979858,16.0226802826,3.2400000094999997,0,2,25,1,68,6185
119,1530635523414,212414, RC,0,39.9586186,-88.445067899,0,0.0,0.0,0.0,0.0,0.0,0.0007357360000000001,0.0,0.0,0.0,0.0,0.0,0.0,0.0,1500,1500,0.0,0.0,40.0484523333,-88.2328135,0.0,0.0,0.0,0.0,0.0,0.0,0.0,0.0,0.0,0.0,0.0,0,0.0,0.0,0.0,-0.0014714720000000001,90.0,60.0,60.0,90.5273361206,119.7481765747,120.4484634399,49.2119979858,16.0226802826,3.2400000094999997,0,2,25,1,133,6188
120,1530635523465,212465, RC,0,39.9586186,-88.445067899,0,0.0,0.0,0.0,0.0,0.0,0.000551802,0.0,0.0,0.0,0.0,0.0,0.0,0.0,1500,1500,0.0,0.0,40.0484523333,-88.2328135,0.0,0.0,0.0,0.0,0.0,0.0,0.0,0.0,0.0,0.0,0.0,0,0.0,0.0,0.0,-0.001103604,90.0,60.0,60.0,90.4636688232,119.7481765747,120.4484634399,49.2119979858,16.0226802826,3.2400000094999997,0,2,25,1,193,6190
121,1530635523516,212516, RC,0,39.9586186,-88.445067899,0,0.0,0.0,0.0,0.0,0.0,0.000459835,0.0,0.0,0.0,0.0,0.0,0.0,0.0,1500,1500,0.0,0.0,40.0484523333,-88.2328135,0.0,0.0,0.0,0.0,0.0,0.0,0.0,0.0,0.0,0.0,0.0,0,0.0,0.0,0.0,-0.0009196699,90.0,60.0,60.0,90.40000915530001,119.7481765747,120.4484634399,49.2119979858,16.0226802826,3.2400000094999997,0,2,25,1,176,6193
122,1530635523566,212566, RC,0,39.9586186,-88.445067899,0,0.0,0.0,0.0,0.0,0.0,0.00036786800000000004,0.0,0.0,0.0,0.0,0.0,0.0,0.0,1500,1500,0.0,0.0,40.0484523333,-88.2328135,0.0,0.0,0.0,0.0,0.0,0.0,0.0,0.0,0.0,0.0,0.0,0,0.0,0.0,0.0,-0.0007357360000000001,90.0,60.0,60.0,90.4636688232,119.7481765747,120.19381713870001,49.2119979858,16.0421485901,3.3000001907,0,2,25,1,139,6195
123,1530635523617,212617, RC,0,39.9586186,-88.445067899,0,0.0,0.0,0.0,0.0,0.0,0.000275901,0.0,0.0,0.0,0.0,0.0,0.0,0.0,1500,1500,0.0,0.0,40.0484523333,-88.2328135,0.0,0.0,0.0,0.0,0.0,0.0,0.0,0.0,0.0,0.0,0.0,0,0.0,0.0,0.0,-0.000551802,90.0,60.0,60.0,90.5273361206,119.81184387209998,120.13014221190001,49.2119979858,16.0421485901,3.3000001907,0,2,25,1,203,6198
124,1530635523667,212667, RC,0,39.9586186,-88.445067899,0,0.0,0.0,0.0,0.0,0.0,0.00018393400000000002,0.0,0.0,0.0,0.0,0.0,0.0,0.0,1500,1500,0.0,0.0,40.0484523333,-88.2328135,0.0,0.0,0.0,0.0,0.0,0.0,0.0,0.0,0.0,0.0,0.0,0,0.0,0.0,0.0,-0.00036786800000000004,90.0,60.0,60.0,90.4636688232,119.81184387209998,120.19381713870001,49.2119979858,16.0421485901,3.3000001907,0,2,25,1,126,6200
125,1530635523718,212718, RC,0,39.9586186,-88.445067899,0,0.0,0.0,0.0,0.0,0.0,0.00018393400000000002,0.0,0.0,0.0,0.0,0.0,0.0,0.0,1500,1500,0.0,0.0,40.0484523333,-88.2328135,0.0,0.0,0.0,0.0,0.0,0.0,0.0,0.0,0.0,0.0,0.0,0,0.0,0.0,0.0,-0.00036786800000000004,90.0,60.0,60.0,90.40000915530001,119.87550354,120.0664901733,49.2119979858,16.0421485901,3.3000001907,0,2,25,1,75,6202
126,1530635523769,212769, RC,0,39.9586186,-88.445067899,0,0.0,0.0,0.0,0.0,0.0,0.00018393400000000002,0.0,0.0,0.0,0.0,0.0,0.0,0.0,1500,1500,0.0,0.0,40.0484523333,-88.2328135,0.0,0.0,0.0,0.0,0.0,0.0,0.0,0.0,0.0,0.0,0.0,0,0.0,0.0,0.0,-0.00036786800000000004,90.0,60.0,60.0,90.4636688232,119.939163208,120.00283050540001,49.2119979858,16.0421485901,3.3000001907,0,2,25,1,72,6205
127,1530635523819,212819, RC,0,39.9586186,-88.445067899,0,0.0,0.0,0.0,0.0,0.0,0.00018393400000000002,0.0,0.0,0.0,0.0,0.0,0.0,0.0,1500,1500,0.0,0.0,40.0484523333,-88.2328135,0.0,0.0,0.0,0.0,0.0,0.0,0.0,0.0,0.0,0.0,0.0,0,0.0,0.0,0.0,-0.00036786800000000004,90.0,60.0,60.0,90.40000915530001,119.87550354,120.00283050540001,49.2119979858,16.0421485901,3.3000001907,0,2,25,1,78,6207
128,1530635523870,212870, RC,0,39.9586186,-88.445067899,0,0.0,0.0,0.0,0.0,0.0,0.00018393400000000002,0.0,0.0,0.0,0.0,0.0,0.0,0.0,1500,1500,0.0,0.0,40.0484523333,-88.2328135,0.0,0.0,0.0,0.0,0.0,0.0,0.0,0.0,0.0,0.0,0.0,0,0.0,0.0,0.0,-0.00036786800000000004,90.0,60.0,60.0,90.4636688232,119.939163208,120.0664901733,49.2119979858,16.0421485901,3.3000001907,0,2,25,1,124,6209
129,1530635523920,212920, RC,0,39.9586186,-88.445067899,0,0.0,0.0,0.0,0.0,0.0,0.0,0.0,0.0,0.0,0.0,0.0,0.0,0.0,1500,1500,0.0,0.0,40.0484523333,-88.2328135,0.0,0.0,0.0,0.0,0.0,0.0,0.0,0.0,0.0,0.0,0.0,0,0.0,0.0,0.0,0.0,90.0,60.0,60.0,90.40000915530001,119.87550354,120.0664901733,49.2119979858,16.0421485901,3.3000001907,0,2,25,1,146,6211
130,1530635523971,212971, RC,0,39.9586186,-88.445067899,0,0.0,0.0,0.0,0.0,0.0,0.0,0.0,0.0,0.0,0.0,0.0,0.0,0.0,1500,1500,0.0,0.0,40.0484523333,-88.2328135,0.0,0.0,0.0,0.0,0.0,0.0,0.0,0.0,0.0,0.0,0.0,0,0.0,0.0,0.0,0.0,90.0,60.0,60.0,90.40000915530001,119.939163208,120.0664901733,49.2119979858,16.0421485901,3.3000001907,0,2,25,1,83,6213
131,1530635524022,213022, RC,0,39.9586186,-88.445067899,0,0.0,0.0,0.0,0.0,0.0,0.0,0.0,0.0,0.0,0.0,0.0,0.0,0.0,1500,1500,0.0,0.0,40.0484523333,-88.2328135,0.0,0.0,0.0,0.0,0.0,0.0,0.0,0.0,0.0,0.0,0.0,0,0.0,0.0,0.0,0.0,90.0,60.0,60.0,90.40000915530001,119.939163208,120.0664901733,49.2119979858,16.0421485901,3.3000001907,0,2,25,1,91,6215
132,1530635524072,213072, RC,0,39.9586186,-88.445067899,0,0.0,0.0,0.0,0.0,0.0,0.0,0.0,0.0,0.0,0.0,0.0,0.0,0.0,1500,1500,0.0,0.0,40.0484523333,-88.2328135,0.0,0.0,0.0,0.0,0.0,0.0,0.0,0.0,0.0,0.0,0.0,0,0.0,0.0,0.0,0.0,90.0,60.0,60.0,90.40000915530001,119.939163208,120.0664901733,49.2119979858,16.0421485901,3.3000001907,0,2,25,1,95,6216
133,1530635524123,213123, RC,0,39.9586186,-88.445067899,0,0.0,0.0,0.0,0.0,0.0,0.0,0.0,0.0,0.0,0.0,0.0,0.0,0.0,1500,1500,0.0,0.0,40.0484523333,-88.2328135,0.0,0.0,0.0,0.0,0.0,0.0,0.0,0.0,0.0,0.0,0.0,0,0.0,0.0,0.0,0.0,90.0,60.0,60.0,90.40000915530001,119.939163208,120.0664901733,49.2119979858,16.0421485901,3.3000001907,0,2,25,1,89,6218
134,1530635524173,213173, RC,0,39.9586186,-88.445067899,0,0.0,0.0,0.0,0.0,0.0,0.0,0.0,0.0,0.0,0.0,0.0,0.0,0.0,1500,1500,0.0,0.0,40.0484523333,-88.2328135,0.0,0.0,0.0,0.0,0.0,0.0,0.0,0.0,0.0,0.0,0.0,0,0.0,0.0,0.0,0.0,90.0,60.0,60.0,90.40000915530001,119.939163208,120.0664901733,49.2119979858,16.0421485901,3.3000001907,0,2,25,1,22,6221
135,1530635524224,213224, RC,0,39.9586186,-88.445067899,0,0.0,0.0,0.0,0.0,0.0,0.0,0.0,0.0,0.0,0.0,0.0,0.0,0.0,1500,1500,0.0,0.0,40.0484523333,-88.2328135,0.0,0.0,0.0,0.0,0.0,0.0,0.0,0.0,0.0,0.0,0.0,0,0.0,0.0,0.0,0.0,90.0,60.0,60.0,90.3363494873,119.939163208,120.0664901733,49.2119979858,16.0421485901,3.3000001907,0,2,25,1,28,6223
136,1530635524275,213275, RC,0,39.9586186,-88.445067899,0,0.0,0.0,0.0,0.0,0.0,0.0,0.0,0.0,0.0,0.0,0.0,0.0,0.0,1500,1500,0.0,0.0,40.0484523333,-88.2328135,0.0,0.0,0.0,0.0,0.0,0.0,0.0,0.0,0.0,0.0,0.0,0,0.0,0.0,0.0,0.0,90.0,60.0,60.0,90.3363494873,119.939163208,120.0664901733,49.2119979858,16.0421485901,3.3000001907,0,2,25,1,19,6225
137,1530635524325,213325, RC,0,39.9586186,-88.445067899,0,0.0,0.0,0.0,0.0,0.0,0.0,0.0,0.0,0.0,0.0,0.0,0.0,0.0,1500,1500,0.0,0.0,40.0484523333,-88.2328135,0.0,0.0,0.0,0.0,0.0,0.0,0.0,0.0,0.0,0.0,0.0,0,0.0,0.0,0.0,0.0,90.0,60.0,60.0,90.3363494873,119.939163208,120.0664901733,49.2119979858,16.0421485901,3.3000001907,0,2,25,1,22,6228
138,1530635524376,213376, RC,0,39.9586186,-88.445067899,0,0.0,0.0,0.0,0.0,0.0,0.0,0.0,0.0,0.0,0.0,0.0,0.0,0.0,1500,1500,0.0,0.0,40.0484515,-88.232807,0.0,0.0,0.0,0.0,0.0,0.0,0.0,0.0,0.0,0.0,0.0,0,0.0,0.0,0.0,0.0,90.0,60.0,60.0,90.3363494873,119.939163208,120.0664901733,49.2119979858,16.0421485901,3.3000001907,0,2,25,1,24,6230
139,1530635524426,213426, RC,0,39.9586186,-88.445067899,0,0.0,0.0,0.0,0.0,0.0,0.0,0.0,0.0,0.0,0.0,0.0,0.0,0.0,1500,1500,0.0,0.0,40.0484515,-88.232807,0.0,0.0,0.0,0.0,0.0,0.0,0.0,0.0,0.0,0.0,0.0,0,0.0,0.0,0.0,0.0,90.0,60.0,60.0,90.3363494873,119.939163208,120.0664901733,49.2119979858,16.0421485901,3.3000001907,0,2,25,1,28,6232
140,1530635524477,213477, RC,0,39.9586186,-88.445067899,0,0.0,0.0,0.0,0.0,0.0,0.0,0.0,0.0,0.0,0.0,0.0,0.0,0.0,1500,1500,0.0,0.0,40.0484515,-88.232807,0.0,0.0,0.0,0.0,0.0,0.0,0.0,0.0,0.0,0.0,0.0,0,0.0,0.0,0.0,0.0,90.0,60.0,60.0,90.3363494873,119.87550354,120.13014221190001,49.2119979858,16.0421485901,3.3000001907,0,2,25,1,26,6235
141,1530635524528,213528, RC,0,39.9586186,-88.445067899,0,0.0,0.0,0.0,0.0,0.0,0.0,0.0,0.0,0.0,0.0,0.0,0.0,0.0,1500,1500,0.0,0.0,40.0484515,-88.232807,0.0,0.0,0.0,0.0,0.0,0.0,0.0,0.0,0.0,0.0,0.0,0,0.0,0.0,0.0,0.0,90.0,60.0,60.0,90.40000915530001,119.87550354,120.13014221190001,49.2119979858,16.0604038239,3.4000000954000003,0,2,25,1,26,6237
142,1530635524578,213578, RC,0,39.9586186,-88.445067899,0,0.0,0.0,0.0,0.0,0.0,0.0,0.0,0.0,0.0,0.0,0.0,0.0,0.0,1500,1500,0.0,0.0,40.0484515,-88.232807,0.0,0.0,0.0,0.0,0.0,0.0,0.0,0.0,0.0,0.0,0.0,0,0.0,0.0,0.0,0.0,90.0,60.0,60.0,90.3363494873,119.87550354,120.13014221190001,49.2119979858,16.0604038239,3.4000000954000003,0,2,25,1,21,6239
143,1530635524629,213629, RC,0,39.9586186,-88.445067899,0,0.0,0.0,0.0,0.0,0.0,0.0,0.0,0.0,0.0,0.0,0.0,0.0,0.0,1500,1500,0.0,0.0,40.0484515,-88.232807,0.0,0.0,0.0,0.0,0.0,0.0,0.0,0.0,0.0,0.0,0.0,0,0.0,0.0,0.0,0.0,90.0,60.0,60.0,90.40000915530001,119.87550354,120.13014221190001,49.2119979858,16.0604038239,3.4000000954000003,0,2,25,1,25,6242
144,1530635524679,213679, RC,0,39.9586186,-88.445067899,0,0.0,0.0,0.0,0.0,0.0,0.0,0.0,0.0,0.0,0.0,0.0,0.0,0.0,1500,1500,0.0,0.0,40.0484515,-88.232807,0.0,0.0,0.0,0.0,0.0,0.0,0.0,0.0,0.0,0.0,0.0,0,0.0,0.0,0.0,0.0,90.0,60.0,60.0,90.3363494873,119.87550354,120.13014221190001,49.2119979858,16.0604038239,3.4000000954000003,0,2,25,1,22,6244
145,1530635524730,213730, RC,0,39.9586186,-88.445067899,0,0.0,0.0,0.0,0.0,0.0,0.0,0.0,0.0,0.0,0.0,0.0,0.0,0.0,1500,1500,0.0,0.0,40.0484515,-88.232807,0.0,0.0,0.0,0.0,0.0,0.0,0.0,0.0,0.0,0.0,0.0,0,0.0,0.0,0.0,0.0,90.0,60.0,60.0,90.40000915530001,119.939163208,120.13014221190001,49.2119979858,16.0604038239,3.4000000954000003,0,2,25,1,109,6247
146,1530635524780,213780, RC,0,39.9586186,-88.445067899,0,0.0,0.0,0.0,0.0,0.0,0.0,0.0,0.0,0.0,0.0,0.0,0.0,0.0,1500,1500,0.0,0.0,40.0484515,-88.232807,0.0,0.0,0.0,0.0,0.0,0.0,0.0,0.0,0.0,0.0,0.0,0,0.0,0.0,0.0,0.0,90.0,60.0,60.0,90.40000915530001,119.87550354,120.13014221190001,49.2119979858,16.0604038239,3.4000000954000003,0,2,25,1,45,6249
147,1530635524831,213831, RC,0,39.9586186,-88.445067899,0,0.0,0.0,0.0,0.0,0.0,0.0,0.0,0.0,0.0,0.0,0.0,0.0,0.0,1500,1500,0.0,0.0,40.0484515,-88.232807,0.0,0.0,0.0,0.0,0.0,0.0,0.0,0.0,0.0,0.0,0.0,0,0.0,0.0,0.0,0.0,90.0,60.0,60.0,90.40000915530001,119.87550354,120.19381713870001,49.2119979858,16.0604038239,3.4000000954000003,0,2,25,1,47,6251
148,1530635524882,213882, RC,0,39.9586186,-88.445067899,0,0.0,0.0,0.0,0.0,0.0,0.0,0.0,0.0,0.0,0.0,0.0,0.0,0.0,1500,1500,0.0,0.0,40.0484515,-88.232807,0.0,0.0,0.0,0.0,0.0,0.0,0.0,0.0,0.0,0.0,0.0,0,0.0,0.0,0.0,0.0,90.0,60.0,60.0,90.3363494873,119.87550354,120.13014221190001,49.2119979858,16.0604038239,3.4000000954000003,0,2,25,1,76,6254
149,1530635524932,213932, RC,0,39.9586186,-88.445067899,0,0.0,0.0,0.0,0.0,0.0,0.0,0.0,0.0,0.0,0.0,0.0,0.0,0.0,1500,1500,0.0,0.0,40.0484515,-88.232807,0.0,0.0,0.0,0.0,0.0,0.0,0.0,0.0,0.0,0.0,0.0,0,0.0,0.0,0.0,0.0,90.0,60.0,60.0,90.3363494873,119.87550354,120.13014221190001,49.2119979858,16.0604038239,3.4000000954000003,0,2,25,1,122,6256
150,1530635524983,213983, RC,0,39.9586186,-88.445067899,0,0.0,0.0,0.0,0.0,0.0,0.0,0.0,0.0,0.0,0.0,0.0,0.0,0.0,1500,1500,0.0,0.0,40.0484515,-88.232807,0.0,0.0,0.0,0.0,0.0,0.0,0.0,0.0,0.0,0.0,0.0,0,0.0,0.0,0.0,0.0,90.0,60.0,60.0,90.3363494873,119.939163208,120.13014221190001,49.2119979858,16.0604038239,3.4000000954000003,0,2,25,1,94,6258
151,1530635525033,214033, RC,0,39.9586186,-88.445067899,0,0.0,0.0,0.0,0.0,0.0,0.0,0.0,0.0,0.0,0.0,0.0,0.0,0.0,1500,1500,0.0,0.0,40.0484515,-88.232807,0.0,0.0,0.0,0.0,0.0,0.0,0.0,0.0,0.0,0.0,0.0,0,0.0,0.0,0.0,0.0,90.0,60.0,60.0,90.3363494873,119.87550354,120.13014221190001,49.2119979858,16.0604038239,3.4000000954000003,0,2,25,1,69,6259
152,1530635525084,214084, RC,0,39.9586186,-88.445067899,0,0.0,0.0,0.0,0.0,0.0,0.00036786800000000004,0.0,0.0,0.0,0.0,0.0,0.0,0.0,1500,1500,0.0,0.0,40.0484515,-88.232807,0.0,0.0,0.0,0.0,0.0,0.0,0.0,0.0,0.0,0.0,0.0,0,0.0,0.0,0.0,-0.0007357360000000001,90.0,60.0,60.0,90.40000915530001,119.81184387209998,120.2574768066,49.2119979858,16.0604038239,3.4000000954000003,0,2,25,1,163,6261
153,1530635525135,214135, RC,0,39.9586186,-88.445067899,0,0.0,0.0,0.0,0.0,0.0,0.000275901,0.0,0.0,0.0,0.0,0.0,0.0,0.0,1500,1500,0.0,0.0,40.0484515,-88.232807,0.0,0.0,0.0,0.0,0.0,0.0,0.0,0.0,0.0,0.0,0.0,0,0.0,0.0,0.0,-0.000551802,90.0,60.0,60.0,90.40000915530001,120.0664901733,120.2574768066,49.2119979858,16.0604038239,3.4000000954000003,0,2,25,1,152,6262
154,1530635525185,214185, RC,0,39.9586186,-88.445067899,0,0.0,0.0,0.0,0.0,0.0,0.00018393400000000002,0.0,0.0,0.0,0.0,0.0,0.0,0.0,1500,1500,0.0,0.0,40.0484515,-88.232807,0.0,0.0,0.0,0.0,0.0,0.0,0.0,0.0,0.0,0.0,0.0,0,0.0,0.0,0.0,-0.00036786800000000004,90.0,60.0,60.0,90.3363494873,120.19381713870001,120.19381713870001,49.2119979858,16.0604038239,3.4000000954000003,0,2,25,1,537,6264
155,1530635525236,214236, RC,0,39.9586186,-88.445067899,0,0.0,0.0,0.0,0.0,0.0,0.00018393400000000002,0.0,0.0,0.0,0.0,0.0,0.0,0.0,1500,1500,0.0,0.0,40.0484515,-88.232807,0.0,0.0,0.0,0.0,0.0,0.0,0.0,0.0,0.0,0.0,0.0,0,0.0,0.0,0.0,-0.00036786800000000004,90.0,60.0,60.0,90.3363494873,120.19381713870001,120.19381713870001,49.2119979858,16.0604038239,3.4000000954000003,0,2,25,1,335,6265
156,1530635525287,214287, RC,0,39.9586186,-88.445067899,0,0.0,0.0,0.0,0.0,0.0,0.00018393400000000002,0.0,0.0,0.0,0.0,0.0,0.0,0.0,1500,1500,0.0,0.0,40.0484515,-88.232807,0.0,0.0,0.0,0.0,0.0,0.0,0.0,0.0,0.0,0.0,0.0,0,0.0,0.0,0.0,-0.00036786800000000004,90.0,60.0,60.0,90.40000915530001,120.19381713870001,120.13014221190001,49.2119979858,16.0604038239,3.4000000954000003,0,2,25,1,204,6266
157,1530635525337,214337, RC,0,39.9586186,-88.445067899,0,0.0,0.0,0.0,0.0,0.0,0.00018393400000000002,0.0,0.0,0.0,0.0,0.0,0.0,0.0,1500,1500,0.0,0.0,40.048450333299996,-88.2327983333,0.0,0.0,0.0,0.0,0.0,0.0,0.0,0.0,0.0,0.0,0.0,0,0.0,0.0,0.0,-0.00036786800000000004,90.0,60.0,60.0,90.3363494873,120.19381713870001,120.13014221190001,49.2119979858,16.0604038239,3.4000000954000003,0,2,25,1,142,6268
158,1530635525388,214388, RC,0,39.9586186,-88.445067899,0,0.0,0.0,0.0,0.0,0.0,0.00018393400000000002,0.0,0.0,0.0,0.0,0.0,0.0,0.0,1500,1500,0.0,0.0,40.048450333299996,-88.2327983333,0.0,0.0,0.0,0.0,0.0,0.0,0.0,0.0,0.0,0.0,0.0,0,0.0,0.0,0.0,-0.00036786800000000004,90.0,60.0,60.0,90.40000915530001,120.19381713870001,120.13014221190001,49.2119979858,16.0604038239,3.4000000954000003,0,2,25,1,179,6269
159,1530635525439,214439, RC,0,39.9586186,-88.445067899,0,0.0,0.0,0.0,0.0,0.0,0.00018393400000000002,0.0,0.0,0.0,0.0,0.0,0.0,0.0,1500,1500,0.0,0.0,40.048450333299996,-88.2327983333,0.0,0.0,0.0,0.0,0.0,0.0,0.0,0.0,0.0,0.0,0.0,0,0.0,0.0,0.0,-0.00036786800000000004,90.0,60.0,60.0,90.40000915530001,120.19381713870001,120.13014221190001,49.2119979858,16.0604038239,3.4000000954000003,0,2,25,1,192,6271
160,1530635525489,214489, RC,0,39.9586186,-88.445067899,0,0.0,0.0,0.0,0.0,0.0,0.0,0.0,0.0,0.0,0.0,0.0,0.0,0.0,1500,1500,0.0,0.0,40.048450333299996,-88.2327983333,0.0,0.0,0.0,0.0,0.0,0.0,0.0,0.0,0.0,0.0,0.0,0,0.0,0.0,0.0,0.0,90.0,60.0,60.0,90.40000915530001,120.19381713870001,120.19381713870001,49.2119979858,16.0604038239,3.4000000954000003,0,2,25,1,158,6272
161,1530635525540,214540, RC,0,39.9586186,-88.445067899,0,0.0,0.0,0.0,0.0,0.0,0.0,0.0,0.0,0.0,0.0,0.0,0.0,0.0,1500,1500,0.0,0.0,40.048450333299996,-88.2327983333,0.0,0.0,0.0,0.0,0.0,0.0,0.0,0.0,0.0,0.0,0.0,0,0.0,0.0,0.0,0.0,90.0,60.0,60.0,90.40000915530001,120.19381713870001,120.19381713870001,49.2119979858,16.0637779236,3.2899999619,0,2,25,1,86,6274
162,1530635525590,214590, RC,0,39.9586186,-88.445067899,0,0.0,0.0,0.0,0.0,0.0,0.0,0.0,0.0,0.0,0.0,0.0,0.0,0.0,1500,1500,0.0,0.0,40.048450333299996,-88.2327983333,0.0,0.0,0.0,0.0,0.0,0.0,0.0,0.0,0.0,0.0,0.0,0,0.0,0.0,0.0,0.0,90.0,60.0,60.0,90.40000915530001,120.19381713870001,120.19381713870001,49.2119979858,16.0637779236,3.2899999619,0,2,25,1,44,6275
163,1530635525641,214641, RC,0,39.9586186,-88.445067899,0,0.0,0.0,0.0,0.0,0.0,0.0,0.0,0.0,0.0,0.0,0.0,0.0,0.0,1500,1500,0.0,0.0,40.048450333299996,-88.2327983333,0.0,0.0,0.0,0.0,0.0,0.0,0.0,0.0,0.0,0.0,0.0,0,0.0,0.0,0.0,0.0,90.0,60.0,60.0,90.40000915530001,120.19381713870001,120.19381713870001,49.2119979858,16.0637779236,3.2899999619,0,2,25,1,9,6277
164,1530635525692,214692, RC,0,39.9586186,-88.445067899,0,0.0,0.0,0.0,0.0,0.0,0.0,0.0,0.0,0.0,0.0,0.0,0.0,0.0,1500,1500,0.0,0.0,40.048450333299996,-88.2327983333,0.0,0.0,0.0,0.0,0.0,0.0,0.0,0.0,0.0,0.0,0.0,0,0.0,0.0,0.0,0.0,90.0,60.0,60.0,90.40000915530001,120.19381713870001,120.19381713870001,49.2119979858,16.0637779236,3.2899999619,0,2,25,1,7,6278
