,(0)linux time (ms),    (1)uptime  (ms),      (2)drive mode,(3)mpc step counter,(4)mpc origin latitude  (deg),(5)mpc origin longitude  (deg),(6)closest trajectory point index to robot,(7)mpc error x (W;E)  (m),(8)mpc error y (W;E)  (m),(9)abs mpc error (m),(10)input [x] for mhe (m),(11)input [y] for mhe (m),(12)input [speed] for mhe (m/s),(13)input [vyaw] for mhe (rad/s),(14)mhe output x  (m),(15)mhe output y  (m),(16)mhe output speed  (m/s),(17)mhe output yaw  (rad),(18)mpc reference heading (rad),(19)mpc turn rate command (rad/s),(20)turn rate command as PWM,(21)throttle command as PWM,(22)primary gps latitude (deg),(23)primary gps longitude (deg),(24)secondary gps latitude  (deg),(25)secondary gps longitude (deg),(26)accelerometer x (m/s^2),(27)accelerometer y (m/s^2),(28)accelerometer z (m/s^2),(29)gyro yaw rate (rad/s),(30)gyro pitch rate   (rad/s),(31)gyro roll rate (rad/s),      (32)yaw (rad),  (33)pitch   (rad),     (34)roll (rad),(35)sonar1 measurement (m),(36)ultrasonic sensor measurement (m),(37)primary gps time (s),(38)normalized turn rate command,(39)normalized throttle command,(40)speed calculation from encoder left (m/s),(41)speed calculation from encoder right (m/s),(42)front gimbal target angle (degrees from straight down),(43)left gimbal target angle  (degrees from straight down),(44)right gimbal target angle  (degrees from straight down),(45)front gimbal measured angle  (degrees from straight down),(46)left gimbal measured angle    (degrees from straight down),(47)right gimbal measured angle  (degrees from straight down),(48)internal temperature (C),(49)battery voltage (V),(50)primary gps type,(51)secondary gps type,    (52)MPC R value, (53)MPC Q[0] value,Unnamed: 54,weed_num,start
0,1530629511870,1424870, RC,0,39.9586186,-88.445067899,0,0.0,0.0,0.0,0.0,0.0,0.0,0.0,0.0,0.0,0.0,0.0,0.0,0.0,1500,1500,0.0,0.0,40.0483131667,-88.2330986667,0.0,0.0,0.0,0.0,0.0,0.0,0.0,0.0,0.0,0.0,0.0,0,0.0,0.0,0.0,0.0,90.0,90.0,90.0,89.3814163208,89.0631027222,89.44507598879999,33.6100006104,15.454788208,3.5700001717000003,0,2,25,1,26,8
1,1530629511920,1424920, RC,0,39.9586186,-88.445067899,0,0.0,0.0,0.0,0.0,0.0,0.0,0.0,0.0,0.0,0.0,0.0,0.0,0.0,1500,1500,0.0,0.0,40.0483131667,-88.2330986667,0.0,0.0,0.0,0.0,0.0,0.0,0.0,0.0,0.0,0.0,0.0,0,0.0,0.0,0.0,0.0,90.0,90.0,90.0,89.3814163208,89.0631027222,89.44507598879999,33.6100006104,15.454788208,3.5700001717000003,0,2,25,1,32,11
2,1530629511970,1424970, RC,0,39.9586186,-88.445067899,0,0.0,0.0,0.0,0.0,0.0,0.0,0.0,0.0,0.0,0.0,0.0,0.0,0.0,1500,1500,0.0,0.0,40.0483131667,-88.2330986667,0.0,0.0,0.0,0.0,0.0,0.0,0.0,0.0,0.0,0.0,0.0,0,0.0,0.0,0.0,0.0,90.0,90.0,90.0,89.3814163208,89.0631027222,89.44507598879999,33.6100006104,15.454788208,3.5700001717000003,0,2,25,1,29,13
3,1530629512021,1425021, RC,0,39.9586186,-88.445067899,0,0.0,0.0,0.0,0.0,0.0,0.0,0.0,0.0,0.0,0.0,0.0,0.0,0.0,1500,1500,0.0,0.0,40.0483131667,-88.2330986667,0.0,0.0,0.0,0.0,0.0,0.0,0.0,0.0,0.0,0.0,0.0,0,0.0,0.0,0.0,0.0,90.0,90.0,90.0,89.3814163208,89.0631027222,89.44507598879999,33.6100006104,15.454788208,3.5700001717000003,0,2,25,1,31,15
4,1530629512071,1425071, RC,0,39.9586186,-88.445067899,0,0.0,0.0,0.0,0.0,0.0,0.0,0.0,0.0,0.0,0.0,0.0,0.0,0.0,1500,1500,0.0,0.0,40.0483131667,-88.2330986667,0.0,0.0,0.0,0.0,0.0,0.0,0.0,0.0,0.0,0.0,0.0,0,0.0,0.0,0.0,0.0,90.0,90.0,90.0,89.3814163208,89.0631027222,89.44507598879999,33.6100006104,15.454788208,3.5700001717000003,0,2,25,1,40,17
5,1530629512121,1425121, RC,0,39.9586186,-88.445067899,0,0.0,0.0,0.0,0.0,0.0,0.0,0.0,0.0,0.0,0.0,0.0,0.0,0.0,1500,1500,0.0,0.0,40.0483131667,-88.2330986667,0.0,0.0,0.0,0.0,0.0,0.0,0.0,0.0,0.0,0.0,0.0,0,0.0,0.0,0.0,0.0,90.0,90.0,90.0,89.3814163208,89.0631027222,89.44507598879999,33.6100006104,15.454788208,3.5700001717000003,0,2,25,1,46,20
6,1530629512172,1425172, RC,0,39.9586186,-88.445067899,0,0.0,0.0,0.0,0.0,0.0,0.0,0.0,0.0,0.0,0.0,0.0,0.0,0.0,1500,1500,0.0,0.0,40.0483131667,-88.2330986667,0.0,0.0,0.0,0.0,0.0,0.0,0.0,0.0,0.0,0.0,0.0,0,0.0,0.0,0.0,0.0,90.0,90.0,90.0,89.3814163208,89.0631027222,89.44507598879999,33.6100006104,15.454788208,3.5700001717000003,0,2,25,1,44,22
7,1530629512222,1425222, RC,0,39.9586186,-88.445067899,0,0.0,0.0,0.0,0.0,0.0,0.0,0.0,0.0,0.0,0.0,0.0,0.0,0.0,1500,1500,0.0,0.0,40.0483131667,-88.2330986667,0.0,0.0,0.0,0.0,0.0,0.0,0.0,0.0,0.0,0.0,0.0,0,0.0,0.0,0.0,0.0,90.0,90.0,90.0,89.3814163208,89.0631027222,89.44507598879999,33.6100006104,15.454788208,3.5700001717000003,0,2,25,1,46,24
8,1530629512272,1425272, RC,0,39.9586186,-88.445067899,0,0.0,0.0,0.0,0.0,0.0,0.0,0.0,0.0,0.0,0.0,0.0,0.0,0.0,1500,1500,0.0,0.0,40.0483131667,-88.2330986667,0.0,0.0,0.0,0.0,0.0,0.0,0.0,0.0,0.0,0.0,0.0,0,0.0,0.0,0.0,0.0,90.0,90.0,90.0,89.3814163208,89.0631027222,89.44507598879999,33.6100006104,15.454788208,3.5700001717000003,0,2,25,1,48,27
9,1530629512323,1425323, RC,0,39.9586186,-88.445067899,0,0.0,0.0,0.0,0.0,0.0,0.0,0.0,0.0,0.0,0.0,0.0,0.0,0.0,1500,1500,0.0,0.0,40.0483131667,-88.2330986667,0.0,0.0,0.0,0.0,0.0,0.0,0.0,0.0,0.0,0.0,0.0,0,0.0,0.0,0.0,0.0,90.0,90.0,90.0,89.3814163208,89.0631027222,89.3814163208,33.6100006104,15.454788208,3.5700001717000003,0,2,25,1,37,29
10,1530629512373,1425373, RC,0,39.9586186,-88.445067899,0,0.0,0.0,0.0,0.0,0.0,0.0,0.0,0.0,0.0,0.0,0.0,0.0,0.0,1500,1500,0.0,0.0,40.0483131667,-88.2330986667,0.0,0.0,0.0,0.0,0.0,0.0,0.0,0.0,0.0,0.0,0.0,0,0.0,0.0,0.0,0.0,90.0,90.0,90.0,89.3814163208,89.0631027222,89.3814163208,33.6100006104,15.454788208,3.5700001717000003,0,2,25,1,33,31
11,1530629512423,1425423, RC,0,39.9586186,-88.445067899,0,0.0,0.0,0.0,0.0,0.0,0.0,0.0,0.0,0.0,0.0,0.0,0.0,0.0,1500,1500,0.0,0.0,40.0483131667,-88.2330986667,0.0,0.0,0.0,0.0,0.0,0.0,0.0,0.0,0.0,0.0,0.0,0,0.0,0.0,0.0,0.0,90.0,90.0,90.0,89.3814163208,89.0631027222,89.3814163208,33.6100006104,15.454788208,3.5700001717000003,0,2,25,1,42,33
12,1530629512474,1425474, RC,0,39.9586186,-88.445067899,0,0.0,0.0,0.0,0.0,0.0,0.0,0.0,0.0,0.0,0.0,0.0,0.0,0.0,1500,1500,0.0,0.0,40.0483131667,-88.2330986667,0.0,0.0,0.0,0.0,0.0,0.0,0.0,0.0,0.0,0.0,0.0,0,0.0,0.0,0.0,0.0,90.0,90.0,90.0,89.3814163208,89.0631027222,89.3814163208,33.6100006104,15.454788208,3.5700001717000003,0,2,25,1,39,36
13,1530629512524,1425524, RC,0,39.9586186,-88.445067899,0,0.0,0.0,0.0,0.0,0.0,0.0,0.0,0.0,0.0,0.0,0.0,0.0,0.0,1500,1500,0.0,0.0,40.0483131667,-88.2330986667,0.0,0.0,0.0,0.0,0.0,0.0,0.0,0.0,0.0,0.0,0.0,0,0.0,0.0,0.0,0.0,90.0,90.0,90.0,89.3814163208,89.0631027222,89.3814163208,33.6100006104,15.454788208,3.5700001717000003,0,2,25,1,38,38
14,1530629512574,1425574, RC,0,39.9586186,-88.445067899,0,0.0,0.0,0.0,0.0,0.0,0.0,0.0,0.0,0.0,0.0,0.0,0.0,0.0,1500,1500,0.0,0.0,40.0483131667,-88.2330986667,0.0,0.0,0.0,0.0,0.0,0.0,0.0,0.0,0.0,0.0,0.0,0,0.0,0.0,0.0,0.0,90.0,90.0,90.0,89.3814163208,89.0631027222,89.3814163208,33.6100006104,15.454788208,3.5700001717000003,0,2,25,1,38,40
15,1530629512624,1425624, RC,0,39.9586186,-88.445067899,0,0.0,0.0,0.0,0.0,0.0,0.0,0.0,0.0,0.0,0.0,0.0,0.0,0.0,1500,1500,0.0,0.0,40.0483131667,-88.2330986667,0.0,0.0,0.0,0.0,0.0,0.0,0.0,0.0,0.0,0.0,0.0,0,0.0,0.0,0.0,0.0,90.0,90.0,90.0,89.3814163208,89.0631027222,89.3814163208,33.6100006104,15.454788208,3.5700001717000003,0,2,25,1,41,43
16,1530629512675,1425675, RC,0,39.9586186,-88.445067899,0,0.0,0.0,0.0,0.0,0.0,0.0,0.0,0.0,0.0,0.0,0.0,0.0,0.0,1500,1500,0.0,0.0,40.0483131667,-88.2330986667,0.0,0.0,0.0,0.0,0.0,0.0,0.0,0.0,0.0,0.0,0.0,0,0.0,0.0,0.0,0.0,90.0,90.0,90.0,89.3814163208,89.0631027222,89.3814163208,33.6100006104,15.454788208,3.5700001717000003,0,2,25,1,39,45
17,1530629512725,1425725, RC,0,39.9586186,-88.445067899,0,0.0,0.0,0.0,0.0,0.0,0.0,0.0,0.0,0.0,0.0,0.0,0.0,0.0,1500,1500,0.0,0.0,40.0483131667,-88.2330986667,0.0,0.0,0.0,0.0,0.0,0.0,0.0,0.0,0.0,0.0,0.0,0,0.0,0.0,0.0,0.0,90.0,90.0,90.0,89.3814163208,89.0631027222,89.3814163208,33.6100006104,15.454788208,3.5700001717000003,0,2,25,1,35,47
18,1530629512775,1425775, RC,0,39.9586186,-88.445067899,0,0.0,0.0,0.0,0.0,0.0,0.0,0.0,0.0,0.0,0.0,0.0,0.0,0.0,1500,1500,0.0,0.0,40.0483131667,-88.2330986667,0.0,0.0,0.0,0.0,0.0,0.0,0.0,0.0,0.0,0.0,0.0,0,0.0,0.0,0.0,0.0,90.0,90.0,90.0,89.3814163208,89.0631027222,89.3814163208,33.6100006104,15.454788208,3.5700001717000003,0,2,25,1,34,50
19,1530629512826,1425826, RC,0,39.9586186,-88.445067899,0,0.0,0.0,0.0,0.0,0.0,0.0,0.0,0.0,0.0,0.0,0.0,0.0,0.0,1500,1500,0.0,0.0,40.0483131667,-88.2330986667,0.0,0.0,0.0,0.0,0.0,0.0,0.0,0.0,0.0,0.0,0.0,0,0.0,0.0,0.0,0.0,90.0,90.0,90.0,89.3814163208,89.0631027222,89.3814163208,33.6100006104,15.450200080899998,3.2899999619,0,2,25,1,36,52
20,1530629512876,1425876, RC,0,39.9586186,-88.445067899,0,0.0,0.0,0.0,0.0,0.0,0.0,0.0,0.0,0.0,0.0,0.0,0.0,0.0,1500,1500,0.0,0.0,40.0483123333,-88.2330996667,0.0,0.0,0.0,0.0,0.0,0.0,0.0,0.0,0.0,0.0,0.0,0,0.0,0.0,0.0,0.0,90.0,90.0,90.0,89.3814163208,89.0631027222,89.3814163208,33.6100006104,15.450200080899998,3.2899999619,0,2,25,1,36,54
21,1530629512926,1425926, RC,0,39.9586186,-88.445067899,0,0.0,0.0,0.0,0.0,0.0,0.0,0.0,0.0,0.0,0.0,0.0,0.0,0.0,1500,1500,0.0,0.0,40.0483123333,-88.2330996667,0.0,0.0,0.0,0.0,0.0,0.0,0.0,0.0,0.0,0.0,0.0,0,0.0,0.0,0.0,0.0,90.0,90.0,90.0,89.3814163208,89.0631027222,89.3814163208,33.6100006104,15.450200080899998,3.2899999619,0,2,25,1,31,57
22,1530629512977,1425977, RC,0,39.9586186,-88.445067899,0,0.0,0.0,0.0,0.0,0.0,0.0,0.0,0.0,0.0,0.0,0.0,0.0,0.0,1500,1500,0.0,0.0,40.0483123333,-88.2330996667,0.0,0.0,0.0,0.0,0.0,0.0,0.0,0.0,0.0,0.0,0.0,0,0.0,0.0,0.0,0.0,90.0,90.0,90.0,89.3814163208,89.0631027222,89.3814163208,33.6100006104,15.450200080899998,3.2899999619,0,2,25,1,32,59
23,1530629513027,1426027, RC,0,39.9586186,-88.445067899,0,0.0,0.0,0.0,0.0,0.0,0.0,0.0,0.0,0.0,0.0,0.0,0.0,0.0,1500,1500,0.0,0.0,40.0483123333,-88.2330996667,0.0,0.0,0.0,0.0,0.0,0.0,0.0,0.0,0.0,0.0,0.0,0,0.0,0.0,0.0,0.0,90.0,90.0,90.0,89.3814163208,89.0631027222,89.3814163208,33.6100006104,15.450200080899998,3.2899999619,0,2,25,1,32,61
24,1530629513077,1426077, RC,0,39.9586186,-88.445067899,0,0.0,0.0,0.0,0.0,0.0,0.0,0.0,0.0,0.0,0.0,0.0,0.0,0.0,1500,1500,0.0,0.0,40.0483123333,-88.2330996667,0.0,0.0,0.0,0.0,0.0,0.0,0.0,0.0,0.0,0.0,0.0,0,0.0,0.0,0.0,0.0,90.0,90.0,90.0,89.3814163208,89.0631027222,89.3814163208,33.6100006104,15.450200080899998,3.2899999619,0,2,25,1,35,64
25,1530629513128,1426128, RC,0,39.9586186,-88.445067899,0,0.0,0.0,0.0,0.0,0.0,0.0,0.0,0.0,0.0,0.0,0.0,0.0,0.0,1500,1500,0.0,0.0,40.0483123333,-88.2330996667,0.0,0.0,0.0,0.0,0.0,0.0,0.0,0.0,0.0,0.0,0.0,0,0.0,0.0,0.0,0.0,90.0,90.0,90.0,89.3814163208,89.0631027222,89.3814163208,33.6100006104,15.450200080899998,3.2899999619,0,2,25,1,33,66
26,1530629513178,1426178, RC,0,39.9586186,-88.445067899,0,0.0,0.0,0.0,0.0,0.0,0.0,0.0,0.0,0.0,0.0,0.0,0.0,0.0,1500,1500,0.0,0.0,40.0483123333,-88.2330996667,0.0,0.0,0.0,0.0,0.0,0.0,0.0,0.0,0.0,0.0,0.0,0,0.0,0.0,0.0,0.0,90.0,90.0,90.0,89.3814163208,89.0631027222,89.3814163208,33.6100006104,15.450200080899998,3.2899999619,0,2,25,1,38,68
27,1530629513228,1426228, RC,0,39.9586186,-88.445067899,0,0.0,0.0,0.0,0.0,0.0,0.0,0.0,0.0,0.0,0.0,0.0,0.0,0.0,1500,1500,0.0,0.0,40.0483123333,-88.2330996667,0.0,0.0,0.0,0.0,0.0,0.0,0.0,0.0,0.0,0.0,0.0,0,0.0,0.0,0.0,0.0,90.0,90.0,90.0,89.3814163208,89.0631027222,89.3814163208,33.6100006104,15.450200080899998,3.2899999619,0,2,25,1,33,71
28,1530629513279,1426279, RC,0,39.9586186,-88.445067899,0,0.0,0.0,0.0,0.0,0.0,0.0,0.0,0.0,0.0,0.0,0.0,0.0,0.0,1500,1500,0.0,0.0,40.0483123333,-88.2330996667,0.0,0.0,0.0,0.0,0.0,0.0,0.0,0.0,0.0,0.0,0.0,0,0.0,0.0,0.0,0.0,90.0,90.0,90.0,89.3814163208,89.0631027222,89.3814163208,33.6100006104,15.450200080899998,3.2899999619,0,2,25,1,33,73
29,1530629513329,1426329, RC,0,39.9586186,-88.445067899,0,0.0,0.0,0.0,0.0,0.0,0.0,0.0,0.0,0.0,0.0,0.0,0.0,0.0,1500,1500,0.0,0.0,40.0483123333,-88.2330996667,0.0,0.0,0.0,0.0,0.0,0.0,0.0,0.0,0.0,0.0,0.0,0,0.0,0.0,0.0,0.0,90.0,90.0,90.0,89.3814163208,89.0631027222,89.3814163208,33.6100006104,15.450200080899998,3.2899999619,0,2,25,1,37,75
30,1530629513379,1426379, RC,0,39.9586186,-88.445067899,0,0.0,0.0,0.0,0.0,0.0,0.0,0.0,0.0,0.0,0.0,0.0,0.0,0.0,1500,1500,0.0,0.0,40.0483123333,-88.2330996667,0.0,0.0,0.0,0.0,0.0,0.0,0.0,0.0,0.0,0.0,0.0,0,0.0,0.0,0.0,0.0,90.0,90.0,90.0,89.3814163208,89.0631027222,89.3814163208,33.6100006104,15.450200080899998,3.2899999619,0,2,25,1,31,78
31,1530629513430,1426430, RC,0,39.9586186,-88.445067899,0,0.0,0.0,0.0,0.0,0.0,0.0,0.0,0.0,0.0,0.0,0.0,0.0,0.0,1500,1500,0.0,0.0,40.0483123333,-88.2330996667,0.0,0.0,0.0,0.0,0.0,0.0,0.0,0.0,0.0,0.0,0.0,0,0.0,0.0,0.0,0.0,90.0,90.0,90.0,89.3814163208,89.0631027222,89.3814163208,33.6100006104,15.450200080899998,3.2899999619,0,2,25,1,36,80
32,1530629513480,1426480, RC,0,39.9586186,-88.445067899,0,0.0,0.0,0.0,0.0,0.0,0.0,0.0,0.0,0.0,0.0,0.0,0.0,0.0,1500,1500,0.0,0.0,40.0483123333,-88.2330996667,0.0,0.0,0.0,0.0,0.0,0.0,0.0,0.0,0.0,0.0,0.0,0,0.0,0.0,0.0,0.0,90.0,90.0,90.0,89.3814163208,89.0631027222,89.3814163208,33.6100006104,15.450200080899998,3.2899999619,0,2,25,1,42,82
33,1530629513530,1426530, RC,0,39.9586186,-88.445067899,0,0.0,0.0,0.0,0.0,0.0,0.0,0.0,0.0,0.0,0.0,0.0,0.0,0.0,1500,1500,0.0,0.0,40.0483123333,-88.2330996667,0.0,0.0,0.0,0.0,0.0,0.0,0.0,0.0,0.0,0.0,0.0,0,0.0,0.0,0.0,0.0,90.0,90.0,90.0,89.3814163208,89.0631027222,89.3814163208,33.6100006104,15.450200080899998,3.2899999619,0,2,25,1,35,85
34,1530629513581,1426581, RC,0,39.9586186,-88.445067899,0,0.0,0.0,0.0,0.0,0.0,0.0,0.0,0.0,0.0,0.0,0.0,0.0,0.0,1500,1500,0.0,0.0,40.0483123333,-88.2330996667,0.0,0.0,0.0,0.0,0.0,0.0,0.0,0.0,0.0,0.0,0.0,0,0.0,0.0,0.0,0.0,90.0,90.0,90.0,89.3814163208,89.0631027222,89.3814163208,33.6100006104,15.450200080899998,3.2899999619,0,2,25,1,35,87
35,1530629513631,1426631, RC,0,39.9586186,-88.445067899,0,0.0,0.0,0.0,0.0,0.0,0.0,0.0,0.0,0.0,0.0,0.0,0.0,0.0,1500,1500,0.0,0.0,40.0483123333,-88.2330996667,0.0,0.0,0.0,0.0,0.0,0.0,0.0,0.0,0.0,0.0,0.0,0,0.0,0.0,0.0,0.0,90.0,90.0,90.0,89.3814163208,89.0631027222,89.3814163208,33.6100006104,15.450200080899998,3.2899999619,0,2,25,1,32,89
36,1530629513681,1426681, RC,0,39.9586186,-88.445067899,0,0.0,0.0,0.0,0.0,0.0,0.0,0.0,0.0,0.0,0.0,0.0,0.0,0.0,1500,1500,0.0,0.0,40.0483123333,-88.2330996667,0.0,0.0,0.0,0.0,0.0,0.0,0.0,0.0,0.0,0.0,0.0,0,0.0,0.0,0.0,0.0,90.0,90.0,90.0,89.3814163208,89.0631027222,89.3814163208,33.6100006104,15.450200080899998,3.2899999619,0,2,25,1,39,92
37,1530629513732,1426732, RC,0,39.9586186,-88.445067899,0,0.0,0.0,0.0,0.0,0.0,0.0,0.0,0.0,0.0,0.0,0.0,0.0,0.0,1500,1500,0.0,0.0,40.0483123333,-88.2330996667,0.0,0.0,0.0,0.0,0.0,0.0,0.0,0.0,0.0,0.0,0.0,0,0.0,0.0,0.0,0.0,90.0,90.0,90.0,89.3814163208,89.0631027222,89.3814163208,33.6100006104,15.450200080899998,3.2899999619,0,2,25,1,32,94
38,1530629513782,1426782, RC,0,39.9586186,-88.445067899,0,0.0,0.0,0.0,0.0,0.0,0.0,0.0,0.0,0.0,0.0,0.0,0.0,0.0,1500,1500,0.0,0.0,40.0483123333,-88.2330996667,0.0,0.0,0.0,0.0,0.0,0.0,0.0,0.0,0.0,0.0,0.0,0,0.0,0.0,0.0,0.0,90.0,90.0,90.0,89.3814163208,89.0631027222,89.3814163208,33.6100006104,15.450200080899998,3.2899999619,0,2,25,1,35,96
39,1530629513832,1426832, RC,0,39.9586186,-88.445067899,0,0.0,0.0,0.0,0.0,0.0,0.0,0.0,0.0,0.0,0.0,0.0,0.0,0.0,1500,1500,0.0,0.0,40.0483123333,-88.2330996667,0.0,0.0,0.0,0.0,0.0,0.0,0.0,0.0,0.0,0.0,0.0,0,0.0,0.0,0.0,0.0,90.0,88.0,90.0,89.44507598879999,89.0631027222,89.3814163208,33.6100006104,15.450599670399999,3.4600000381,0,2,25,1,38,99
40,1530629513883,1426883, RC,0,39.9586186,-88.445067899,0,0.0,0.0,0.0,0.0,0.0,0.0,0.0,0.0,0.0,0.0,0.0,0.0,0.0,1500,1500,0.0,0.0,40.0483118333,-88.2331005,0.0,0.0,0.0,0.0,0.0,0.0,0.0,0.0,0.0,0.0,0.0,0,0.0,0.0,0.0,0.0,90.0,88.0,90.0,89.44507598879999,89.44507598879999,89.3814163208,33.6100006104,15.450599670399999,3.4600000381,0,2,25,1,38,101
41,1530629513933,1426933, RC,0,39.9586186,-88.445067899,0,0.0,0.0,0.0,0.0,0.0,0.0,0.0,0.0,0.0,0.0,0.0,0.0,0.0,1500,1500,0.0,0.0,40.0483118333,-88.2331005,0.0,0.0,0.0,0.0,0.0,0.0,0.0,0.0,0.0,0.0,0.0,0,0.0,0.0,0.0,0.0,90.0,84.0,90.0,89.44507598879999,91.67324829100001,89.3814163208,33.6100006104,15.450599670399999,3.4600000381,0,2,25,1,33,103
42,1530629513983,1426983, RC,0,39.9586186,-88.445067899,0,0.0,0.0,0.0,0.0,0.0,0.0,0.0,0.0,0.0,0.0,0.0,0.0,0.0,1500,1500,0.0,0.0,40.0483118333,-88.2331005,0.0,0.0,0.0,0.0,0.0,0.0,0.0,0.0,0.0,0.0,0.0,0,0.0,0.0,0.0,0.0,90.0,84.0,90.0,89.44507598879999,92.30986785889999,89.3814163208,33.6100006104,15.450599670399999,3.4600000381,0,2,25,1,34,106
43,1530629514034,1427034, RC,0,39.9586186,-88.445067899,0,0.0,0.0,0.0,0.0,0.0,0.0,0.0,0.0,0.0,0.0,0.0,0.0,0.0,1500,1500,0.0,0.0,40.0483118333,-88.2331005,0.0,0.0,0.0,0.0,0.0,0.0,0.0,0.0,0.0,0.0,0.0,0,0.0,0.0,0.0,0.0,90.0,73.0,90.0,89.44507598879999,94.3470458984,89.3814163208,33.6100006104,15.450599670399999,3.4600000381,0,2,25,1,35,108
44,1530629514084,1427084, RC,0,39.9586186,-88.445067899,0,0.0,0.0,0.0,0.0,0.0,0.0,0.0,0.0,0.0,0.0,0.0,0.0,0.0,1500,1500,0.0,0.0,40.0483118333,-88.2331005,0.0,0.0,0.0,0.0,0.0,0.0,0.0,0.0,0.0,0.0,0.0,0,0.0,0.0,0.0,0.0,90.0,73.0,90.0,89.44507598879999,97.2118453979,89.3814163208,33.6100006104,15.450599670399999,3.4600000381,0,2,25,1,33,110
45,1530629514135,1427135, RC,0,39.9586186,-88.445067899,0,0.0,0.0,0.0,0.0,0.0,0.0,0.0,0.0,0.0,0.0,0.0,0.0,0.0,1500,1500,0.0,0.0,40.0483118333,-88.2331005,0.0,0.0,0.0,0.0,0.0,0.0,0.0,0.0,0.0,0.0,0.0,0,0.0,0.0,0.0,0.0,90.0,73.0,90.0,89.44507598879999,106.6974716187,89.3814163208,33.6100006104,15.450599670399999,3.4600000381,0,2,25,1,30,113
46,1530629514185,1427185, RC,0,39.9586186,-88.445067899,0,0.0,0.0,0.0,0.0,0.0,0.0,0.0,0.0,0.0,0.0,0.0,0.0,0.0,1500,1500,0.0,0.0,40.0483118333,-88.2331005,0.0,0.0,0.0,0.0,0.0,0.0,0.0,0.0,0.0,0.0,0.0,0,0.0,0.0,0.0,0.0,90.0,73.0,90.0,89.44507598879999,108.8619766235,89.3814163208,33.6100006104,15.450599670399999,3.4600000381,0,2,25,1,37,115
47,1530629514236,1427236, RC,0,39.9586186,-88.445067899,0,0.0,0.0,0.0,0.0,0.0,0.0,0.0,0.0,0.0,0.0,0.0,0.0,0.0,1500,1500,0.0,0.0,40.0483118333,-88.2331005,0.0,0.0,0.0,0.0,0.0,0.0,0.0,0.0,0.0,0.0,0.0,0,0.0,0.0,0.0,0.0,90.0,72.0,90.0,89.44507598879999,105.233253479,89.3814163208,33.6100006104,15.450599670399999,3.4600000381,0,2,25,1,35,117
48,1530629514287,1427287, RC,0,39.9586186,-88.445067899,0,0.0,0.0,0.0,0.0,0.0,0.0,0.0,0.0,0.0,0.0,0.0,0.0,0.0,1500,1500,0.0,0.0,40.0483118333,-88.2331005,0.0,0.0,0.0,0.0,0.0,0.0,0.0,0.0,0.0,0.0,0.0,0,0.0,0.0,0.0,0.0,90.0,72.0,90.0,89.44507598879999,105.233253479,89.3814163208,33.6100006104,15.450599670399999,3.4600000381,0,2,25,1,31,120
49,1530629514337,1427337, RC,0,39.9586186,-88.445067899,0,0.0,0.0,0.0,0.0,0.0,0.0,0.0,0.0,0.0,0.0,0.0,0.0,0.0,1500,1500,0.0,0.0,40.0483118333,-88.2331005,0.0,0.0,0.0,0.0,0.0,0.0,0.0,0.0,0.0,0.0,0.0,0,0.0,0.0,0.0,0.0,90.0,70.0,90.0,89.44507598879999,106.888458252,89.3814163208,33.6100006104,15.450599670399999,3.4600000381,0,2,25,1,30,122
50,1530629514388,1427388, RC,0,39.9586186,-88.445067899,0,0.0,0.0,0.0,0.0,0.0,0.0,0.0,0.0,0.0,0.0,0.0,0.0,0.0,1500,1500,0.0,0.0,40.0483118333,-88.2331005,0.0,0.0,0.0,0.0,0.0,0.0,0.0,0.0,0.0,0.0,0.0,0,0.0,0.0,0.0,0.0,90.0,70.0,90.0,89.44507598879999,107.33409118649999,89.3814163208,33.6100006104,15.450599670399999,3.4600000381,0,2,25,1,38,124
51,1530629514438,1427438, RC,0,39.9586186,-88.445067899,0,0.0,0.0,0.0,0.0,0.0,0.0,0.0,0.0,0.0,0.0,0.0,0.0,0.0,1500,1500,0.0,0.0,40.0483118333,-88.2331005,0.0,0.0,0.0,0.0,0.0,0.0,0.0,0.0,0.0,0.0,0.0,0,0.0,0.0,0.0,0.0,90.0,70.0,90.0,89.44507598879999,108.9256439209,89.3814163208,33.6100006104,15.450599670399999,3.4600000381,0,2,25,1,36,127
52,1530629514489,1427489, RC,0,39.9586186,-88.445067899,0,0.0,0.0,0.0,0.0,0.0,0.0,0.0,0.0,0.0,0.0,0.0,0.0,0.0,1500,1500,0.0,0.0,40.0483118333,-88.2331005,0.0,0.0,0.0,0.0,0.0,0.0,0.0,0.0,0.0,0.0,0.0,0,0.0,0.0,0.0,0.0,90.0,70.0,90.0,89.44507598879999,109.4986038208,89.3814163208,33.6100006104,15.450599670399999,3.4600000381,0,2,25,1,35,129
53,1530629514539,1427539, RC,0,39.9586186,-88.445067899,0,0.0,0.0,0.0,0.0,0.0,0.0,0.0,0.0,0.0,0.0,0.0,0.0,0.0,1500,1500,0.0,0.0,40.0483118333,-88.2331005,0.0,0.0,0.0,0.0,0.0,0.0,0.0,0.0,0.0,0.0,0.0,0,0.0,0.0,0.0,0.0,90.0,69.0,90.0,89.44507598879999,109.37127685549999,89.3814163208,33.6100006104,15.450599670399999,3.4600000381,0,2,25,1,33,131
54,1530629514590,1427590, RC,0,39.9586186,-88.445067899,0,0.0,0.0,0.0,0.0,0.0,0.0,0.0,0.0,0.0,0.0,0.0,0.0,0.0,1500,1500,0.0,0.0,40.0483118333,-88.2331005,0.0,0.0,0.0,0.0,0.0,0.0,0.0,0.0,0.0,0.0,0.0,0,0.0,0.0,0.0,0.0,90.0,69.0,90.0,89.44507598879999,109.37127685549999,89.3814163208,33.6100006104,15.450599670399999,3.4600000381,0,2,25,1,33,134
55,1530629514640,1427640, RC,0,39.9586186,-88.445067899,0,0.0,0.0,0.0,0.0,0.0,0.0,0.0,0.0,0.0,0.0,0.0,0.0,0.0,1500,1500,0.0,0.0,40.0483118333,-88.2331005,0.0,0.0,0.0,0.0,0.0,0.0,0.0,0.0,0.0,0.0,0.0,0,0.0,0.0,0.0,0.0,90.0,67.0,90.0,89.44507598879999,110.0715560913,89.3814163208,33.6100006104,15.450599670399999,3.4600000381,0,2,25,1,32,136
56,1530629514691,1427691, RC,0,39.9586186,-88.445067899,0,0.0,0.0,0.0,0.0,0.0,0.0,0.0,0.0,0.0,0.0,0.0,0.0,0.0,1500,1500,0.0,0.0,40.0483118333,-88.2331005,0.0,0.0,0.0,0.0,0.0,0.0,0.0,0.0,0.0,0.0,0.0,0,0.0,0.0,0.0,0.0,90.0,67.0,90.0,89.44507598879999,110.8991622925,89.3814163208,33.6100006104,15.450599670399999,3.4600000381,0,2,25,1,33,139
57,1530629514741,1427741, RC,0,39.9586186,-88.445067899,0,0.0,0.0,0.0,0.0,0.0,0.0,0.0,0.0,0.0,0.0,0.0,0.0,0.0,1500,1500,0.0,0.0,40.0483118333,-88.2331005,0.0,0.0,0.0,0.0,0.0,0.0,0.0,0.0,0.0,0.0,0.0,0,0.0,0.0,0.0,0.0,90.0,67.0,90.0,89.44507598879999,111.726776123,89.3814163208,33.6100006104,15.450599670399999,3.4600000381,0,2,25,1,36,141
58,1530629514792,1427792, RC,0,39.9586186,-88.445067899,0,0.0,0.0,0.0,0.0,0.0,0.0,0.0,0.0,0.0,0.0,0.0,0.0,0.0,1500,1500,0.0,0.0,40.0483118333,-88.2331005,0.0,0.0,0.0,0.0,0.0,0.0,0.0,0.0,0.0,0.0,0.0,0,0.0,0.0,0.0,0.0,90.0,67.0,90.0,89.44507598879999,111.85409545899999,89.3814163208,33.6100006104,15.450599670399999,3.4600000381,0,2,25,1,35,143
59,1530629514843,1427843, RC,0,39.9586186,-88.445067899,0,0.0,0.0,0.0,0.0,0.0,0.0,0.0,0.0,0.0,0.0,0.0,0.0,0.0,1500,1500,0.0,0.0,40.0483118333,-88.2331025,0.0,0.0,0.0,0.0,0.0,0.0,0.0,0.0,0.0,0.0,0.0,0,0.0,0.0,0.0,0.0,90.0,67.0,90.0,89.44507598879999,111.7904281616,89.3814163208,33.6100006104,15.4459018707,2.9000000954000003,0,2,25,1,35,146
60,1530629514893,1427893, RC,0,39.9586186,-88.445067899,0,0.0,0.0,0.0,0.0,0.0,0.0,0.0,0.0,0.0,0.0,0.0,0.0,0.0,1500,1500,0.0,0.0,40.0483118333,-88.2331025,0.0,0.0,0.0,0.0,0.0,0.0,0.0,0.0,0.0,0.0,0.0,0,0.0,0.0,0.0,0.0,90.0,67.0,90.0,89.44507598879999,111.7904281616,89.3814163208,33.6100006104,15.4459018707,2.9000000954000003,0,2,25,1,32,148
61,1530629514944,1427944, RC,0,39.9586186,-88.445067899,0,0.0,0.0,0.0,0.0,0.0,0.0,0.0,0.0,0.0,0.0,0.0,0.0,0.0,1500,1500,0.0,0.0,40.0483118333,-88.2331025,0.0,0.0,0.0,0.0,0.0,0.0,0.0,0.0,0.0,0.0,0.0,0,0.0,0.0,0.0,0.0,90.0,67.0,90.0,89.44507598879999,111.7904281616,89.3814163208,33.6100006104,15.4459018707,2.9000000954000003,0,2,25,1,39,150
62,1530629514994,1427994, RC,0,39.9586186,-88.445067899,0,0.0,0.0,0.0,0.0,0.0,0.0,0.0,0.0,0.0,0.0,0.0,0.0,0.0,1500,1500,0.0,0.0,40.0483118333,-88.2331025,0.0,0.0,0.0,0.0,0.0,0.0,0.0,0.0,0.0,0.0,0.0,0,0.0,0.0,0.0,0.0,90.0,67.0,90.0,89.44507598879999,111.7904281616,89.3814163208,33.6100006104,15.4459018707,2.9000000954000003,0,2,25,1,35,152
63,1530629515045,1428045, RC,0,39.9586186,-88.445067899,0,0.0,0.0,0.0,0.0,0.0,0.0,0.0,0.0,0.0,0.0,0.0,0.0,0.0,1500,1500,0.0,0.0,40.0483118333,-88.2331025,0.0,0.0,0.0,0.0,0.0,0.0,0.0,0.0,0.0,0.0,0.0,0,0.0,0.0,0.0,0.0,90.0,67.0,90.0,89.44507598879999,111.7904281616,89.3814163208,33.6100006104,15.4459018707,2.9000000954000003,0,2,25,1,29,155
64,1530629515095,1428095, RC,0,39.9586186,-88.445067899,0,0.0,0.0,0.0,0.0,0.0,0.0,0.0,0.0,0.0,0.0,0.0,0.0,0.0,1500,1500,0.0,0.0,40.0483118333,-88.2331025,0.0,0.0,0.0,0.0,0.0,0.0,0.0,0.0,0.0,0.0,0.0,0,0.0,0.0,0.0,0.0,90.0,67.0,90.0,89.44507598879999,111.7904281616,89.3814163208,33.6100006104,15.4459018707,2.9000000954000003,0,2,25,1,33,157
65,1530629515146,1428146, RC,0,39.9586186,-88.445067899,0,0.0,0.0,0.0,0.0,0.0,0.0,0.0,0.0,0.0,0.0,0.0,0.0,0.0,1500,1500,0.0,0.0,40.0483118333,-88.2331025,0.0,0.0,0.0,0.0,0.0,0.0,0.0,0.0,0.0,0.0,0.0,0,0.0,0.0,0.0,0.0,90.0,66.0,90.0,89.44507598879999,111.7904281616,89.3814163208,33.6100006104,15.4459018707,2.9000000954000003,0,2,25,1,34,159
66,1530629515196,1428196, RC,0,39.9586186,-88.445067899,0,0.0,0.0,0.0,0.0,0.0,0.0,0.0,0.0,0.0,0.0,0.0,0.0,0.0,1500,1500,0.0,0.0,40.0483118333,-88.2331025,0.0,0.0,0.0,0.0,0.0,0.0,0.0,0.0,0.0,0.0,0.0,0,0.0,0.0,0.0,0.0,90.0,66.0,90.0,89.44507598879999,112.2997283936,89.3814163208,33.6100006104,15.4459018707,2.9000000954000003,0,2,25,1,35,162
67,1530629515247,1428247, RC,0,39.9586186,-88.445067899,0,0.0,0.0,0.0,0.0,0.0,0.0,0.0,0.0,0.0,0.0,0.0,0.0,0.0,1500,1500,0.0,0.0,40.0483118333,-88.2331025,0.0,0.0,0.0,0.0,0.0,0.0,0.0,0.0,0.0,0.0,0.0,0,0.0,0.0,0.0,0.0,90.0,66.0,90.0,89.44507598879999,113.0636749268,89.3814163208,33.6100006104,15.4459018707,2.9000000954000003,0,2,25,1,33,164
68,1530629515297,1428297, RC,0,39.9586186,-88.445067899,0,0.0,0.0,0.0,0.0,0.0,0.0,0.0,0.0,0.0,0.0,0.0,0.0,0.0,1500,1500,0.0,0.0,40.0483118333,-88.2331025,0.0,0.0,0.0,0.0,0.0,0.0,0.0,0.0,0.0,0.0,0.0,0,0.0,0.0,0.0,0.0,90.0,66.0,90.0,89.44507598879999,113.0636749268,89.3814163208,33.6100006104,15.4459018707,2.9000000954000003,0,2,25,1,34,166
69,1530629515348,1428348, RC,0,39.9586186,-88.445067899,0,0.0,0.0,0.0,0.0,0.0,0.0,0.0,0.0,0.0,0.0,0.0,0.0,0.0,1500,1500,0.0,0.0,40.0483118333,-88.2331025,0.0,0.0,0.0,0.0,0.0,0.0,0.0,0.0,0.0,0.0,0.0,0,0.0,0.0,0.0,0.0,90.0,66.0,90.0,89.44507598879999,113.0636749268,89.3814163208,33.6100006104,15.4459018707,2.9000000954000003,0,2,25,1,34,169
70,1530629515399,1428399, RC,0,39.9586186,-88.445067899,0,0.0,0.0,0.0,0.0,0.0,0.0,0.0,0.0,0.0,0.0,0.0,0.0,0.0,1500,1500,0.0,0.0,40.0483118333,-88.2331025,0.0,0.0,0.0,0.0,0.0,0.0,0.0,0.0,0.0,0.0,0.0,0,0.0,0.0,0.0,0.0,90.0,66.0,90.0,89.44507598879999,113.0636749268,89.3814163208,33.6100006104,15.4459018707,2.9000000954000003,0,2,25,1,37,171
71,1530629515449,1428449, RC,0,39.9586186,-88.445067899,0,0.0,0.0,0.0,0.0,0.0,0.0,0.0,0.0,0.0,0.0,0.0,0.0,0.0,1500,1500,0.0,0.0,40.0483118333,-88.2331025,0.0,0.0,0.0,0.0,0.0,0.0,0.0,0.0,0.0,0.0,0.0,0,0.0,0.0,0.0,0.0,90.0,64.0,90.0,89.44507598879999,113.0636749268,89.3814163208,33.6100006104,15.4459018707,2.9000000954000003,0,2,25,1,33,173
72,1530629515500,1428500, RC,0,39.9586186,-88.445067899,0,0.0,0.0,0.0,0.0,0.0,0.0,0.0,0.0,0.0,0.0,0.0,0.0,0.0,1500,1500,0.0,0.0,40.0483118333,-88.2331025,0.0,0.0,0.0,0.0,0.0,0.0,0.0,0.0,0.0,0.0,0.0,0,0.0,0.0,0.0,0.0,90.0,64.0,90.0,89.44507598879999,114.2095870972,89.3814163208,33.6100006104,15.4459018707,2.9000000954000003,0,2,25,1,37,176
73,1530629515550,1428550, RC,0,39.9586186,-88.445067899,0,0.0,0.0,0.0,0.0,0.0,0.0,0.0,0.0,0.0,0.0,0.0,0.0,0.0,1500,1500,0.0,0.0,40.0483118333,-88.2331025,0.0,0.0,0.0,0.0,0.0,0.0,0.0,0.0,0.0,0.0,0.0,0,0.0,0.0,0.0,0.0,90.0,64.0,90.0,89.44507598879999,114.97353363040001,89.12677001950001,33.6100006104,15.4459018707,2.9000000954000003,0,2,25,1,34,178
74,1530629515601,1428601, RC,0,39.9586186,-88.445067899,0,0.0,0.0,0.0,0.0,0.0,0.0,0.0,0.0,0.0,0.0,0.0,0.0,0.0,1500,1500,0.0,0.0,40.0483118333,-88.2331025,0.0,0.0,0.0,0.0,0.0,0.0,0.0,0.0,0.0,0.0,0.0,0,0.0,0.0,0.0,0.0,90.0,64.0,90.0,89.44507598879999,114.97353363040001,89.12677001950001,33.6100006104,15.4459018707,2.9000000954000003,0,2,25,1,33,180
75,1530629515651,1428651, RC,0,39.9586186,-88.445067899,0,0.0,0.0,0.0,0.0,0.0,0.0,0.0,0.0,0.0,0.0,0.0,0.0,0.0,1500,1500,0.0,0.0,40.0483118333,-88.2331025,0.0,0.0,0.0,0.0,0.0,0.0,0.0,0.0,0.0,0.0,0.0,0,0.0,0.0,0.0,0.0,90.0,64.0,90.0,89.44507598879999,114.97353363040001,89.0631027222,33.6100006104,15.4459018707,2.9000000954000003,0,2,25,1,29,183
76,1530629515702,1428702, RC,0,39.9586186,-88.445067899,0,0.0,0.0,0.0,0.0,0.0,0.0,0.0,0.0,0.0,0.0,0.0,0.0,0.0,1500,1500,0.0,0.0,40.0483118333,-88.2331025,0.0,0.0,0.0,0.0,0.0,0.0,0.0,0.0,0.0,0.0,0.0,0,0.0,0.0,0.0,0.0,90.0,64.0,90.0,89.44507598879999,114.97353363040001,89.0631027222,33.6100006104,15.4459018707,2.9000000954000003,0,2,25,1,34,185
77,1530629515752,1428752, RC,0,39.9586186,-88.445067899,0,0.0,0.0,0.0,0.0,0.0,0.0,0.0,0.0,0.0,0.0,0.0,0.0,0.0,1500,1500,0.0,0.0,40.0483118333,-88.2331025,0.0,0.0,0.0,0.0,0.0,0.0,0.0,0.0,0.0,0.0,0.0,0,0.0,0.0,0.0,0.0,90.0,64.0,90.0,89.44507598879999,114.97353363040001,89.0631027222,33.6100006104,15.4459018707,2.9000000954000003,0,2,25,1,37,187
78,1530629515803,1428803, RC,0,39.9586186,-88.445067899,0,0.0,0.0,0.0,0.0,0.0,0.0,0.0,0.0,0.0,0.0,0.0,0.0,0.0,1500,1500,0.0,0.0,40.0483118333,-88.2331025,0.0,0.0,0.0,0.0,0.0,0.0,0.0,0.0,0.0,0.0,0.0,0,0.0,0.0,0.0,0.0,90.0,64.0,90.0,89.44507598879999,114.97353363040001,89.0631027222,33.6100006104,15.4459018707,2.9000000954000003,0,2,25,1,33,190
79,1530629515853,1428853, RC,0,39.9586186,-88.445067899,0,0.0,0.0,0.0,0.0,0.0,0.0,0.0,0.0,0.0,0.0,0.0,0.0,0.0,1500,1500,0.0,0.0,40.0483116667,-88.23310383329999,0.0,0.0,0.0,0.0,0.0,0.0,0.0,0.0,0.0,0.0,0.0,0,0.0,0.0,0.0,0.0,90.0,64.0,90.0,89.44507598879999,114.97353363040001,89.0631027222,33.6100006104,15.441464424100001,3.5,0,2,25,1,34,192
80,1530629515904,1428904, RC,0,39.9586186,-88.445067899,0,0.0,0.0,0.0,0.0,0.0,0.0,0.0,0.0,0.0,0.0,0.0,0.0,0.0,1500,1500,0.0,0.0,40.0483116667,-88.23310383329999,0.0,0.0,0.0,0.0,0.0,0.0,0.0,0.0,0.0,0.0,0.0,0,0.0,0.0,0.0,0.0,90.0,64.0,90.0,89.44507598879999,114.97353363040001,89.0631027222,33.6100006104,15.441464424100001,3.5,0,2,25,1,38,194
81,1530629515954,1428954, RC,0,39.9586186,-88.445067899,0,0.0,0.0,0.0,0.0,0.0,0.0,0.0,0.0,0.0,0.0,0.0,0.0,0.0,1500,1500,0.0,0.0,40.0483116667,-88.23310383329999,0.0,0.0,0.0,0.0,0.0,0.0,0.0,0.0,0.0,0.0,0.0,0,0.0,0.0,0.0,0.0,90.0,63.0,90.0,89.5087432861,114.97353363040001,89.0631027222,33.6100006104,15.441464424100001,3.5,0,2,25,1,41,197
82,1530629516005,1429005, RC,0,39.9586186,-88.445067899,0,0.0,0.0,0.0,0.0,0.0,0.0,0.0,0.0,0.0,0.0,0.0,0.0,0.0,1500,1500,0.0,0.0,40.0483116667,-88.23310383329999,0.0,0.0,0.0,0.0,0.0,0.0,0.0,0.0,0.0,0.0,0.0,0,0.0,0.0,0.0,0.0,90.0,63.0,90.0,89.44507598879999,115.9284591675,89.0631027222,33.6100006104,15.441464424100001,3.5,0,2,25,1,35,199
83,1530629516056,1429056, RC,0,39.9586186,-88.445067899,0,0.0,0.0,0.0,0.0,0.0,0.0,0.0,0.0,0.0,0.0,0.0,0.0,0.0,1500,1500,0.0,0.0,40.0483116667,-88.23310383329999,0.0,0.0,0.0,0.0,0.0,0.0,0.0,0.0,0.0,0.0,0.0,0,0.0,0.0,0.0,0.0,90.0,63.0,90.0,89.5087432861,116.24677276610001,89.0631027222,33.6100006104,15.441464424100001,3.5,0,2,25,1,42,201
84,1530629516106,1429106, RC,0,39.9586186,-88.445067899,0,0.0,0.0,0.0,0.0,0.0,0.0,0.0,0.0,0.0,0.0,0.0,0.0,0.0,1500,1500,0.0,0.0,40.0483116667,-88.23310383329999,0.0,0.0,0.0,0.0,0.0,0.0,0.0,0.0,0.0,0.0,0.0,0,0.0,0.0,0.0,0.0,90.0,63.0,90.0,89.5087432861,116.24677276610001,89.0631027222,33.6100006104,15.441464424100001,3.5,0,2,25,1,30,204
85,1530629516157,1429157, RC,0,39.9586186,-88.445067899,0,0.0,0.0,0.0,0.0,0.0,0.0,0.0,0.0,0.0,0.0,0.0,0.0,0.0,1500,1500,0.0,0.0,40.0483116667,-88.23310383329999,0.0,0.0,0.0,0.0,0.0,0.0,0.0,0.0,0.0,0.0,0.0,0,0.0,0.0,0.0,0.0,90.0,63.0,90.0,89.5087432861,116.24677276610001,89.0631027222,33.6100006104,15.441464424100001,3.5,0,2,25,1,32,206
86,1530629516207,1429207, RC,0,39.9586186,-88.445067899,0,0.0,0.0,0.0,0.0,0.0,0.0,0.0,0.0,0.0,0.0,0.0,0.0,0.0,1500,1500,0.0,0.0,40.0483116667,-88.23310383329999,0.0,0.0,0.0,0.0,0.0,0.0,0.0,0.0,0.0,0.0,0.0,0,0.0,0.0,0.0,0.0,90.0,63.0,90.0,89.5087432861,116.24677276610001,89.0631027222,33.6100006104,15.441464424100001,3.5,0,2,25,1,43,208
87,1530629516258,1429258, RC,0,39.9586186,-88.445067899,0,0.0,0.0,0.0,0.0,0.0,0.0,0.0,0.0,0.0,0.0,0.0,0.0,0.0,1500,1500,0.0,0.0,40.0483116667,-88.23310383329999,0.0,0.0,0.0,0.0,0.0,0.0,0.0,0.0,0.0,0.0,0.0,0,0.0,0.0,0.0,0.0,90.0,60.0,90.0,89.5087432861,116.24677276610001,89.0631027222,33.6100006104,15.441464424100001,3.5,0,2,25,1,36,211
88,1530629516308,1429308, RC,0,39.9586186,-88.445067899,0,0.0,0.0,0.0,0.0,0.0,0.0,0.0,0.0,0.0,0.0,0.0,0.0,0.0,1500,1500,0.0,0.0,40.0483116667,-88.23310383329999,0.0,0.0,0.0,0.0,0.0,0.0,0.0,0.0,0.0,0.0,0.0,0,0.0,0.0,0.0,0.0,90.0,60.0,90.0,89.5087432861,118.411277771,89.0631027222,33.6100006104,15.441464424100001,3.5,0,2,25,1,31,213
89,1530629516359,1429359, RC,0,39.9586186,-88.445067899,0,0.0,0.0,0.0,0.0,0.0,0.0,0.0,0.0,0.0,0.0,0.0,0.0,0.0,1500,1500,0.0,0.0,40.0483116667,-88.23310383329999,0.0,0.0,0.0,0.0,0.0,0.0,0.0,0.0,0.0,0.0,0.0,0,0.0,0.0,0.0,0.0,90.0,60.0,90.0,89.5087432861,119.5571899414,89.0631027222,33.6100006104,15.441464424100001,3.5,0,2,25,1,37,215
90,1530629516409,1429409, RC,0,39.9586186,-88.445067899,0,0.0,0.0,0.0,0.0,0.0,0.0,0.0,0.0,0.0,0.0,0.0,0.0,0.0,1500,1500,0.0,0.0,40.0483116667,-88.23310383329999,0.0,0.0,0.0,0.0,0.0,0.0,0.0,0.0,0.0,0.0,0.0,0,0.0,0.0,0.0,0.0,90.0,60.0,90.0,89.5087432861,119.5571899414,89.0631027222,33.6100006104,15.441464424100001,3.5,0,2,25,1,38,218
91,1530629516460,1429460, RC,0,39.9586186,-88.445067899,0,0.0,0.0,0.0,0.0,0.0,0.0,0.0,0.0,0.0,0.0,0.0,0.0,0.0,1500,1500,0.0,0.0,40.0483116667,-88.23310383329999,0.0,0.0,0.0,0.0,0.0,0.0,0.0,0.0,0.0,0.0,0.0,0,0.0,0.0,0.0,0.0,90.0,60.0,90.0,89.5087432861,119.5571899414,89.0631027222,33.6100006104,15.441464424100001,3.5,0,2,25,1,34,220
92,1530629516510,1429510, RC,0,39.9586186,-88.445067899,0,0.0,0.0,0.0,0.0,0.0,0.0,0.0,0.0,0.0,0.0,0.0,0.0,0.0,1500,1500,0.0,0.0,40.0483116667,-88.23310383329999,0.0,0.0,0.0,0.0,0.0,0.0,0.0,0.0,0.0,0.0,0.0,0,0.0,0.0,0.0,0.0,90.0,60.0,90.0,89.5087432861,119.5571899414,89.0631027222,33.6100006104,15.441464424100001,3.5,0,2,25,1,34,222
93,1530629516561,1429561, RC,0,39.9586186,-88.445067899,0,0.0,0.0,0.0,0.0,0.0,0.0,0.0,0.0,0.0,0.0,0.0,0.0,0.0,1500,1500,0.0,0.0,40.0483116667,-88.23310383329999,0.0,0.0,0.0,0.0,0.0,0.0,0.0,0.0,0.0,0.0,0.0,0,0.0,0.0,0.0,0.0,90.0,60.0,90.0,89.5087432861,119.3662033081,89.0631027222,33.6100006104,15.441464424100001,3.5,0,2,25,1,40,225
94,1530629516612,1429612, RC,0,39.9586186,-88.445067899,0,0.0,0.0,0.0,0.0,0.0,0.0,0.0,0.0,0.0,0.0,0.0,0.0,0.0,1500,1500,0.0,0.0,40.0483116667,-88.23310383329999,0.0,0.0,0.0,0.0,0.0,0.0,0.0,0.0,0.0,0.0,0.0,0,0.0,0.0,0.0,0.0,90.0,60.0,90.0,89.5087432861,119.3025436401,89.0631027222,33.6100006104,15.441464424100001,3.5,0,2,25,1,31,227
95,1530629516662,1429662, RC,0,39.9586186,-88.445067899,0,0.0,0.0,0.0,0.0,0.0,0.0,0.0,0.0,0.0,0.0,0.0,0.0,0.0,1500,1500,0.0,0.0,40.0483116667,-88.23310383329999,0.0,0.0,0.0,0.0,0.0,0.0,0.0,0.0,0.0,0.0,0.0,0,0.0,0.0,0.0,0.0,90.0,60.0,90.0,89.5087432861,119.3025436401,89.0631027222,33.6100006104,15.441464424100001,3.5,0,2,25,1,38,229
96,1530629516713,1429713, RC,0,39.9586186,-88.445067899,0,0.0,0.0,0.0,0.0,0.0,0.0,0.0,0.0,0.0,0.0,0.0,0.0,0.0,1500,1500,0.0,0.0,40.0483116667,-88.23310383329999,0.0,0.0,0.0,0.0,0.0,0.0,0.0,0.0,0.0,0.0,0.0,0,0.0,0.0,0.0,0.0,90.0,60.0,90.0,89.5087432861,119.3025436401,89.0631027222,33.6100006104,15.441464424100001,3.5,0,2,25,1,38,232
97,1530629516763,1429763, RC,0,39.9586186,-88.445067899,0,0.0,0.0,0.0,0.0,0.0,0.0,0.0,0.0,0.0,0.0,0.0,0.0,0.0,1500,1500,0.0,0.0,40.0483116667,-88.23310383329999,0.0,0.0,0.0,0.0,0.0,0.0,0.0,0.0,0.0,0.0,0.0,0,0.0,0.0,0.0,0.0,90.0,60.0,90.0,89.5087432861,119.3025436401,89.0631027222,33.6100006104,15.441464424100001,3.5,0,2,25,1,30,234
98,1530629516814,1429814, RC,0,39.9586186,-88.445067899,0,0.0,0.0,0.0,0.0,0.0,0.0,0.0,0.0,0.0,0.0,0.0,0.0,0.0,1500,1500,0.0,0.0,40.0483116667,-88.23310383329999,0.0,0.0,0.0,0.0,0.0,0.0,0.0,0.0,0.0,0.0,0.0,0,0.0,0.0,0.0,0.0,90.0,60.0,90.0,89.5087432861,119.3025436401,89.0631027222,33.6100006104,15.4369602203,3.4000000954000003,0,2,25,1,29,236
99,1530629516864,1429864, RC,0,39.9586186,-88.445067899,0,0.0,0.0,0.0,0.0,0.0,0.0,0.0,0.0,0.0,0.0,0.0,0.0,0.0,1500,1500,0.0,0.0,40.0483118333,-88.2331053333,0.0,0.0,0.0,0.0,0.0,0.0,0.0,0.0,0.0,0.0,0.0,0,0.0,0.0,0.0,0.0,90.0,60.0,90.0,89.5087432861,119.3025436401,89.0631027222,33.6100006104,15.4369602203,3.4000000954000003,0,2,25,1,32,238
100,1530629516932,1429932, RC,0,39.9586186,-88.445067899,0,0.0,0.0,0.0,0.0,0.0,0.0,0.0,0.0,0.0,0.0,0.0,0.0,0.0,1500,1500,0.0,0.0,40.0483118333,-88.2331053333,0.0,0.0,0.0,0.0,0.0,0.0,0.0,0.0,0.0,0.0,0.0,0,0.0,0.0,0.0,0.0,90.0,60.0,90.0,89.5087432861,119.3025436401,89.0631027222,33.0719985962,15.4369602203,3.4000000954000003,0,2,25,1,32,242
101,1530629516983,1429983, RC,0,39.9586186,-88.445067899,0,0.0,0.0,0.0,0.0,0.0,0.0,0.0,0.0,0.0,0.0,0.0,0.0,0.0,1500,1500,0.0,0.0,40.0483118333,-88.2331053333,0.0,0.0,0.0,0.0,0.0,0.0,0.0,0.0,0.0,0.0,0.0,0,0.0,0.0,0.0,0.0,90.0,60.0,90.0,89.5087432861,119.3025436401,89.0631027222,33.0719985962,15.4369602203,3.4000000954000003,0,2,25,1,39,244
102,1530629517033,1430033, RC,0,39.9586186,-88.445067899,0,0.0,0.0,0.0,0.0,0.0,0.0,0.0,0.0,0.0,0.0,0.0,0.0,0.0,1500,1500,0.0,0.0,40.0483118333,-88.2331053333,0.0,0.0,0.0,0.0,0.0,0.0,0.0,0.0,0.0,0.0,0.0,0,0.0,0.0,0.0,0.0,90.0,60.0,90.0,89.5087432861,119.3025436401,89.0631027222,33.0719985962,15.4369602203,3.4000000954000003,0,2,25,1,40,246
103,1530629517084,1430084, RC,0,39.9586186,-88.445067899,0,0.0,0.0,0.0,0.0,0.0,0.0,0.0,0.0,0.0,0.0,0.0,0.0,0.0,1500,1500,0.0,0.0,40.0483118333,-88.2331053333,0.0,0.0,0.0,0.0,0.0,0.0,0.0,0.0,0.0,0.0,0.0,0,0.0,0.0,0.0,0.0,90.0,60.0,90.0,89.5087432861,119.3025436401,89.0631027222,33.0719985962,15.4369602203,3.4000000954000003,0,2,25,1,34,249
104,1530629517134,1430134, RC,0,39.9586186,-88.445067899,0,0.0,0.0,0.0,0.0,0.0,0.0,0.0,0.0,0.0,0.0,0.0,0.0,0.0,1500,1500,0.0,0.0,40.0483118333,-88.2331053333,0.0,0.0,0.0,0.0,0.0,0.0,0.0,0.0,0.0,0.0,0.0,0,0.0,0.0,0.0,0.0,90.0,60.0,90.0,89.5087432861,119.2388916016,89.0631027222,33.0719985962,15.4369602203,3.4000000954000003,0,2,25,1,39,251
105,1530629517185,1430185, RC,0,39.9586186,-88.445067899,0,0.0,0.0,0.0,0.0,0.0,0.0,0.0,0.0,0.0,0.0,0.0,0.0,0.0,1500,1500,0.0,0.0,40.0483118333,-88.2331053333,0.0,0.0,0.0,0.0,0.0,0.0,0.0,0.0,0.0,0.0,0.0,0,0.0,0.0,0.0,0.0,90.0,60.0,90.0,89.5087432861,119.2388916016,89.0631027222,33.0719985962,15.4369602203,3.4000000954000003,0,2,25,1,31,253
106,1530629517235,1430235, RC,0,39.9586186,-88.445067899,0,0.0,0.0,0.0,0.0,0.0,0.0,0.0,0.0,0.0,0.0,0.0,0.0,0.0,1500,1500,0.0,0.0,40.0483118333,-88.2331053333,0.0,0.0,0.0,0.0,0.0,0.0,0.0,0.0,0.0,0.0,0.0,0,0.0,0.0,0.0,0.0,90.0,60.0,90.0,89.5087432861,119.2388916016,89.0631027222,33.0719985962,15.4369602203,3.4000000954000003,0,2,25,1,39,255
107,1530629517286,1430286, RC,0,39.9586186,-88.445067899,0,0.0,0.0,0.0,0.0,0.0,0.0,0.0,0.0,0.0,0.0,0.0,0.0,0.0,1500,1500,0.0,0.0,40.0483118333,-88.2331053333,0.0,0.0,0.0,0.0,0.0,0.0,0.0,0.0,0.0,0.0,0.0,0,0.0,0.0,0.0,0.0,90.0,60.0,90.0,89.5087432861,119.2388916016,89.0631027222,33.0719985962,15.4369602203,3.4000000954000003,0,2,25,1,37,258
108,1530629517337,1430337, RC,0,39.9586186,-88.445067899,0,0.0,0.0,0.0,0.0,0.0,0.0,0.0,0.0,0.0,0.0,0.0,0.0,0.0,1500,1500,0.0,0.0,40.0483118333,-88.2331053333,0.0,0.0,0.0,0.0,0.0,0.0,0.0,0.0,0.0,0.0,0.0,0,0.0,0.0,0.0,0.0,90.0,60.0,90.0,89.5087432861,119.2388916016,89.0631027222,33.0719985962,15.4369602203,3.4000000954000003,0,2,25,1,37,260
109,1530629517387,1430387, RC,0,39.9586186,-88.445067899,0,0.0,0.0,0.0,0.0,0.0,0.0,0.0,0.0,0.0,0.0,0.0,0.0,0.0,1500,1500,0.0,0.0,40.0483118333,-88.2331053333,0.0,0.0,0.0,0.0,0.0,0.0,0.0,0.0,0.0,0.0,0.0,0,0.0,0.0,0.0,0.0,90.0,60.0,90.0,89.5087432861,119.2388916016,89.0631027222,33.0719985962,15.4369602203,3.4000000954000003,0,2,25,1,37,262
110,1530629517438,1430438, RC,0,39.9586186,-88.445067899,0,0.0,0.0,0.0,0.0,0.0,0.0,0.0,0.0,0.0,0.0,0.0,0.0,0.0,1500,1500,0.0,0.0,40.0483118333,-88.2331053333,0.0,0.0,0.0,0.0,0.0,0.0,0.0,0.0,0.0,0.0,0.0,0,0.0,0.0,0.0,0.0,90.0,60.0,87.0,89.5087432861,119.2388916016,89.0631027222,33.0719985962,15.4369602203,3.4000000954000003,0,2,25,1,34,265
111,1530629517488,1430488, RC,0,39.9586186,-88.445067899,0,0.0,0.0,0.0,0.0,0.0,0.0,0.0,0.0,0.0,0.0,0.0,0.0,0.0,1500,1500,0.0,0.0,40.0483118333,-88.2331053333,0.0,0.0,0.0,0.0,0.0,0.0,0.0,0.0,0.0,0.0,0.0,0,0.0,0.0,0.0,0.0,90.0,60.0,87.0,89.5087432861,119.2388916016,89.0631027222,33.0719985962,15.4369602203,3.4000000954000003,0,2,25,1,38,267
112,1530629517539,1430539, RC,0,39.9586186,-88.445067899,0,0.0,0.0,0.0,0.0,0.0,0.0,0.0,0.0,0.0,0.0,0.0,0.0,0.0,1500,1500,0.0,0.0,40.0483118333,-88.2331053333,0.0,0.0,0.0,0.0,0.0,0.0,0.0,0.0,0.0,0.0,0.0,0,0.0,0.0,0.0,0.0,90.0,60.0,81.0,89.5087432861,119.2388916016,89.12677001950001,33.0719985962,15.4369602203,3.4000000954000003,0,2,25,1,37,269
113,1530629517589,1430589, RC,0,39.9586186,-88.445067899,0,0.0,0.0,0.0,0.0,0.0,0.0,0.0,0.0,0.0,0.0,0.0,0.0,0.0,1500,1500,0.0,0.0,40.0483118333,-88.2331053333,0.0,0.0,0.0,0.0,0.0,0.0,0.0,0.0,0.0,0.0,0.0,0,0.0,0.0,0.0,0.0,90.0,60.0,81.0,89.5087432861,119.2388916016,91.1639480591,33.0719985962,15.4369602203,3.4000000954000003,0,2,25,1,36,272
114,1530629517640,1430640, RC,0,39.9586186,-88.445067899,0,0.0,0.0,0.0,0.0,0.0,0.0,0.0,0.0,0.0,0.0,0.0,0.0,0.0,1500,1500,0.0,0.0,40.0483118333,-88.2331053333,0.0,0.0,0.0,0.0,0.0,0.0,0.0,0.0,0.0,0.0,0.0,0,0.0,0.0,0.0,0.0,90.0,60.0,75.0,89.5087432861,119.2388916016,97.84845733639999,33.0719985962,15.4369602203,3.4000000954000003,0,2,25,1,25,274
115,1530629517690,1430690, RC,0,39.9586186,-88.445067899,0,0.0,0.0,0.0,0.0,0.0,0.0,0.0,0.0,0.0,0.0,0.0,0.0,0.0,1500,1500,0.0,0.0,40.0483118333,-88.2331053333,0.0,0.0,0.0,0.0,0.0,0.0,0.0,0.0,0.0,0.0,0.0,0,0.0,0.0,0.0,0.0,90.0,60.0,75.0,89.5087432861,119.2388916016,100.1402893066,33.0719985962,15.4369602203,3.4000000954000003,0,2,25,1,71,276
116,1530629517741,1430741, RC,0,39.9586186,-88.445067899,0,0.0,0.0,0.0,0.0,0.0,0.0,0.0,0.0,0.0,0.0,0.0,0.0,0.0,1500,1500,0.0,0.0,40.0483118333,-88.2331053333,0.0,0.0,0.0,0.0,0.0,0.0,0.0,0.0,0.0,0.0,0.0,0,0.0,0.0,0.0,0.0,90.0,60.0,72.0,89.5087432861,119.2388916016,101.859161377,33.0719985962,15.4369602203,3.4000000954000003,0,2,25,1,112,279
117,1530629517792,1430792, RC,0,39.9586186,-88.445067899,0,0.0,0.0,0.0,0.0,0.0,0.0,0.0,0.0,0.0,0.0,0.0,0.0,0.0,1500,1500,0.0,0.0,40.0483118333,-88.2331053333,0.0,0.0,0.0,0.0,0.0,0.0,0.0,0.0,0.0,0.0,0.0,0,0.0,0.0,0.0,0.0,90.0,60.0,72.0,89.5087432861,119.2388916016,105.6788787842,33.0719985962,15.4369602203,3.4000000954000003,0,2,25,1,114,281
118,1530629517842,1430842, RC,0,39.9586186,-88.445067899,0,0.0,0.0,0.0,0.0,0.0,0.0,0.0,0.0,0.0,0.0,0.0,0.0,0.0,1500,1500,0.0,0.0,40.0483121667,-88.2331068333,0.0,0.0,0.0,0.0,0.0,0.0,0.0,0.0,0.0,0.0,0.0,0,0.0,0.0,0.0,0.0,90.0,60.0,67.0,89.5087432861,119.2388916016,107.77973175049999,33.0719985962,15.4321537018,3.0199999808999998,0,2,25,1,132,283
119,1530629517893,1430893, RC,0,39.9586186,-88.445067899,0,0.0,0.0,0.0,0.0,0.0,0.0,0.0,0.0,0.0,0.0,0.0,0.0,0.0,1500,1500,0.0,0.0,40.0483121667,-88.2331068333,0.0,0.0,0.0,0.0,0.0,0.0,0.0,0.0,0.0,0.0,0.0,0,0.0,0.0,0.0,0.0,90.0,60.0,67.0,89.5087432861,119.2388916016,108.0343704224,33.0719985962,15.4321537018,3.0199999808999998,0,2,25,1,80,286
120,1530629517943,1430943, RC,0,39.9586186,-88.445067899,0,0.0,0.0,0.0,0.0,0.0,0.0,0.0,0.0,0.0,0.0,0.0,0.0,0.0,1500,1500,0.0,0.0,40.0483121667,-88.2331068333,0.0,0.0,0.0,0.0,0.0,0.0,0.0,0.0,0.0,0.0,0.0,0,0.0,0.0,0.0,0.0,90.0,60.0,66.0,89.5087432861,119.2388916016,111.3448028564,33.0719985962,15.4321537018,3.0199999808999998,0,2,25,1,41,288
121,1530629517994,1430994, RC,0,39.9586186,-88.445067899,0,0.0,0.0,0.0,0.0,0.0,0.0,0.0,0.0,0.0,0.0,0.0,0.0,0.0,1500,1500,0.0,0.0,40.0483121667,-88.2331068333,0.0,0.0,0.0,0.0,0.0,0.0,0.0,0.0,0.0,0.0,0.0,0,0.0,0.0,0.0,0.0,90.0,60.0,66.0,89.5087432861,119.2388916016,112.8090209961,33.0719985962,15.4321537018,3.0199999808999998,0,2,25,1,32,290
122,1530629518044,1431044, RC,0,39.9586186,-88.445067899,0,0.0,0.0,0.0,0.0,0.0,0.0,0.0,0.0,0.0,0.0,0.0,0.0,0.0,1500,1500,0.0,0.0,40.0483121667,-88.2331068333,0.0,0.0,0.0,0.0,0.0,0.0,0.0,0.0,0.0,0.0,0.0,0,0.0,0.0,0.0,0.0,90.0,60.0,64.0,89.5087432861,119.2388916016,112.8726882935,33.0719985962,15.4321537018,3.0199999808999998,0,2,25,1,33,293
123,1530629518095,1431095, RC,0,39.9586186,-88.445067899,0,0.0,0.0,0.0,0.0,0.0,0.0,0.0,0.0,0.0,0.0,0.0,0.0,0.0,1500,1500,0.0,0.0,40.0483121667,-88.2331068333,0.0,0.0,0.0,0.0,0.0,0.0,0.0,0.0,0.0,0.0,0.0,0,0.0,0.0,0.0,0.0,90.0,60.0,64.0,89.5087432861,119.2388916016,113.1273269653,33.0719985962,15.4321537018,3.0199999808999998,0,2,25,1,27,295
124,1530629518146,1431146, RC,0,39.9586186,-88.445067899,0,0.0,0.0,0.0,0.0,0.0,0.0,0.0,0.0,0.0,0.0,0.0,0.0,0.0,1500,1500,0.0,0.0,40.0483121667,-88.2331068333,0.0,0.0,0.0,0.0,0.0,0.0,0.0,0.0,0.0,0.0,0.0,0,0.0,0.0,0.0,0.0,90.0,60.0,63.0,89.5087432861,119.2388916016,115.6101455688,33.0719985962,15.4321537018,3.0199999808999998,0,2,25,1,37,297
125,1530629518196,1431196, RC,0,39.9586186,-88.445067899,0,0.0,0.0,0.0,0.0,0.0,0.0,0.0,0.0,0.0,0.0,0.0,0.0,0.0,1500,1500,0.0,0.0,40.0483121667,-88.2331068333,0.0,0.0,0.0,0.0,0.0,0.0,0.0,0.0,0.0,0.0,0.0,0,0.0,0.0,0.0,0.0,90.0,60.0,63.0,89.5087432861,119.2388916016,116.1831054688,33.0719985962,15.4321537018,3.0199999808999998,0,2,25,1,31,299
126,1530629518247,1431247, RC,0,39.9586186,-88.445067899,0,0.0,0.0,0.0,0.0,0.0,0.0,0.0,0.0,0.0,0.0,0.0,0.0,0.0,1500,1500,0.0,0.0,40.0483121667,-88.2331068333,0.0,0.0,0.0,0.0,0.0,0.0,0.0,0.0,0.0,0.0,0.0,0,0.0,0.0,0.0,0.0,90.0,60.0,60.0,89.5087432861,118.9842300415,116.1831054688,33.0719985962,15.4321537018,3.0199999808999998,0,2,25,1,40,302
127,1530629518297,1431297, RC,0,39.9586186,-88.445067899,0,0.0,0.0,0.0,0.0,0.0,0.0,0.0,0.0,0.0,0.0,0.0,0.0,0.0,1500,1500,0.0,0.0,40.0483121667,-88.2331068333,0.0,0.0,0.0,0.0,0.0,0.0,0.0,0.0,0.0,0.0,0.0,0,0.0,0.0,0.0,0.0,90.0,60.0,60.0,89.5087432861,118.9842300415,116.1831054688,33.0719985962,15.4321537018,3.0199999808999998,0,2,25,1,33,304
128,1530629518348,1431348, RC,0,39.9586186,-88.445067899,0,0.0,0.0,0.0,0.0,0.0,0.0,0.0,0.0,0.0,0.0,0.0,0.0,0.0,1500,1500,0.0,0.0,40.0483121667,-88.2331068333,0.0,0.0,0.0,0.0,0.0,0.0,0.0,0.0,0.0,0.0,0.0,0,0.0,0.0,0.0,0.0,90.0,60.0,58.0,89.5087432861,118.9842300415,117.0107192993,33.0719985962,15.4321537018,3.0199999808999998,0,2,25,1,36,306
129,1530629518398,1431398, RC,0,39.9586186,-88.445067899,0,0.0,0.0,0.0,0.0,0.0,0.0,0.0,0.0,0.0,0.0,0.0,0.0,0.0,1500,1500,0.0,0.0,40.0483121667,-88.2331068333,0.0,0.0,0.0,0.0,0.0,0.0,0.0,0.0,0.0,0.0,0.0,0,0.0,0.0,0.0,0.0,90.0,60.0,58.0,89.5087432861,118.9842300415,119.1115570068,33.0719985962,15.4321537018,3.0199999808999998,0,2,25,1,37,309
130,1530629518449,1431449, RC,0,39.9586186,-88.445067899,0,0.0,0.0,0.0,0.0,0.0,0.0,0.0,0.0,0.0,0.0,0.0,0.0,0.0,1500,1500,0.0,0.0,40.0483121667,-88.2331068333,0.0,0.0,0.0,0.0,0.0,0.0,0.0,0.0,0.0,0.0,0.0,0,0.0,0.0,0.0,0.0,90.0,60.0,58.0,89.5087432861,118.9842300415,121.0214157104,33.0719985962,15.4321537018,3.0199999808999998,0,2,25,1,24,311
131,1530629518499,1431499, RC,0,39.9586186,-88.445067899,0,0.0,0.0,0.0,0.0,0.0,0.0,0.0,0.0,0.0,0.0,0.0,0.0,0.0,1500,1500,0.0,0.0,40.0483121667,-88.2331068333,0.0,0.0,0.0,0.0,0.0,0.0,0.0,0.0,0.0,0.0,0.0,0,0.0,0.0,0.0,0.0,90.0,60.0,58.0,89.5087432861,118.9842300415,121.0850753784,33.0719985962,15.4321537018,3.0199999808999998,0,2,25,1,44,313
132,1530629518550,1431550, RC,0,39.9586186,-88.445067899,0,0.0,0.0,0.0,0.0,0.0,0.0,0.0,0.0,0.0,0.0,0.0,0.0,0.0,1500,1500,0.0,0.0,40.0483121667,-88.2331068333,0.0,0.0,0.0,0.0,0.0,0.0,0.0,0.0,0.0,0.0,0.0,0,0.0,0.0,0.0,0.0,90.0,60.0,57.0,89.5087432861,118.9842300415,121.0850753784,33.0719985962,15.4321537018,3.0199999808999998,0,2,25,1,42,315
133,1530629518600,1431600, RC,0,39.9586186,-88.445067899,0,0.0,0.0,0.0,0.0,0.0,0.0,0.0,0.0,0.0,0.0,0.0,0.0,0.0,1500,1500,0.0,0.0,40.0483121667,-88.2331068333,0.0,0.0,0.0,0.0,0.0,0.0,0.0,0.0,0.0,0.0,0.0,0,0.0,0.0,0.0,0.0,90.0,60.0,57.0,89.5087432861,118.9842300415,121.0850753784,33.0719985962,15.4321537018,3.0199999808999998,0,2,25,1,44,318
134,1530629518651,1431651, RC,0,39.9586186,-88.445067899,0,0.0,0.0,0.0,0.0,0.0,0.0,0.0,0.0,0.0,0.0,0.0,0.0,0.0,1500,1500,0.0,0.0,40.0483121667,-88.2331068333,0.0,0.0,0.0,0.0,0.0,0.0,0.0,0.0,0.0,0.0,0.0,0,0.0,0.0,0.0,0.0,90.0,60.0,57.0,89.5087432861,118.9842300415,122.1673278809,33.0719985962,15.4321537018,3.0199999808999998,0,2,25,1,46,320
135,1530629518701,1431701, RC,0,39.9586186,-88.445067899,0,0.0,0.0,0.0,0.0,0.0,0.0,0.0,0.0,0.0,0.0,0.0,0.0,0.0,1500,1500,0.0,0.0,40.0483121667,-88.2331068333,0.0,0.0,0.0,0.0,0.0,0.0,0.0,0.0,0.0,0.0,0.0,0,0.0,0.0,0.0,0.0,90.0,60.0,57.0,89.5087432861,118.9842300415,122.9949493408,33.0719985962,15.4321537018,3.0199999808999998,0,2,25,1,49,322
136,1530629518752,1431752, RC,0,39.9586186,-88.445067899,0,0.0,0.0,0.0,0.0,0.0,0.0,0.0,0.0,0.0,0.0,0.0,0.0,0.0,1500,1500,0.0,0.0,40.0483121667,-88.2331068333,0.0,0.0,0.0,0.0,0.0,0.0,0.0,0.0,0.0,0.0,0.0,0,0.0,0.0,0.0,0.0,90.0,60.0,57.0,89.5087432861,118.9842300415,122.9949493408,33.0719985962,15.4321537018,3.0199999808999998,0,2,25,1,45,325
137,1530629518803,1431803, RC,0,39.9586186,-88.445067899,0,0.0,0.0,0.0,0.0,0.0,0.0,0.0,0.0,0.0,0.0,0.0,0.0,0.0,1500,1500,0.0,0.0,40.0483121667,-88.2331068333,0.0,0.0,0.0,0.0,0.0,0.0,0.0,0.0,0.0,0.0,0.0,0,0.0,0.0,0.0,0.0,90.0,60.0,57.0,89.5087432861,118.9842300415,122.9949493408,33.0719985962,15.4321537018,3.0199999808999998,0,2,25,1,38,327
138,1530629518853,1431853, RC,0,39.9586186,-88.445067899,0,0.0,0.0,0.0,0.0,0.0,0.0,0.0,0.0,0.0,0.0,0.0,0.0,0.0,1500,1500,0.0,0.0,40.0483121667,-88.2331081667,0.0,0.0,0.0,0.0,0.0,0.0,0.0,0.0,0.0,0.0,0.0,0,0.0,0.0,0.0,0.0,90.0,60.0,57.0,89.5087432861,118.9842300415,122.9949493408,33.0719985962,15.427330017100001,2.7400000094999997,0,2,25,1,48,329
139,1530629518904,1431904, RC,0,39.9586186,-88.445067899,0,0.0,0.0,0.0,0.0,0.0,0.0,0.0,0.0,0.0,0.0,0.0,0.0,0.0,1500,1500,0.0,0.0,40.0483121667,-88.2331081667,0.0,0.0,0.0,0.0,0.0,0.0,0.0,0.0,0.0,0.0,0.0,0,0.0,0.0,0.0,0.0,90.0,60.0,57.0,89.5087432861,118.9842300415,122.9949493408,33.0719985962,15.427330017100001,2.7400000094999997,0,2,25,1,50,332
140,1530629518954,1431954, RC,0,39.9586186,-88.445067899,0,0.0,0.0,0.0,0.0,0.0,0.0,0.0,0.0,0.0,0.0,0.0,0.0,0.0,1500,1500,0.0,0.0,40.0483121667,-88.2331081667,0.0,0.0,0.0,0.0,0.0,0.0,0.0,0.0,0.0,0.0,0.0,0,0.0,0.0,0.0,0.0,90.0,60.0,55.0,89.5087432861,118.9842300415,122.9949493408,33.0719985962,15.427330017100001,2.7400000094999997,0,2,25,1,58,334
141,1530629519005,1432005, RC,0,39.9586186,-88.445067899,0,0.0,0.0,0.0,0.0,0.0,0.0,0.0,0.0,0.0,0.0,0.0,0.0,0.0,1500,1500,0.0,0.0,40.0483121667,-88.2331081667,0.0,0.0,0.0,0.0,0.0,0.0,0.0,0.0,0.0,0.0,0.0,0,0.0,0.0,0.0,0.0,90.0,60.0,55.0,89.5087432861,118.9842300415,122.9949493408,33.0719985962,15.427330017100001,2.7400000094999997,0,2,25,1,46,336
142,1530629519055,1432055, RC,0,39.9586186,-88.445067899,0,0.0,0.0,0.0,0.0,0.0,0.0,0.0,0.0,0.0,0.0,0.0,0.0,0.0,1500,1500,0.0,0.0,40.0483121667,-88.2331081667,0.0,0.0,0.0,0.0,0.0,0.0,0.0,0.0,0.0,0.0,0.0,0,0.0,0.0,0.0,0.0,90.0,60.0,55.0,89.5087432861,118.9842300415,122.9949493408,33.0719985962,15.427330017100001,2.7400000094999997,0,2,25,1,48,338
143,1530629519106,1432106, RC,0,39.9586186,-88.445067899,0,0.0,0.0,0.0,0.0,0.0,0.0,0.0,0.0,0.0,0.0,0.0,0.0,0.0,1500,1500,0.0,0.0,40.0483121667,-88.2331081667,0.0,0.0,0.0,0.0,0.0,0.0,0.0,0.0,0.0,0.0,0.0,0,0.0,0.0,0.0,0.0,90.0,60.0,55.0,89.5087432861,118.9842300415,124.5864868164,33.0719985962,15.427330017100001,2.7400000094999997,0,2,25,1,52,341
144,1530629519156,1432156, RC,0,39.9586186,-88.445067899,0,0.0,0.0,0.0,0.0,0.0,0.0,0.0,0.0,0.0,0.0,0.0,0.0,0.0,1500,1500,0.0,0.0,40.0483121667,-88.2331081667,0.0,0.0,0.0,0.0,0.0,0.0,0.0,0.0,0.0,0.0,0.0,0,0.0,0.0,0.0,0.0,90.0,60.0,55.0,89.5087432861,118.9842300415,124.65014648440001,33.0719985962,15.427330017100001,2.7400000094999997,0,2,25,1,50,343
145,1530629519207,1432207, RC,0,39.9586186,-88.445067899,0,0.0,0.0,0.0,0.0,0.0,0.0,0.0,0.0,0.0,0.0,0.0,0.0,0.0,1500,1500,0.0,0.0,40.0483121667,-88.2331081667,0.0,0.0,0.0,0.0,0.0,0.0,0.0,0.0,0.0,0.0,0.0,0,0.0,0.0,0.0,0.0,90.0,60.0,55.0,89.5087432861,118.9842300415,124.65014648440001,33.0719985962,15.427330017100001,2.7400000094999997,0,2,25,1,48,345
146,1530629519258,1432258, RC,0,39.9586186,-88.445067899,0,0.0,0.0,0.0,0.0,0.0,0.0,0.0,0.0,0.0,0.0,0.0,0.0,0.0,1500,1500,0.0,0.0,40.0483121667,-88.2331081667,0.0,0.0,0.0,0.0,0.0,0.0,0.0,0.0,0.0,0.0,0.0,0,0.0,0.0,0.0,0.0,90.0,60.0,54.0,89.5087432861,118.9842300415,124.65014648440001,33.0719985962,15.427330017100001,2.7400000094999997,0,2,25,1,46,348
147,1530629519308,1432308, RC,0,39.9586186,-88.445067899,0,0.0,0.0,0.0,0.0,0.0,0.0,0.0,0.0,0.0,0.0,0.0,0.0,0.0,1500,1500,0.0,0.0,40.0483121667,-88.2331081667,0.0,0.0,0.0,0.0,0.0,0.0,0.0,0.0,0.0,0.0,0.0,0,0.0,0.0,0.0,0.0,90.0,60.0,54.0,89.5087432861,118.9842300415,124.65014648440001,33.0719985962,15.427330017100001,2.7400000094999997,0,2,25,1,45,350
148,1530629519359,1432359, RC,0,39.9586186,-88.445067899,0,0.0,0.0,0.0,0.0,0.0,0.0,0.0,0.0,0.0,0.0,0.0,0.0,0.0,1500,1500,0.0,0.0,40.0483121667,-88.2331081667,0.0,0.0,0.0,0.0,0.0,0.0,0.0,0.0,0.0,0.0,0.0,0,0.0,0.0,0.0,0.0,90.0,60.0,54.0,89.5087432861,118.9842300415,124.65014648440001,33.0719985962,15.427330017100001,2.7400000094999997,0,2,25,1,52,352
149,1530629519409,1432409, RC,0,39.9586186,-88.445067899,0,0.0,0.0,0.0,0.0,0.0,0.0,0.0,0.0,0.0,0.0,0.0,0.0,0.0,1500,1500,0.0,0.0,40.0483121667,-88.2331081667,0.0,0.0,0.0,0.0,0.0,0.0,0.0,0.0,0.0,0.0,0.0,0,0.0,0.0,0.0,0.0,90.0,60.0,54.0,89.5087432861,118.9842300415,124.65014648440001,33.0719985962,15.427330017100001,2.7400000094999997,0,2,25,1,49,354
150,1530629519460,1432460, RC,0,39.9586186,-88.445067899,0,0.0,0.0,0.0,0.0,0.0,0.0,0.0,0.0,0.0,0.0,0.0,0.0,0.0,1500,1500,0.0,0.0,40.0483121667,-88.2331081667,0.0,0.0,0.0,0.0,0.0,0.0,0.0,0.0,0.0,0.0,0.0,0,0.0,0.0,0.0,0.0,90.0,60.0,52.0,89.5087432861,118.9842300415,124.65014648440001,33.0719985962,15.427330017100001,2.7400000094999997,0,2,25,1,48,357
151,1530629519510,1432510, RC,0,39.9586186,-88.445067899,0,0.0,0.0,0.0,0.0,0.0,0.0,0.0,0.0,0.0,0.0,0.0,0.0,0.0,1500,1500,0.0,0.0,40.0483121667,-88.2331081667,0.0,0.0,0.0,0.0,0.0,0.0,0.0,0.0,0.0,0.0,0.0,0,0.0,0.0,0.0,0.0,90.0,60.0,52.0,89.5087432861,118.9842300415,126.3053588867,33.0719985962,15.427330017100001,2.7400000094999997,0,2,25,1,52,359
152,1530629519561,1432561, RC,0,39.9586186,-88.445067899,0,0.0,0.0,0.0,0.0,0.0,0.0,0.0,0.0,0.0,0.0,0.0,0.0,0.0,1500,1500,0.0,0.0,40.0483121667,-88.2331081667,0.0,0.0,0.0,0.0,0.0,0.0,0.0,0.0,0.0,0.0,0.0,0,0.0,0.0,0.0,0.0,90.0,60.0,52.0,89.5087432861,118.9842300415,127.70593261719999,33.0719985962,15.427330017100001,2.7400000094999997,0,2,25,1,47,361
153,1530629519611,1432611, RC,0,39.9586186,-88.445067899,0,0.0,0.0,0.0,0.0,0.0,0.0,0.0,0.0,0.0,0.0,0.0,0.0,0.0,1500,1500,0.0,0.0,40.0483121667,-88.2331081667,0.0,0.0,0.0,0.0,0.0,0.0,0.0,0.0,0.0,0.0,0.0,0,0.0,0.0,0.0,0.0,90.0,60.0,52.0,89.5087432861,119.2388916016,128.2152252197,33.0719985962,15.427330017100001,2.7400000094999997,0,2,25,1,57,364
154,1530629519662,1432662, RC,0,39.9586186,-88.445067899,0,0.0,0.0,0.0,0.0,0.0,0.0,0.0,0.0,0.0,0.0,0.0,0.0,0.0,1500,1500,0.0,0.0,40.0483121667,-88.2331081667,0.0,0.0,0.0,0.0,0.0,0.0,0.0,0.0,0.0,0.0,0.0,0,0.0,0.0,0.0,0.0,90.0,60.0,52.0,89.5087432861,119.2388916016,128.2152252197,33.0719985962,15.427330017100001,2.7400000094999997,0,2,25,1,39,366
155,1530629519713,1432713, RC,0,39.9586186,-88.445067899,0,0.0,0.0,0.0,0.0,0.0,0.0,0.0,0.0,0.0,0.0,0.0,0.0,0.0,1500,1500,0.0,0.0,40.0483121667,-88.2331081667,0.0,0.0,0.0,0.0,0.0,0.0,0.0,0.0,0.0,0.0,0.0,0,0.0,0.0,0.0,0.0,90.0,60.0,52.0,89.5087432861,119.2388916016,128.1515655518,33.0719985962,15.427330017100001,2.7400000094999997,0,2,25,1,44,368
156,1530629519763,1432763, RC,0,39.9586186,-88.445067899,0,0.0,0.0,0.0,0.0,0.0,0.0,0.0,0.0,0.0,0.0,0.0,0.0,0.0,1500,1500,0.0,0.0,40.0483121667,-88.2331081667,0.0,0.0,0.0,0.0,0.0,0.0,0.0,0.0,0.0,0.0,0.0,0,0.0,0.0,0.0,0.0,90.0,60.0,52.0,89.5087432861,119.2388916016,128.0879058838,33.0719985962,15.427330017100001,2.7400000094999997,0,2,25,1,49,370
157,1530629519814,1432814, RC,0,39.9586186,-88.445067899,0,0.0,0.0,0.0,0.0,0.0,0.0,0.0,0.0,0.0,0.0,0.0,0.0,0.0,1500,1500,0.0,0.0,40.0483121667,-88.2331081667,0.0,0.0,0.0,0.0,0.0,0.0,0.0,0.0,0.0,0.0,0.0,0,0.0,0.0,0.0,0.0,90.0,60.0,52.0,89.5087432861,119.2388916016,128.0879058838,33.0719985962,15.422717094400001,3.3499999045999997,0,2,25,1,55,373
158,1530629519864,1432864, RC,0,39.9586186,-88.445067899,0,0.0,0.0,0.0,0.0,0.0,0.0,0.0,0.0,0.0,0.0,0.0,0.0,0.0,1500,1500,0.0,0.0,40.0483121667,-88.23310933329999,0.0,0.0,0.0,0.0,0.0,0.0,0.0,0.0,0.0,0.0,0.0,0,0.0,0.0,0.0,0.0,90.0,60.0,52.0,89.5087432861,119.2388916016,128.02423095700001,33.0719985962,15.422717094400001,3.3499999045999997,0,2,25,1,48,375
159,1530629519915,1432915, RC,0,39.9586186,-88.445067899,0,0.0,0.0,0.0,0.0,0.0,0.0,0.0,0.0,0.0,0.0,0.0,0.0,0.0,1500,1500,0.0,0.0,40.0483121667,-88.23310933329999,0.0,0.0,0.0,0.0,0.0,0.0,0.0,0.0,0.0,0.0,0.0,0,0.0,0.0,0.0,0.0,90.0,60.0,52.0,89.5087432861,119.2388916016,127.5786056519,33.0719985962,15.422717094400001,3.3499999045999997,0,2,25,1,44,377
160,1530629519965,1432965, RC,0,39.9586186,-88.445067899,0,0.0,0.0,0.0,0.0,0.0,0.0,0.0,0.0,0.0,0.0,0.0,0.0,0.0,1500,1500,0.0,0.0,40.0483121667,-88.23310933329999,0.0,0.0,0.0,0.0,0.0,0.0,0.0,0.0,0.0,0.0,0.0,0,0.0,0.0,0.0,0.0,90.0,60.0,52.0,89.5087432861,119.1752166748,127.51494598389999,33.0719985962,15.422717094400001,3.3499999045999997,0,2,25,1,62,380
161,1530629520016,1433016, RC,0,39.9586186,-88.445067899,0,0.0,0.0,0.0,0.0,0.0,0.0,0.0,0.0,0.0,0.0,0.0,0.0,0.0,1500,1500,0.0,0.0,40.0483121667,-88.23310933329999,0.0,0.0,0.0,0.0,0.0,0.0,0.0,0.0,0.0,0.0,0.0,0,0.0,0.0,0.0,0.0,90.0,60.0,52.0,89.5087432861,119.0479049683,127.51494598389999,33.0719985962,15.422717094400001,3.3499999045999997,0,2,25,1,57,382
162,1530629520067,1433067, RC,0,39.9586186,-88.445067899,0,0.0,0.0,0.0,0.0,0.0,0.0,0.0,0.0,0.0,0.0,0.0,0.0,0.0,1500,1500,0.0,0.0,40.0483121667,-88.23310933329999,0.0,0.0,0.0,0.0,0.0,0.0,0.0,0.0,0.0,0.0,0.0,0,0.0,0.0,0.0,0.0,90.0,60.0,55.0,89.5087432861,119.0479049683,127.51494598389999,33.0719985962,15.422717094400001,3.3499999045999997,0,2,25,1,58,384
163,1530629520117,1433117, RC,0,39.9586186,-88.445067899,0,0.0,0.0,0.0,0.0,0.0,0.0,0.0,0.0,0.0,0.0,0.0,0.0,0.0,1500,1500,0.0,0.0,40.0483121667,-88.23310933329999,0.0,0.0,0.0,0.0,0.0,0.0,0.0,0.0,0.0,0.0,0.0,0,0.0,0.0,0.0,0.0,90.0,60.0,55.0,89.5087432861,119.0479049683,127.32395935059999,33.0719985962,15.422717094400001,3.3499999045999997,0,2,25,1,56,386
164,1530629520168,1433168, RC,0,39.9586186,-88.445067899,0,0.0,0.0,0.0,0.0,0.0,0.0,0.0,0.0,0.0,0.0,0.0,0.0,0.0,1500,1500,0.0,0.0,40.0483121667,-88.23310933329999,0.0,0.0,0.0,0.0,0.0,0.0,0.0,0.0,0.0,0.0,0.0,0,0.0,0.0,0.0,0.0,90.0,60.0,55.0,89.5087432861,119.0479049683,125.60507202149999,33.0719985962,15.422717094400001,3.3499999045999997,0,2,25,1,38,389
165,1530629520218,1433218, RC,0,39.9586186,-88.445067899,0,0.0,0.0,0.0,0.0,0.0,0.0,0.0,0.0,0.0,0.0,0.0,0.0,0.0,1500,1500,0.0,0.0,40.0483121667,-88.23310933329999,0.0,0.0,0.0,0.0,0.0,0.0,0.0,0.0,0.0,0.0,0.0,0,0.0,0.0,0.0,0.0,90.0,60.0,55.0,89.5087432861,119.0479049683,124.65014648440001,33.0719985962,15.422717094400001,3.3499999045999997,0,2,25,1,50,391
166,1530629520269,1433269, RC,0,39.9586186,-88.445067899,0,0.0,0.0,0.0,0.0,0.0,0.0,0.0,0.0,0.0,0.0,0.0,0.0,0.0,1500,1500,0.0,0.0,40.0483121667,-88.23310933329999,0.0,0.0,0.0,0.0,0.0,0.0,0.0,0.0,0.0,0.0,0.0,0,0.0,0.0,0.0,0.0,90.0,60.0,58.0,89.5087432861,119.0479049683,124.5864868164,33.0719985962,15.422717094400001,3.3499999045999997,0,2,25,1,41,393
167,1530629520319,1433319, RC,0,39.9586186,-88.445067899,0,0.0,0.0,0.0,0.0,0.0,0.0,0.0,0.0,0.0,0.0,0.0,0.0,0.0,1500,1500,0.0,0.0,40.0483121667,-88.23310933329999,0.0,0.0,0.0,0.0,0.0,0.0,0.0,0.0,0.0,0.0,0.0,0,0.0,0.0,0.0,0.0,90.0,60.0,58.0,89.5087432861,119.0479049683,122.48564910889999,33.0719985962,15.422717094400001,3.3499999045999997,0,2,25,1,53,396
168,1530629520370,1433370, RC,0,39.9586186,-88.445067899,0,0.0,0.0,0.0,0.0,0.0,0.0,0.0,0.0,0.0,0.0,0.0,0.0,0.0,1500,1500,0.0,0.0,40.0483121667,-88.23310933329999,0.0,0.0,0.0,0.0,0.0,0.0,0.0,0.0,0.0,0.0,0.0,0,0.0,0.0,0.0,0.0,90.0,60.0,58.0,89.5087432861,119.0479049683,120.38480377200001,33.0719985962,15.422717094400001,3.3499999045999997,0,2,25,1,41,398
169,1530629520421,1433421, RC,0,39.9586186,-88.445067899,0,0.0,0.0,0.0,0.0,0.0,0.0,0.0,0.0,0.0,0.0,0.0,0.0,0.0,1500,1500,0.0,0.0,40.0483121667,-88.23310933329999,0.0,0.0,0.0,0.0,0.0,0.0,0.0,0.0,0.0,0.0,0.0,0,0.0,0.0,0.0,0.0,90.0,60.0,58.0,89.5087432861,119.0479049683,120.32112884520001,33.0719985962,15.422717094400001,3.3499999045999997,0,2,25,1,32,400
