,(0)linux time (ms),    (1)uptime  (ms),      (2)drive mode,(3)mpc step counter,(4)mpc origin latitude  (deg),(5)mpc origin longitude  (deg),(6)closest trajectory point index to robot,(7)mpc error x (W;E)  (m),(8)mpc error y (W;E)  (m),(9)abs mpc error (m),(10)input [x] for mhe (m),(11)input [y] for mhe (m),(12)input [speed] for mhe (m/s),(13)input [vyaw] for mhe (rad/s),(14)mhe output x  (m),(15)mhe output y  (m),(16)mhe output speed  (m/s),(17)mhe output yaw  (rad),(18)mpc reference heading (rad),(19)mpc turn rate command (rad/s),(20)turn rate command as PWM,(21)throttle command as PWM,(22)primary gps latitude (deg),(23)primary gps longitude (deg),(24)secondary gps latitude  (deg),(25)secondary gps longitude (deg),(26)accelerometer x (m/s^2),(27)accelerometer y (m/s^2),(28)accelerometer z (m/s^2),(29)gyro yaw rate (rad/s),(30)gyro pitch rate   (rad/s),(31)gyro roll rate (rad/s),      (32)yaw (rad),  (33)pitch   (rad),     (34)roll (rad),(35)sonar1 measurement (m),(36)ultrasonic sensor measurement (m),(37)primary gps time (s),(38)normalized turn rate command,(39)normalized throttle command,(40)speed calculation from encoder left (m/s),(41)speed calculation from encoder right (m/s),(42)front gimbal target angle (degrees from straight down),(43)left gimbal target angle  (degrees from straight down),(44)right gimbal target angle  (degrees from straight down),(45)front gimbal measured angle  (degrees from straight down),(46)left gimbal measured angle    (degrees from straight down),(47)right gimbal measured angle  (degrees from straight down),(48)internal temperature (C),(49)battery voltage (V),(50)primary gps type,(51)secondary gps type,    (52)MPC R value, (53)MPC Q[0] value,Unnamed: 54,weed_num,start
0,1530629018806,931806, RC,0,39.9586186,-88.445067899,0,0.0,0.0,0.0,0.0,0.0,0.0,0.0,0.0,0.0,0.0,0.0,0.0,0.0,1500,1500,0.0,0.0,40.0482875,-88.23273616670001,0.0,0.0,0.0,0.0,0.0,0.0,0.0,0.0,0.0,0.0,0.0,0,0.0,0.0,0.0,0.0,90.0,90.0,90.0,89.12677001950001,90.2726821899,87.66254425049999,28.229999542199998,15.6394166946,2.0799999237,0,2,25,1,68,2
1,1530629018857,931857, RC,0,39.9586186,-88.445067899,0,0.0,0.0,0.0,0.0,0.0,0.0,0.0,0.0,0.0,0.0,0.0,0.0,0.0,1500,1500,0.0,0.0,40.0482875,-88.23273616670001,0.0,0.0,0.0,0.0,0.0,0.0,0.0,0.0,0.0,0.0,0.0,0,0.0,0.0,0.0,0.0,90.0,90.0,90.0,89.12677001950001,89.44507598879999,87.7262039185,28.229999542199998,15.6394166946,2.0799999237,0,2,25,1,124,4
2,1530629018908,931908, RC,0,39.9586186,-88.445067899,0,0.0,0.0,0.0,0.0,0.0,0.0,0.0,0.0,0.0,0.0,0.0,0.0,0.0,1500,1500,0.0,0.0,40.0482875,-88.23273616670001,0.0,0.0,0.0,0.0,0.0,0.0,0.0,0.0,0.0,0.0,0.0,0,0.0,0.0,0.0,0.0,90.0,90.0,90.0,89.12677001950001,87.9808578491,88.235496521,28.229999542199998,15.6394166946,2.0799999237,0,2,25,1,127,7
3,1530629018958,931958, RC,0,39.9586186,-88.445067899,0,0.0,0.0,0.0,0.0,0.0,0.0,0.0,0.0,0.0,0.0,0.0,0.0,0.0,1500,1500,0.0,0.0,40.0482875,-88.23273616670001,0.0,0.0,0.0,0.0,0.0,0.0,0.0,0.0,0.0,0.0,0.0,0,0.0,0.0,0.0,0.0,90.0,90.0,90.0,89.12677001950001,89.0631027222,88.235496521,28.229999542199998,15.6394166946,2.0799999237,0,2,25,1,115,9
4,1530629019009,932009, RC,0,39.9586186,-88.445067899,0,0.0,0.0,0.0,0.0,0.0,0.0,0.0,0.0,0.0,0.0,0.0,0.0,0.0,1500,1500,0.0,0.0,40.0482875,-88.23273616670001,0.0,0.0,0.0,0.0,0.0,0.0,0.0,0.0,0.0,0.0,0.0,0,0.0,0.0,0.0,0.0,90.0,90.0,90.0,89.12677001950001,89.9543762207,88.235496521,28.229999542199998,15.6394166946,2.0799999237,0,2,25,1,119,11
5,1530629019059,932059, RC,0,39.9586186,-88.445067899,0,0.0,0.0,0.0,0.0,0.0,0.0,0.0,0.0,0.0,0.0,0.0,0.0,0.0,1500,1500,0.0,0.0,40.0482875,-88.23273616670001,0.0,0.0,0.0,0.0,0.0,0.0,0.0,0.0,0.0,0.0,0.0,0,0.0,0.0,0.0,0.0,90.0,90.0,90.0,89.12677001950001,89.3814163208,88.1718444824,28.229999542199998,15.6394166946,2.0799999237,0,2,25,1,145,14
6,1530629019110,932110, RC,0,39.9586186,-88.445067899,0,0.0,0.0,0.0,0.0,0.0,0.0,0.0,0.0,0.0,0.0,0.0,0.0,0.0,1500,1500,0.0,0.0,40.0482875,-88.23273616670001,0.0,0.0,0.0,0.0,0.0,0.0,0.0,0.0,0.0,0.0,0.0,0,0.0,0.0,0.0,0.0,90.0,90.0,90.0,89.12677001950001,89.44507598879999,89.0631027222,28.229999542199998,15.6394166946,2.0799999237,0,2,25,1,157,16
7,1530629019161,932161, RC,0,39.9586186,-88.445067899,0,0.0,0.0,0.0,0.0,0.0,0.0,0.0,0.0,0.0,0.0,0.0,0.0,0.0,1500,1500,0.0,0.0,40.0482875,-88.23273616670001,0.0,0.0,0.0,0.0,0.0,0.0,0.0,0.0,0.0,0.0,0.0,0,0.0,0.0,0.0,0.0,90.0,90.0,90.0,89.12677001950001,89.44507598879999,89.9543762207,28.229999542199998,15.6394166946,2.0799999237,0,2,25,1,147,19
8,1530629019211,932211, RC,0,39.9586186,-88.445067899,0,0.0,0.0,0.0,0.0,0.0,0.0,0.0,0.0,0.0,0.0,0.0,0.0,0.0,1500,1500,0.0,0.0,40.0482875,-88.23273616670001,0.0,0.0,0.0,0.0,0.0,0.0,0.0,0.0,0.0,0.0,0.0,0,0.0,0.0,0.0,0.0,90.0,90.0,90.0,89.12677001950001,89.44507598879999,89.8907089233,28.229999542199998,15.6394166946,2.0799999237,0,2,25,1,157,21
9,1530629019262,932262, RC,0,39.9586186,-88.445067899,0,0.0,0.0,0.0,0.0,0.0,0.0,0.0,0.0,0.0,0.0,0.0,0.0,0.0,1500,1500,0.0,0.0,40.0482875,-88.23273616670001,0.0,0.0,0.0,0.0,0.0,0.0,0.0,0.0,0.0,0.0,0.0,0,0.0,0.0,0.0,0.0,90.0,90.0,90.0,89.12677001950001,89.44507598879999,89.8907089233,28.229999542199998,15.6394166946,2.0799999237,0,2,25,1,152,24
10,1530629019312,932312, RC,0,39.9586186,-88.445067899,0,0.0,0.0,0.0,0.0,0.0,0.0,0.0,0.0,0.0,0.0,0.0,0.0,0.0,1500,1500,0.0,0.0,40.0482875,-88.23273616670001,0.0,0.0,0.0,0.0,0.0,0.0,0.0,0.0,0.0,0.0,0.0,0,0.0,0.0,0.0,0.0,90.0,90.0,90.0,89.12677001950001,89.44507598879999,89.8907089233,28.229999542199998,15.6394166946,2.0799999237,0,2,25,1,159,26
11,1530629019363,932363, RC,0,39.9586186,-88.445067899,0,0.0,0.0,0.0,0.0,0.0,0.0,0.0,0.0,0.0,0.0,0.0,0.0,0.0,1500,1500,0.0,0.0,40.0482875,-88.23273616670001,0.0,0.0,0.0,0.0,0.0,0.0,0.0,0.0,0.0,0.0,0.0,0,0.0,0.0,0.0,0.0,90.0,90.0,90.0,89.12677001950001,89.44507598879999,89.8907089233,28.229999542199998,15.6394166946,2.0799999237,0,2,25,1,160,29
12,1530629019413,932413, RC,0,39.9586186,-88.445067899,0,0.0,0.0,0.0,0.0,0.0,0.0,0.0,0.0,0.0,0.0,0.0,0.0,0.0,1500,1500,0.0,0.0,40.0482875,-88.23273616670001,0.0,0.0,0.0,0.0,0.0,0.0,0.0,0.0,0.0,0.0,0.0,0,0.0,0.0,0.0,0.0,90.0,90.0,90.0,89.12677001950001,89.44507598879999,89.82704925540001,28.229999542199998,15.6394166946,2.0799999237,0,2,25,1,149,31
13,1530629019464,932464, RC,0,39.9586186,-88.445067899,0,0.0,0.0,0.0,0.0,0.0,0.0,0.0,0.0,0.0,0.0,0.0,0.0,0.0,1500,1500,0.0,0.0,40.0482875,-88.23273616670001,0.0,0.0,0.0,0.0,0.0,0.0,0.0,0.0,0.0,0.0,0.0,0,0.0,0.0,0.0,0.0,90.0,90.0,90.0,89.12677001950001,89.44507598879999,89.82704925540001,28.229999542199998,15.6394166946,2.0799999237,0,2,25,1,139,34
14,1530629019515,932515, RC,0,39.9586186,-88.445067899,0,0.0,0.0,0.0,0.0,0.0,0.0,0.0,0.0,0.0,0.0,0.0,0.0,0.0,1500,1500,0.0,0.0,40.0482875,-88.23273616670001,0.0,0.0,0.0,0.0,0.0,0.0,0.0,0.0,0.0,0.0,0.0,0,0.0,0.0,0.0,0.0,90.0,90.0,90.0,89.12677001950001,89.44507598879999,89.82704925540001,28.229999542199998,15.6394166946,2.0799999237,0,2,25,1,145,36
15,1530629019565,932565, RC,0,39.9586186,-88.445067899,0,0.0,0.0,0.0,0.0,0.0,0.0,0.0,0.0,0.0,0.0,0.0,0.0,0.0,1500,1500,0.0,0.0,40.0482875,-88.23273616670001,0.0,0.0,0.0,0.0,0.0,0.0,0.0,0.0,0.0,0.0,0.0,0,0.0,0.0,0.0,0.0,90.0,90.0,90.0,89.12677001950001,89.44507598879999,89.82704925540001,28.229999542199998,15.6394166946,2.0799999237,0,2,25,1,158,39
16,1530629019616,932616, RC,0,39.9586186,-88.445067899,0,0.0,0.0,0.0,0.0,0.0,0.0,0.0,0.0,0.0,0.0,0.0,0.0,0.0,1500,1500,0.0,0.0,40.0482875,-88.23273616670001,0.0,0.0,0.0,0.0,0.0,0.0,0.0,0.0,0.0,0.0,0.0,0,0.0,0.0,0.0,0.0,90.0,90.0,90.0,89.12677001950001,89.44507598879999,89.6997299194,28.229999542199998,15.6394166946,2.0799999237,0,2,25,1,148,41
17,1530629019666,932666, RC,0,39.9586186,-88.445067899,0,0.0,0.0,0.0,0.0,0.0,0.0,0.0,0.0,0.0,0.0,0.0,0.0,0.0,1500,1500,0.0,0.0,40.0482875,-88.23273616670001,0.0,0.0,0.0,0.0,0.0,0.0,0.0,0.0,0.0,0.0,0.0,0,0.0,0.0,0.0,0.0,90.0,90.0,90.0,89.12677001950001,89.44507598879999,89.63606262209998,28.229999542199998,15.6394166946,2.0799999237,0,2,25,1,152,44
18,1530629019717,932717, RC,0,39.9586186,-88.445067899,0,0.0,0.0,0.0,0.0,0.0,0.0,0.0,0.0,0.0,0.0,0.0,0.0,0.0,1500,1500,0.0,0.0,40.0482875,-88.23273616670001,0.0,0.0,0.0,0.0,0.0,0.0,0.0,0.0,0.0,0.0,0.0,0,0.0,0.0,0.0,0.0,90.0,90.0,90.0,89.12677001950001,89.44507598879999,89.5087432861,28.229999542199998,15.6394166946,2.0799999237,0,2,25,1,151,46
19,1530629019767,932767, RC,0,39.9586186,-88.445067899,0,0.0,0.0,0.0,0.0,0.0,0.0,0.0,0.0,0.0,0.0,0.0,0.0,0.0,1500,1500,0.0,0.0,40.0482875,-88.23273616670001,0.0,0.0,0.0,0.0,0.0,0.0,0.0,0.0,0.0,0.0,0.0,0,0.0,0.0,0.0,0.0,90.0,90.0,90.0,89.12677001950001,89.44507598879999,89.44507598879999,28.229999542199998,15.6346511841,2.25,0,2,25,1,152,49
20,1530629019818,932818, RC,0,39.9586186,-88.445067899,0,0.0,0.0,0.0,0.0,0.0,0.0,0.0,0.0,0.0,0.0,0.0,0.0,0.0,1500,1500,0.0,0.0,40.0482888333,-88.232735,0.0,0.0,0.0,0.0,0.0,0.0,0.0,0.0,0.0,0.0,0.0,0,0.0,0.0,0.0,0.0,90.0,90.0,90.0,89.12677001950001,89.44507598879999,89.3814163208,28.229999542199998,15.6346511841,2.25,0,2,25,1,159,51
21,1530629019869,932869, RC,0,39.9586186,-88.445067899,0,0.0,0.0,0.0,0.0,0.0,0.0,0.0,0.0,0.0,0.0,0.0,0.0,0.0,1500,1500,0.0,0.0,40.0482888333,-88.232735,0.0,0.0,0.0,0.0,0.0,0.0,0.0,0.0,0.0,0.0,0.0,0,0.0,0.0,0.0,0.0,90.0,90.0,90.0,89.12677001950001,89.44507598879999,89.1904296875,28.229999542199998,15.6346511841,2.25,0,2,25,1,149,54
22,1530629019919,932919, RC,0,39.9586186,-88.445067899,0,0.0,0.0,0.0,0.0,0.0,0.0,0.0,0.0,0.0,0.0,0.0,0.0,0.0,1500,1500,0.0,0.0,40.0482888333,-88.232735,0.0,0.0,0.0,0.0,0.0,0.0,0.0,0.0,0.0,0.0,0.0,0,0.0,0.0,0.0,0.0,90.0,90.0,90.0,89.12677001950001,89.44507598879999,89.12677001950001,28.229999542199998,15.6346511841,2.25,0,2,25,1,152,56
23,1530629019970,932970, RC,0,39.9586186,-88.445067899,0,0.0,0.0,0.0,0.0,0.0,0.0,0.0,0.0,0.0,0.0,0.0,0.0,0.0,1500,1500,0.0,0.0,40.0482888333,-88.232735,0.0,0.0,0.0,0.0,0.0,0.0,0.0,0.0,0.0,0.0,0.0,0,0.0,0.0,0.0,0.0,90.0,90.0,90.0,89.12677001950001,89.44507598879999,89.12677001950001,28.229999542199998,15.6346511841,2.25,0,2,25,1,149,58
24,1530629020020,933020, RC,0,39.9586186,-88.445067899,0,0.0,0.0,0.0,0.0,0.0,0.0,0.0,0.0,0.0,0.0,0.0,0.0,0.0,1500,1500,0.0,0.0,40.0482888333,-88.232735,0.0,0.0,0.0,0.0,0.0,0.0,0.0,0.0,0.0,0.0,0.0,0,0.0,0.0,0.0,0.0,90.0,90.0,90.0,89.12677001950001,89.44507598879999,89.12677001950001,28.229999542199998,15.6346511841,2.25,0,2,25,1,155,61
25,1530629020071,933071, RC,0,39.9586186,-88.445067899,0,0.0,0.0,0.0,0.0,0.0,0.0,0.0,0.0,0.0,0.0,0.0,0.0,0.0,1500,1500,0.0,0.0,40.0482888333,-88.232735,0.0,0.0,0.0,0.0,0.0,0.0,0.0,0.0,0.0,0.0,0.0,0,0.0,0.0,0.0,0.0,90.0,90.0,90.0,89.5087432861,89.44507598879999,89.0631027222,28.229999542199998,15.6346511841,2.25,0,2,25,1,147,63
26,1530629020121,933121, RC,0,39.9586186,-88.445067899,0,0.0,0.0,0.0,0.0,0.0,0.0,0.0,0.0,0.0,0.0,0.0,0.0,0.0,1500,1500,0.0,0.0,40.0482888333,-88.232735,0.0,0.0,0.0,0.0,0.0,0.0,0.0,0.0,0.0,0.0,0.0,0,0.0,0.0,0.0,0.0,90.0,90.0,90.0,89.5087432861,89.44507598879999,89.0631027222,28.229999542199998,15.6346511841,2.25,0,2,25,1,156,65
27,1530629020172,933172, RC,0,39.9586186,-88.445067899,0,0.0,0.0,0.0,0.0,0.0,0.0,0.0,0.0,0.0,0.0,0.0,0.0,0.0,1500,1500,0.0,0.0,40.0482888333,-88.232735,0.0,0.0,0.0,0.0,0.0,0.0,0.0,0.0,0.0,0.0,0.0,0,0.0,0.0,0.0,0.0,90.0,90.0,90.0,89.5087432861,89.44507598879999,89.0631027222,28.229999542199998,15.6346511841,2.25,0,2,25,1,151,68
28,1530629020222,933222, RC,0,39.9586186,-88.445067899,0,0.0,0.0,0.0,0.0,0.0,0.0,0.0,0.0,0.0,0.0,0.0,0.0,0.0,1500,1500,0.0,0.0,40.0482888333,-88.232735,0.0,0.0,0.0,0.0,0.0,0.0,0.0,0.0,0.0,0.0,0.0,0,0.0,0.0,0.0,0.0,90.0,90.0,90.0,89.5087432861,89.44507598879999,89.0631027222,28.229999542199998,15.6346511841,2.25,0,2,25,1,156,70
29,1530629020273,933273, RC,0,39.9586186,-88.445067899,0,0.0,0.0,0.0,0.0,0.0,0.0,0.0,0.0,0.0,0.0,0.0,0.0,0.0,1500,1500,0.0,0.0,40.0482888333,-88.232735,0.0,0.0,0.0,0.0,0.0,0.0,0.0,0.0,0.0,0.0,0.0,0,0.0,0.0,0.0,0.0,90.0,90.0,90.0,89.5087432861,89.44507598879999,89.0631027222,28.229999542199998,15.6346511841,2.25,0,2,25,1,154,72
30,1530629020324,933324, RC,0,39.9586186,-88.445067899,0,0.0,0.0,0.0,0.0,0.0,0.0,0.0,0.0,0.0,0.0,0.0,0.0,0.0,1500,1500,0.0,0.0,40.0482888333,-88.232735,0.0,0.0,0.0,0.0,0.0,0.0,0.0,0.0,0.0,0.0,0.0,0,0.0,0.0,0.0,0.0,90.0,90.0,90.0,89.5087432861,89.44507598879999,89.0631027222,28.229999542199998,15.6346511841,2.25,0,2,25,1,157,75
31,1530629020374,933374, RC,0,39.9586186,-88.445067899,0,0.0,0.0,0.0,0.0,0.0,0.0,0.0,0.0,0.0,0.0,0.0,0.0,0.0,1500,1500,0.0,0.0,40.0482888333,-88.232735,0.0,0.0,0.0,0.0,0.0,0.0,0.0,0.0,0.0,0.0,0.0,0,0.0,0.0,0.0,0.0,90.0,90.0,90.0,89.5087432861,89.44507598879999,89.0631027222,28.229999542199998,15.6346511841,2.25,0,2,25,1,147,77
32,1530629020425,933425, RC,0,39.9586186,-88.445067899,0,0.0,0.0,0.0,0.0,0.0,0.0,0.0,0.0,0.0,0.0,0.0,0.0,0.0,1500,1500,0.0,0.0,40.0482888333,-88.232735,0.0,0.0,0.0,0.0,0.0,0.0,0.0,0.0,0.0,0.0,0.0,0,0.0,0.0,0.0,0.0,90.0,90.0,90.0,89.5087432861,89.44507598879999,89.0631027222,28.229999542199998,15.6346511841,2.25,0,2,25,1,149,79
33,1530629020475,933475, RC,0,39.9586186,-88.445067899,0,0.0,0.0,0.0,0.0,0.0,0.0,0.0,0.0,0.0,0.0,0.0,0.0,0.0,1500,1500,0.0,0.0,40.0482888333,-88.232735,0.0,0.0,0.0,0.0,0.0,0.0,0.0,0.0,0.0,0.0,0.0,0,0.0,0.0,0.0,0.0,90.0,90.0,90.0,89.5087432861,89.44507598879999,89.0631027222,28.229999542199998,15.6346511841,2.25,0,2,25,1,156,82
34,1530629020526,933526, RC,0,39.9586186,-88.445067899,0,0.0,0.0,0.0,0.0,0.0,0.0,0.0,0.0,0.0,0.0,0.0,0.0,0.0,1500,1500,0.0,0.0,40.0482888333,-88.232735,0.0,0.0,0.0,0.0,0.0,0.0,0.0,0.0,0.0,0.0,0.0,0,0.0,0.0,0.0,0.0,90.0,90.0,90.0,89.5087432861,89.44507598879999,89.0631027222,28.229999542199998,15.6346511841,2.25,0,2,25,1,157,84
35,1530629020576,933576, RC,0,39.9586186,-88.445067899,0,0.0,0.0,0.0,0.0,0.0,0.0,0.0,0.0,0.0,0.0,0.0,0.0,0.0,1500,1500,0.0,0.0,40.0482888333,-88.232735,0.0,0.0,0.0,0.0,0.0,0.0,0.0,0.0,0.0,0.0,0.0,0,0.0,0.0,0.0,0.0,90.0,90.0,90.0,89.5087432861,89.3814163208,89.0631027222,28.229999542199998,15.6346511841,2.25,0,2,25,1,152,86
36,1530629020627,933627, RC,0,39.9586186,-88.445067899,0,0.0,0.0,0.0,0.0,0.0,0.0,0.0,0.0,0.0,0.0,0.0,0.0,0.0,1500,1500,0.0,0.0,40.0482888333,-88.232735,0.0,0.0,0.0,0.0,0.0,0.0,0.0,0.0,0.0,0.0,0.0,0,0.0,0.0,0.0,0.0,90.0,90.0,90.0,89.5087432861,88.55381011959999,89.0631027222,28.229999542199998,15.6346511841,2.25,0,2,25,1,149,89
37,1530629020677,933677, RC,0,39.9586186,-88.445067899,0,0.0,0.0,0.0,0.0,0.0,0.0,0.0,0.0,0.0,0.0,0.0,0.0,0.0,1500,1500,0.0,0.0,40.0482888333,-88.232735,0.0,0.0,0.0,0.0,0.0,0.0,0.0,0.0,0.0,0.0,0.0,0,0.0,0.0,0.0,0.0,90.0,90.0,90.0,89.5087432861,88.8721160889,89.0631027222,28.229999542199998,15.6346511841,2.25,0,2,25,1,143,91
38,1530629020728,933728, RC,0,39.9586186,-88.445067899,0,0.0,0.0,0.0,0.0,0.0,0.0,0.0,0.0,0.0,0.0,0.0,0.0,0.0,1500,1500,0.0,0.0,40.0482888333,-88.232735,0.0,0.0,0.0,0.0,0.0,0.0,0.0,0.0,0.0,0.0,0.0,0,0.0,0.0,0.0,0.0,90.0,90.0,90.0,89.5087432861,89.0631027222,89.0631027222,28.229999542199998,15.6346511841,2.25,0,2,25,1,160,93
39,1530629020779,933779, RC,0,39.9586186,-88.445067899,0,0.0,0.0,0.0,0.0,0.0,0.0,0.0,0.0,0.0,0.0,0.0,0.0,0.0,1500,1500,0.0,0.0,40.0482888333,-88.232735,0.0,0.0,0.0,0.0,0.0,0.0,0.0,0.0,0.0,0.0,0.0,0,0.0,0.0,0.0,0.0,90.0,90.0,90.0,89.5087432861,89.0631027222,89.0631027222,28.229999542199998,15.6299161911,2.8600001335000003,0,2,25,1,160,96
40,1530629020829,933829, RC,0,39.9586186,-88.445067899,0,0.0,0.0,0.0,0.0,0.0,0.0,0.0,0.0,0.0,0.0,0.0,0.0,0.0,1500,1500,0.0,0.0,40.048289,-88.2327348333,0.0,0.0,0.0,0.0,0.0,0.0,0.0,0.0,0.0,0.0,0.0,0,0.0,0.0,0.0,0.0,90.0,90.0,90.0,89.5087432861,89.0631027222,89.0631027222,28.229999542199998,15.6299161911,2.8600001335000003,0,2,25,1,159,98
41,1530629020880,933880, RC,0,39.9586186,-88.445067899,0,0.0,0.0,0.0,0.0,0.0,0.0,0.0,0.0,0.0,0.0,0.0,0.0,0.0,1500,1500,0.0,0.0,40.048289,-88.2327348333,0.0,0.0,0.0,0.0,0.0,0.0,0.0,0.0,0.0,0.0,0.0,0,0.0,0.0,0.0,0.0,90.0,90.0,90.0,89.5087432861,89.0631027222,89.0631027222,28.229999542199998,15.6299161911,2.8600001335000003,0,2,25,1,166,100
42,1530629020930,933930, RC,0,39.9586186,-88.445067899,0,0.0,0.0,0.0,0.0,0.0,0.0,0.0,0.0,0.0,0.0,0.0,0.0,0.0,1500,1500,0.0,0.0,40.048289,-88.2327348333,0.0,0.0,0.0,0.0,0.0,0.0,0.0,0.0,0.0,0.0,0.0,0,0.0,0.0,0.0,0.0,90.0,90.0,90.0,89.5087432861,89.0631027222,89.0631027222,28.229999542199998,15.6299161911,2.8600001335000003,0,2,25,1,159,102
43,1530629020981,933981, RC,0,39.9586186,-88.445067899,0,0.0,0.0,0.0,0.0,0.0,0.0,0.0,0.0,0.0,0.0,0.0,0.0,0.0,1500,1500,0.0,0.0,40.048289,-88.2327348333,0.0,0.0,0.0,0.0,0.0,0.0,0.0,0.0,0.0,0.0,0.0,0,0.0,0.0,0.0,0.0,90.0,90.0,90.0,89.5087432861,89.0631027222,89.0631027222,28.229999542199998,15.6299161911,2.8600001335000003,0,2,25,1,174,105
44,1530629021032,934032, RC,0,39.9586186,-88.445067899,0,0.0,0.0,0.0,0.0,0.0,0.0,0.0,0.0,0.0,0.0,0.0,0.0,0.0,1500,1500,0.0,0.0,40.048289,-88.2327348333,0.0,0.0,0.0,0.0,0.0,0.0,0.0,0.0,0.0,0.0,0.0,0,0.0,0.0,0.0,0.0,90.0,90.0,90.0,89.5087432861,89.0631027222,89.0631027222,28.229999542199998,15.6299161911,2.8600001335000003,0,2,25,1,151,107
45,1530629021082,934082, RC,0,39.9586186,-88.445067899,0,0.0,0.0,0.0,0.0,0.0,0.0,0.0,0.0,0.0,0.0,0.0,0.0,0.0,1500,1500,0.0,0.0,40.048289,-88.2327348333,0.0,0.0,0.0,0.0,0.0,0.0,0.0,0.0,0.0,0.0,0.0,0,0.0,0.0,0.0,0.0,90.0,90.0,90.0,89.5087432861,89.0631027222,89.0631027222,28.229999542199998,15.6299161911,2.8600001335000003,0,2,25,1,144,110
46,1530629021133,934133, RC,0,39.9586186,-88.445067899,0,0.0,0.0,0.0,0.0,0.0,0.0,0.0,0.0,0.0,0.0,0.0,0.0,0.0,1500,1500,0.0,0.0,40.048289,-88.2327348333,0.0,0.0,0.0,0.0,0.0,0.0,0.0,0.0,0.0,0.0,0.0,0,0.0,0.0,0.0,0.0,90.0,90.0,90.0,89.5087432861,89.0631027222,89.0631027222,28.229999542199998,15.6299161911,2.8600001335000003,0,2,25,1,162,112
47,1530629021183,934183, RC,0,39.9586186,-88.445067899,0,0.0,0.0,0.0,0.0,0.0,0.0,0.0,0.0,0.0,0.0,0.0,0.0,0.0,1500,1500,0.0,0.0,40.048289,-88.2327348333,0.0,0.0,0.0,0.0,0.0,0.0,0.0,0.0,0.0,0.0,0.0,0,0.0,0.0,0.0,0.0,90.0,90.0,90.0,89.5087432861,89.0631027222,89.0631027222,28.229999542199998,15.6299161911,2.8600001335000003,0,2,25,1,153,114
48,1530629021234,934234, RC,0,39.9586186,-88.445067899,0,0.0,0.0,0.0,0.0,0.0,0.0,0.0,0.0,0.0,0.0,0.0,0.0,0.0,1500,1500,0.0,0.0,40.048289,-88.2327348333,0.0,0.0,0.0,0.0,0.0,0.0,0.0,0.0,0.0,0.0,0.0,0,0.0,0.0,0.0,0.0,90.0,90.0,90.0,89.5087432861,89.0631027222,89.0631027222,28.229999542199998,15.6299161911,2.8600001335000003,0,2,25,1,155,117
49,1530629021285,934285, RC,0,39.9586186,-88.445067899,0,0.0,0.0,0.0,0.0,0.0,0.0,0.0,0.0,0.0,0.0,0.0,0.0,0.0,1500,1500,0.0,0.0,40.048289,-88.2327348333,0.0,0.0,0.0,0.0,0.0,0.0,0.0,0.0,0.0,0.0,0.0,0,0.0,0.0,0.0,0.0,90.0,90.0,90.0,89.5087432861,89.0631027222,89.0631027222,28.229999542199998,15.6299161911,2.8600001335000003,0,2,25,1,160,119
50,1530629021335,934335, RC,0,39.9586186,-88.445067899,0,0.0,0.0,0.0,0.0,0.0,0.0,0.0,0.0,0.0,0.0,0.0,0.0,0.0,1500,1500,0.0,0.0,40.048289,-88.2327348333,0.0,0.0,0.0,0.0,0.0,0.0,0.0,0.0,0.0,0.0,0.0,0,0.0,0.0,0.0,0.0,90.0,90.0,90.0,89.5087432861,89.0631027222,89.0631027222,28.229999542199998,15.6299161911,2.8600001335000003,0,2,25,1,160,121
51,1530629021386,934386, RC,0,39.9586186,-88.445067899,0,0.0,0.0,0.0,0.0,0.0,0.0,0.0,0.0,0.0,0.0,0.0,0.0,0.0,1500,1500,0.0,0.0,40.048289,-88.2327348333,0.0,0.0,0.0,0.0,0.0,0.0,0.0,0.0,0.0,0.0,0.0,0,0.0,0.0,0.0,0.0,90.0,90.0,90.0,89.5087432861,89.0631027222,89.0631027222,28.229999542199998,15.6299161911,2.8600001335000003,0,2,25,1,159,124
52,1530629021436,934436, RC,0,39.9586186,-88.445067899,0,0.0,0.0,0.0,0.0,0.0,0.0,0.0,0.0,0.0,0.0,0.0,0.0,0.0,1500,1500,0.0,0.0,40.048289,-88.2327348333,0.0,0.0,0.0,0.0,0.0,0.0,0.0,0.0,0.0,0.0,0.0,0,0.0,0.0,0.0,0.0,90.0,90.0,90.0,89.5087432861,89.0631027222,89.0631027222,28.229999542199998,15.6299161911,2.8600001335000003,0,2,25,1,151,126
53,1530629021487,934487, RC,0,39.9586186,-88.445067899,0,0.0,0.0,0.0,0.0,0.0,0.0,0.0,0.0,0.0,0.0,0.0,0.0,0.0,1500,1500,0.0,0.0,40.048289,-88.2327348333,0.0,0.0,0.0,0.0,0.0,0.0,0.0,0.0,0.0,0.0,0.0,0,0.0,0.0,0.0,0.0,90.0,90.0,90.0,89.5087432861,89.0631027222,89.0631027222,28.229999542199998,15.6299161911,2.8600001335000003,0,2,25,1,149,128
54,1530629021538,934538, RC,0,39.9586186,-88.445067899,0,0.0,0.0,0.0,0.0,0.0,0.0,0.0,0.0,0.0,0.0,0.0,0.0,0.0,1500,1500,0.0,0.0,40.048289,-88.2327348333,0.0,0.0,0.0,0.0,0.0,0.0,0.0,0.0,0.0,0.0,0.0,0,0.0,0.0,0.0,0.0,90.0,90.0,90.0,89.5087432861,89.0631027222,89.0631027222,28.229999542199998,15.6299161911,2.8600001335000003,0,2,25,1,150,131
55,1530629021588,934588, RC,0,39.9586186,-88.445067899,0,0.0,0.0,0.0,0.0,0.0,0.0,0.0,0.0,0.0,0.0,0.0,0.0,0.0,1500,1500,0.0,0.0,40.048289,-88.2327348333,0.0,0.0,0.0,0.0,0.0,0.0,0.0,0.0,0.0,0.0,0.0,0,0.0,0.0,0.0,0.0,90.0,90.0,90.0,89.5087432861,89.0631027222,89.0631027222,28.229999542199998,15.6299161911,2.8600001335000003,0,2,25,1,159,134
56,1530629021639,934639, RC,0,39.9586186,-88.445067899,0,0.0,0.0,0.0,0.0,0.0,0.0,0.0,0.0,0.0,0.0,0.0,0.0,0.0,1500,1500,0.0,0.0,40.048289,-88.2327348333,0.0,0.0,0.0,0.0,0.0,0.0,0.0,0.0,0.0,0.0,0.0,0,0.0,0.0,0.0,0.0,90.0,90.0,90.0,89.5087432861,89.0631027222,89.0631027222,28.229999542199998,15.6299161911,2.8600001335000003,0,2,25,1,140,137
57,1530629021689,934689, RC,0,39.9586186,-88.445067899,0,0.0,0.0,0.0,0.0,0.0,0.0,0.0,0.0,0.0,0.0,0.0,0.0,0.0,1500,1500,0.0,0.0,40.048289,-88.2327348333,0.0,0.0,0.0,0.0,0.0,0.0,0.0,0.0,0.0,0.0,0.0,0,0.0,0.0,0.0,0.0,90.0,90.0,90.0,89.5087432861,89.0631027222,89.0631027222,28.229999542199998,15.6299161911,2.8600001335000003,0,2,25,1,156,139
58,1530629021740,934740, RC,0,39.9586186,-88.445067899,0,0.0,0.0,0.0,0.0,0.0,0.0,0.0,0.0,0.0,0.0,0.0,0.0,0.0,1500,1500,0.0,0.0,40.048289,-88.2327348333,0.0,0.0,0.0,0.0,0.0,0.0,0.0,0.0,0.0,0.0,0.0,0,0.0,0.0,0.0,0.0,90.0,90.0,90.0,89.5087432861,89.0631027222,89.0631027222,28.229999542199998,15.6299161911,2.8600001335000003,0,2,25,1,149,142
59,1530629021790,934790, RC,0,39.9586186,-88.445067899,0,0.0,0.0,0.0,0.0,0.0,0.0,0.0,0.0,0.0,0.0,0.0,0.0,0.0,1500,1500,0.0,0.0,40.048289,-88.2327348333,0.0,0.0,0.0,0.0,0.0,0.0,0.0,0.0,0.0,0.0,0.0,0,0.0,0.0,0.0,0.0,90.0,90.0,90.0,89.5087432861,89.0631027222,89.0631027222,28.229999542199998,15.625108718900002,2.5699999332,0,2,25,1,164,144
60,1530629021841,934841, RC,0,39.9586186,-88.445067899,0,0.0,0.0,0.0,0.0,0.0,0.0,0.0,0.0,0.0,0.0,0.0,0.0,0.0,1500,1500,0.0,0.0,40.048289,-88.2327348333,0.0,0.0,0.0,0.0,0.0,0.0,0.0,0.0,0.0,0.0,0.0,0,0.0,0.0,0.0,0.0,90.0,90.0,90.0,89.5087432861,89.0631027222,89.0631027222,28.229999542199998,15.625108718900002,2.5699999332,0,2,25,1,150,146
61,1530629021891,934891, RC,0,39.9586186,-88.445067899,0,0.0,0.0,0.0,0.0,0.0,0.0,0.0,0.0,0.0,0.0,0.0,0.0,0.0,1500,1500,0.0,0.0,40.0482896667,-88.2327333333,0.0,0.0,0.0,0.0,0.0,0.0,0.0,0.0,0.0,0.0,0.0,0,0.0,0.0,0.0,0.0,90.0,90.0,90.0,89.5087432861,89.0631027222,89.0631027222,28.229999542199998,15.625108718900002,2.5699999332,0,2,25,1,151,148
62,1530629021942,934942, RC,0,39.9586186,-88.445067899,0,0.0,0.0,0.0,0.0,0.0,0.0,0.0,0.0,0.0,0.0,0.0,0.0,0.0,1500,1500,0.0,0.0,40.0482896667,-88.2327333333,0.0,0.0,0.0,0.0,0.0,0.0,0.0,0.0,0.0,0.0,0.0,0,0.0,0.0,0.0,0.0,90.0,90.0,90.0,89.5087432861,89.0631027222,89.0631027222,28.229999542199998,15.625108718900002,2.5699999332,0,2,25,1,144,151
63,1530629021993,934993, RC,0,39.9586186,-88.445067899,0,0.0,0.0,0.0,0.0,0.0,0.0,0.0,0.0,0.0,0.0,0.0,0.0,0.0,1500,1500,0.0,0.0,40.0482896667,-88.2327333333,0.0,0.0,0.0,0.0,0.0,0.0,0.0,0.0,0.0,0.0,0.0,0,0.0,0.0,0.0,0.0,90.0,90.0,90.0,89.5087432861,89.0631027222,89.0631027222,28.229999542199998,15.625108718900002,2.5699999332,0,2,25,1,142,153
64,1530629022043,935043, RC,0,39.9586186,-88.445067899,0,0.0,0.0,0.0,0.0,0.0,0.0,0.0,0.0,0.0,0.0,0.0,0.0,0.0,1500,1500,0.0,0.0,40.0482896667,-88.2327333333,0.0,0.0,0.0,0.0,0.0,0.0,0.0,0.0,0.0,0.0,0.0,0,0.0,0.0,0.0,0.0,90.0,90.0,90.0,89.5087432861,89.0631027222,89.0631027222,28.229999542199998,15.625108718900002,2.5699999332,0,2,25,1,140,156
65,1530629022094,935094, RC,0,39.9586186,-88.445067899,0,0.0,0.0,0.0,0.0,0.0,0.0,0.0,0.0,0.0,0.0,0.0,0.0,0.0,1500,1500,0.0,0.0,40.0482896667,-88.2327333333,0.0,0.0,0.0,0.0,0.0,0.0,0.0,0.0,0.0,0.0,0.0,0,0.0,0.0,0.0,0.0,90.0,90.0,90.0,89.5087432861,89.0631027222,89.0631027222,28.229999542199998,15.625108718900002,2.5699999332,0,2,25,1,149,158
66,1530629022144,935144, RC,0,39.9586186,-88.445067899,0,0.0,0.0,0.0,0.0,0.0,0.0,0.0,0.0,0.0,0.0,0.0,0.0,0.0,1500,1500,0.0,0.0,40.0482896667,-88.2327333333,0.0,0.0,0.0,0.0,0.0,0.0,0.0,0.0,0.0,0.0,0.0,0,0.0,0.0,0.0,0.0,90.0,90.0,90.0,89.5087432861,89.0631027222,89.0631027222,28.229999542199998,15.625108718900002,2.5699999332,0,2,25,1,152,160
67,1530629022195,935195, RC,0,39.9586186,-88.445067899,0,0.0,0.0,0.0,0.0,0.0,0.0,0.0,0.0,0.0,0.0,0.0,0.0,0.0,1500,1500,0.0,0.0,40.0482896667,-88.2327333333,0.0,0.0,0.0,0.0,0.0,0.0,0.0,0.0,0.0,0.0,0.0,0,0.0,0.0,0.0,0.0,90.0,90.0,90.0,89.5087432861,89.0631027222,89.0631027222,28.229999542199998,15.625108718900002,2.5699999332,0,2,25,1,144,163
68,1530629022245,935245, RC,0,39.9586186,-88.445067899,0,0.0,0.0,0.0,0.0,0.0,0.0,0.0,0.0,0.0,0.0,0.0,0.0,0.0,1500,1500,0.0,0.0,40.0482896667,-88.2327333333,0.0,0.0,0.0,0.0,0.0,0.0,0.0,0.0,0.0,0.0,0.0,0,0.0,0.0,0.0,0.0,90.0,90.0,90.0,89.5087432861,89.0631027222,89.0631027222,28.229999542199998,15.625108718900002,2.5699999332,0,2,25,1,144,167
69,1530629022296,935296, RC,0,39.9586186,-88.445067899,0,0.0,0.0,0.0,0.0,0.0,0.0,0.0,0.0,0.0,0.0,0.0,0.0,0.0,1500,1500,0.0,0.0,40.0482896667,-88.2327333333,0.0,0.0,0.0,0.0,0.0,0.0,0.0,0.0,0.0,0.0,0.0,0,0.0,0.0,0.0,0.0,90.0,90.0,90.0,89.5087432861,89.0631027222,89.0631027222,28.229999542199998,15.625108718900002,2.5699999332,0,2,25,1,135,170
70,1530629022347,935347, RC,0,39.9586186,-88.445067899,0,0.0,0.0,0.0,0.0,0.0,0.0,0.0,0.0,0.0,0.0,0.0,0.0,0.0,1500,1500,0.0,0.0,40.0482896667,-88.2327333333,0.0,0.0,0.0,0.0,0.0,0.0,0.0,0.0,0.0,0.0,0.0,0,0.0,0.0,0.0,0.0,90.0,90.0,90.0,89.5087432861,89.0631027222,89.0631027222,28.229999542199998,15.625108718900002,2.5699999332,0,2,25,1,143,173
71,1530629022397,935397, RC,0,39.9586186,-88.445067899,0,0.0,0.0,0.0,0.0,0.0,0.0,0.0,0.0,0.0,0.0,0.0,0.0,0.0,1500,1500,0.0,0.0,40.0482896667,-88.2327333333,0.0,0.0,0.0,0.0,0.0,0.0,0.0,0.0,0.0,0.0,0.0,0,0.0,0.0,0.0,0.0,90.0,90.0,90.0,89.5087432861,89.0631027222,89.0631027222,28.229999542199998,15.625108718900002,2.5699999332,0,2,25,1,158,175
72,1530629022448,935448, RC,0,39.9586186,-88.445067899,0,0.0,0.0,0.0,0.0,0.0,0.0,0.0,0.0,0.0,0.0,0.0,0.0,0.0,1500,1500,0.0,0.0,40.0482896667,-88.2327333333,0.0,0.0,0.0,0.0,0.0,0.0,0.0,0.0,0.0,0.0,0.0,0,0.0,0.0,0.0,0.0,90.0,90.0,90.0,89.5087432861,89.0631027222,89.0631027222,28.229999542199998,15.625108718900002,2.5699999332,0,2,25,1,141,178
73,1530629022498,935498, RC,0,39.9586186,-88.445067899,0,0.0,0.0,0.0,0.0,0.0,0.0,0.0,0.0,0.0,0.0,0.0,0.0,0.0,1500,1500,0.0,0.0,40.0482896667,-88.2327333333,0.0,0.0,0.0,0.0,0.0,0.0,0.0,0.0,0.0,0.0,0.0,0,0.0,0.0,0.0,0.0,90.0,90.0,90.0,89.5087432861,89.0631027222,89.0631027222,28.229999542199998,15.625108718900002,2.5699999332,0,2,25,1,141,180
74,1530629022549,935549, RC,0,39.9586186,-88.445067899,0,0.0,0.0,0.0,0.0,0.0,0.0,0.0,0.0,0.0,0.0,0.0,0.0,0.0,1500,1500,0.0,0.0,40.0482896667,-88.2327333333,0.0,0.0,0.0,0.0,0.0,0.0,0.0,0.0,0.0,0.0,0.0,0,0.0,0.0,0.0,0.0,90.0,90.0,90.0,89.5087432861,89.0631027222,89.0631027222,28.229999542199998,15.625108718900002,2.5699999332,0,2,25,1,150,183
75,1530629022600,935600, RC,0,39.9586186,-88.445067899,0,0.0,0.0,0.0,0.0,0.0,0.0,0.0,0.0,0.0,0.0,0.0,0.0,0.0,1500,1500,0.0,0.0,40.0482896667,-88.2327333333,0.0,0.0,0.0,0.0,0.0,0.0,0.0,0.0,0.0,0.0,0.0,0,0.0,0.0,0.0,0.0,90.0,90.0,90.0,89.5087432861,89.0631027222,89.0631027222,28.229999542199998,15.625108718900002,2.5699999332,0,2,25,1,141,185
76,1530629022650,935650, RC,0,39.9586186,-88.445067899,0,0.0,0.0,0.0,0.0,0.0,0.0,0.0,0.0,0.0,0.0,0.0,0.0,0.0,1500,1500,0.0,0.0,40.0482896667,-88.2327333333,0.0,0.0,0.0,0.0,0.0,0.0,0.0,0.0,0.0,0.0,0.0,0,0.0,0.0,0.0,0.0,90.0,90.0,90.0,89.5087432861,89.0631027222,89.0631027222,28.229999542199998,15.625108718900002,2.5699999332,0,2,25,1,152,188
77,1530629022701,935701, RC,0,39.9586186,-88.445067899,0,0.0,0.0,0.0,0.0,0.0,0.0,0.0,0.0,0.0,0.0,0.0,0.0,0.0,1500,1500,0.0,0.0,40.0482896667,-88.2327333333,0.0,0.0,0.0,0.0,0.0,0.0,0.0,0.0,0.0,0.0,0.0,0,0.0,0.0,0.0,0.0,90.0,90.0,90.0,89.5087432861,89.0631027222,89.0631027222,28.229999542199998,15.625108718900002,2.5699999332,0,2,25,1,138,190
78,1530629022751,935751, RC,0,39.9586186,-88.445067899,0,0.0,0.0,0.0,0.0,0.0,0.0,0.0,0.0,0.0,0.0,0.0,0.0,0.0,1500,1500,0.0,0.0,40.0482896667,-88.2327333333,0.0,0.0,0.0,0.0,0.0,0.0,0.0,0.0,0.0,0.0,0.0,0,0.0,0.0,0.0,0.0,90.0,90.0,90.0,89.5087432861,89.0631027222,89.0631027222,28.229999542199998,15.620286941500002,2.2999999523,0,2,25,1,144,192
79,1530629022802,935802, RC,0,39.9586186,-88.445067899,0,0.0,0.0,0.0,0.0,0.0,0.0,0.0,0.0,0.0,0.0,0.0,0.0,0.0,1500,1500,0.0,0.0,40.0482896667,-88.2327333333,0.0,0.0,0.0,0.0,0.0,0.0,0.0,0.0,0.0,0.0,0.0,0,0.0,0.0,0.0,0.0,90.0,90.0,90.0,89.5087432861,89.0631027222,89.0631027222,28.229999542199998,15.620286941500002,2.2999999523,0,2,25,1,150,195
80,1530629022853,935853, RC,0,39.9586186,-88.445067899,0,0.0,0.0,0.0,0.0,0.0,0.0,0.0,0.0,0.0,0.0,0.0,0.0,0.0,1500,1500,0.0,0.0,40.0482901667,-88.2327328333,0.0,0.0,0.0,0.0,0.0,0.0,0.0,0.0,0.0,0.0,0.0,0,0.0,0.0,0.0,0.0,90.0,90.0,90.0,89.5087432861,89.0631027222,89.0631027222,28.229999542199998,15.620286941500002,2.2999999523,0,2,25,1,147,197
81,1530629022903,935903, RC,0,39.9586186,-88.445067899,0,0.0,0.0,0.0,0.0,0.0,0.0,0.0,0.0,0.0,0.0,0.0,0.0,0.0,1500,1500,0.0,0.0,40.0482901667,-88.2327328333,0.0,0.0,0.0,0.0,0.0,0.0,0.0,0.0,0.0,0.0,0.0,0,0.0,0.0,0.0,0.0,90.0,90.0,90.0,89.5087432861,89.0631027222,89.0631027222,28.229999542199998,15.620286941500002,2.2999999523,0,2,25,1,140,199
82,1530629022954,935954, RC,0,39.9586186,-88.445067899,0,0.0,0.0,0.0,0.0,0.0,0.0,0.0,0.0,0.0,0.0,0.0,0.0,0.0,1500,1500,0.0,0.0,40.0482901667,-88.2327328333,0.0,0.0,0.0,0.0,0.0,0.0,0.0,0.0,0.0,0.0,0.0,0,0.0,0.0,0.0,0.0,90.0,90.0,90.0,89.5087432861,89.0631027222,89.0631027222,28.229999542199998,15.620286941500002,2.2999999523,0,2,25,1,149,202
83,1530629023004,936004, RC,0,39.9586186,-88.445067899,0,0.0,0.0,0.0,0.0,0.0,0.0,0.0,0.0,0.0,0.0,0.0,0.0,0.0,1500,1500,0.0,0.0,40.0482901667,-88.2327328333,0.0,0.0,0.0,0.0,0.0,0.0,0.0,0.0,0.0,0.0,0.0,0,0.0,0.0,0.0,0.0,90.0,90.0,90.0,89.5087432861,89.0631027222,89.0631027222,28.229999542199998,15.620286941500002,2.2999999523,0,2,25,1,155,204
84,1530629023055,936055, RC,0,39.9586186,-88.445067899,0,0.0,0.0,0.0,0.0,0.0,0.0,0.0,0.0,0.0,0.0,0.0,0.0,0.0,1500,1500,0.0,0.0,40.0482901667,-88.2327328333,0.0,0.0,0.0,0.0,0.0,0.0,0.0,0.0,0.0,0.0,0.0,0,0.0,0.0,0.0,0.0,90.0,90.0,90.0,89.5087432861,89.0631027222,89.0631027222,28.229999542199998,15.620286941500002,2.2999999523,0,2,25,1,141,206
85,1530629023106,936106, RC,0,39.9586186,-88.445067899,0,0.0,0.0,0.0,0.0,0.0,0.0,0.0,0.0,0.0,0.0,0.0,0.0,0.0,1500,1500,0.0,0.0,40.0482901667,-88.2327328333,0.0,0.0,0.0,0.0,0.0,0.0,0.0,0.0,0.0,0.0,0.0,0,0.0,0.0,0.0,0.0,90.0,90.0,90.0,89.5087432861,89.0631027222,89.0631027222,28.229999542199998,15.620286941500002,2.2999999523,0,2,25,1,140,209
86,1530629023157,936157, RC,0,39.9586186,-88.445067899,0,0.0,0.0,0.0,0.0,0.0,0.0,0.0,0.0,0.0,0.0,0.0,0.0,0.0,1500,1500,0.0,0.0,40.0482901667,-88.2327328333,0.0,0.0,0.0,0.0,0.0,0.0,0.0,0.0,0.0,0.0,0.0,0,0.0,0.0,0.0,0.0,90.0,90.0,90.0,89.5087432861,89.0631027222,89.0631027222,27.6920013428,15.620286941500002,2.2999999523,0,2,25,1,144,211
87,1530629023207,936207, RC,0,39.9586186,-88.445067899,0,0.0,0.0,0.0,0.0,0.0,0.0,0.0,0.0,0.0,0.0,0.0,0.0,0.0,1500,1500,0.0,0.0,40.0482901667,-88.2327328333,0.0,0.0,0.0,0.0,0.0,0.0,0.0,0.0,0.0,0.0,0.0,0,0.0,0.0,0.0,0.0,90.0,90.0,90.0,89.5087432861,89.0631027222,89.0631027222,27.6920013428,15.620286941500002,2.2999999523,0,2,25,1,153,214
88,1530629023258,936258, RC,0,39.9586186,-88.445067899,0,0.0,0.0,0.0,0.0,0.0,0.0,0.0,0.0,0.0,0.0,0.0,0.0,0.0,1500,1500,0.0,0.0,40.0482901667,-88.2327328333,0.0,0.0,0.0,0.0,0.0,0.0,0.0,0.0,0.0,0.0,0.0,0,0.0,0.0,0.0,0.0,90.0,90.0,90.0,89.5087432861,89.0631027222,89.0631027222,27.6920013428,15.620286941500002,2.2999999523,0,2,25,1,144,216
89,1530629023308,936308, RC,0,39.9586186,-88.445067899,0,0.0,0.0,0.0,0.0,0.0,0.0,0.0,0.0,0.0,0.0,0.0,0.0,0.0,1500,1500,0.0,0.0,40.0482901667,-88.2327328333,0.0,0.0,0.0,0.0,0.0,0.0,0.0,0.0,0.0,0.0,0.0,0,0.0,0.0,0.0,0.0,90.0,90.0,70.0,89.5087432861,89.0631027222,89.0631027222,27.6920013428,15.620286941500002,2.2999999523,0,2,25,1,135,219
90,1530629023359,936359, RC,0,39.9586186,-88.445067899,0,0.0,0.0,0.0,0.0,0.0,0.0,0.0,0.0,0.0,0.0,0.0,0.0,0.0,1500,1500,0.0,0.0,40.0482901667,-88.2327328333,0.0,0.0,0.0,0.0,0.0,0.0,0.0,0.0,0.0,0.0,0.0,0,0.0,0.0,0.0,0.0,90.0,90.0,70.0,89.5087432861,89.0631027222,89.5724029541,27.6920013428,15.620286941500002,2.2999999523,0,2,25,1,138,221
91,1530629023409,936409, RC,0,39.9586186,-88.445067899,0,0.0,0.0,0.0,0.0,0.0,0.0,0.0,0.0,0.0,0.0,0.0,0.0,0.0,1500,1500,0.0,0.0,40.0482901667,-88.2327328333,0.0,0.0,0.0,0.0,0.0,0.0,0.0,0.0,0.0,0.0,0.0,0,0.0,0.0,0.0,0.0,90.0,90.0,61.0,89.5087432861,89.0631027222,107.58874511719999,27.6920013428,15.620286941500002,2.2999999523,0,2,25,1,62,224
92,1530629023460,936460, RC,0,39.9586186,-88.445067899,0,0.0,0.0,0.0,0.0,0.0,0.0,0.0,0.0,0.0,0.0,0.0,0.0,0.0,1500,1500,0.0,0.0,40.0482901667,-88.2327328333,0.0,0.0,0.0,0.0,0.0,0.0,0.0,0.0,0.0,0.0,0.0,0,0.0,0.0,0.0,0.0,90.0,90.0,61.0,89.5087432861,89.0631027222,115.2281723022,27.6920013428,15.620286941500002,2.2999999523,0,2,25,1,21,227
93,1530629023510,936510, RC,0,39.9586186,-88.445067899,0,0.0,0.0,0.0,0.0,0.0,0.0,0.0,0.0,0.0,0.0,0.0,0.0,0.0,1500,1500,0.0,0.0,40.0482901667,-88.2327328333,0.0,0.0,0.0,0.0,0.0,0.0,0.0,0.0,0.0,0.0,0.0,0,0.0,0.0,0.0,0.0,90.0,90.0,57.0,89.5087432861,89.0631027222,115.2281723022,27.6920013428,15.620286941500002,2.2999999523,0,2,25,1,12,230
94,1530629023561,936561, RC,0,39.9586186,-88.445067899,0,0.0,0.0,0.0,0.0,0.0,0.0,0.0,0.0,0.0,0.0,0.0,0.0,0.0,1500,1500,0.0,0.0,40.0482901667,-88.2327328333,0.0,0.0,0.0,0.0,0.0,0.0,0.0,0.0,0.0,0.0,0.0,0,0.0,0.0,0.0,0.0,90.0,90.0,57.0,89.5087432861,89.0631027222,119.939163208,27.6920013428,15.620286941500002,2.2999999523,0,2,25,1,101,233
95,1530629023611,936611, RC,0,39.9586186,-88.445067899,0,0.0,0.0,0.0,0.0,0.0,0.0,0.0,0.0,0.0,0.0,0.0,0.0,0.0,1500,1500,0.0,0.0,40.0482901667,-88.2327328333,0.0,0.0,0.0,0.0,0.0,0.0,0.0,0.0,0.0,0.0,0.0,0,0.0,0.0,0.0,0.0,90.0,90.0,52.0,89.5087432861,89.0631027222,122.0400161743,27.6920013428,15.620286941500002,2.2999999523,0,2,25,1,108,236
96,1530629023662,936662, RC,0,39.9586186,-88.445067899,0,0.0,0.0,0.0,0.0,0.0,0.0,0.0,0.0,0.0,0.0,0.0,0.0,0.0,1500,1500,0.0,0.0,40.0482901667,-88.2327328333,0.0,0.0,0.0,0.0,0.0,0.0,0.0,0.0,0.0,0.0,0.0,0,0.0,0.0,0.0,0.0,90.0,90.0,52.0,89.5087432861,89.0631027222,125.1594467163,27.6920013428,15.620286941500002,2.2999999523,0,2,25,1,68,238
97,1530629023712,936712, RC,0,39.9586186,-88.445067899,0,0.0,0.0,0.0,0.0,0.0,0.0,0.0,0.0,0.0,0.0,0.0,0.0,0.0,1500,1500,0.0,0.0,40.0482901667,-88.2327328333,0.0,0.0,0.0,0.0,0.0,0.0,0.0,0.0,0.0,0.0,0.0,0,0.0,0.0,0.0,0.0,90.0,90.0,52.0,89.5087432861,89.0631027222,128.7245178223,27.6920013428,15.620286941500002,2.2999999523,0,2,25,1,83,241
98,1530629023763,936763, RC,0,39.9586186,-88.445067899,0,0.0,0.0,0.0,0.0,0.0,0.0,0.0,0.0,0.0,0.0,0.0,0.0,0.0,1500,1500,0.0,0.0,40.0482901667,-88.2327328333,0.0,0.0,0.0,0.0,0.0,0.0,0.0,0.0,0.0,0.0,0.0,0,0.0,0.0,0.0,0.0,90.0,90.0,52.0,89.5087432861,89.0631027222,129.1701507568,27.6920013428,15.620353698699999,2.0799999237,0,2,25,1,75,243
99,1530629023814,936814, RC,0,39.9586186,-88.445067899,0,0.0,0.0,0.0,0.0,0.0,0.0,0.0,0.0,0.0,0.0,0.0,0.0,0.0,1500,1500,0.0,0.0,40.0482898333,-88.232732,0.0,0.0,0.0,0.0,0.0,0.0,0.0,0.0,0.0,0.0,0.0,0,0.0,0.0,0.0,0.0,90.0,90.0,52.0,89.5087432861,89.0631027222,129.0428314209,27.6920013428,15.620353698699999,2.0799999237,0,2,25,1,49,246
100,1530629023864,936864, RC,0,39.9586186,-88.445067899,0,0.0,0.0,0.0,0.0,0.0,0.0,0.0,0.0,0.0,0.0,0.0,0.0,0.0,1500,1500,0.0,0.0,40.0482898333,-88.232732,0.0,0.0,0.0,0.0,0.0,0.0,0.0,0.0,0.0,0.0,0.0,0,0.0,0.0,0.0,0.0,90.0,90.0,52.0,89.5087432861,89.0631027222,128.7245178223,27.6920013428,15.620353698699999,2.0799999237,0,2,25,1,50,248
101,1530629023915,936915, RC,0,39.9586186,-88.445067899,0,0.0,0.0,0.0,0.0,0.0,0.0,0.0,0.0,0.0,0.0,0.0,0.0,0.0,1500,1500,0.0,0.0,40.0482898333,-88.232732,0.0,0.0,0.0,0.0,0.0,0.0,0.0,0.0,0.0,0.0,0.0,0,0.0,0.0,0.0,0.0,90.0,90.0,51.0,89.5087432861,89.0631027222,127.83324432370001,27.6920013428,15.620353698699999,2.0799999237,0,2,25,1,35,251
102,1530629023965,936965, RC,0,39.9586186,-88.445067899,0,0.0,0.0,0.0,0.0,0.0,0.0,0.0,0.0,0.0,0.0,0.0,0.0,0.0,1500,1500,0.0,0.0,40.0482898333,-88.232732,0.0,0.0,0.0,0.0,0.0,0.0,0.0,0.0,0.0,0.0,0.0,0,0.0,0.0,0.0,0.0,90.0,90.0,51.0,89.5087432861,89.0631027222,127.45127868649999,27.6920013428,15.620353698699999,2.0799999237,0,2,25,1,26,253
103,1530629024016,937016, RC,0,39.9586186,-88.445067899,0,0.0,0.0,0.0,0.0,0.0,0.0,0.0,0.0,0.0,0.0,0.0,0.0,0.0,1500,1500,0.0,0.0,40.0482898333,-88.232732,0.0,0.0,0.0,0.0,0.0,0.0,0.0,0.0,0.0,0.0,0.0,0,0.0,0.0,0.0,0.0,90.0,90.0,51.0,89.5087432861,89.0631027222,127.3876190186,27.6920013428,15.620353698699999,2.0799999237,0,2,25,1,29,256
104,1530629024066,937066, RC,0,39.9586186,-88.445067899,0,0.0,0.0,0.0,0.0,0.0,0.0,0.0,0.0,0.0,0.0,0.0,0.0,0.0,1500,1500,0.0,0.0,40.0482898333,-88.232732,0.0,0.0,0.0,0.0,0.0,0.0,0.0,0.0,0.0,0.0,0.0,0,0.0,0.0,0.0,0.0,90.0,90.0,51.0,89.5087432861,89.0631027222,127.3876190186,27.6920013428,15.620353698699999,2.0799999237,0,2,25,1,20,258
105,1530629024117,937117, RC,0,39.9586186,-88.445067899,0,0.0,0.0,0.0,0.0,0.0,0.0,0.0,0.0,0.0,0.0,0.0,0.0,0.0,1500,1500,0.0,0.0,40.0482898333,-88.232732,0.0,0.0,0.0,0.0,0.0,0.0,0.0,0.0,0.0,0.0,0.0,0,0.0,0.0,0.0,0.0,90.0,90.0,51.0,89.5087432861,89.3814163208,127.32395935059999,27.6920013428,15.620353698699999,2.0799999237,0,2,25,1,14,261
106,1530629024167,937167, RC,0,39.9586186,-88.445067899,0,0.0,0.0,0.0,0.0,0.0,0.0,0.0,0.0,0.0,0.0,0.0,0.0,0.0,1500,1500,0.0,0.0,40.0482898333,-88.232732,0.0,0.0,0.0,0.0,0.0,0.0,0.0,0.0,0.0,0.0,0.0,0,0.0,0.0,0.0,0.0,90.0,90.0,51.0,89.5087432861,89.44507598879999,127.32395935059999,27.6920013428,15.620353698699999,2.0799999237,0,2,25,1,21,263
107,1530629024218,937218, RC,0,39.9586186,-88.445067899,0,0.0,0.0,0.0,0.0,0.0,0.0,0.0,0.0,0.0,0.0,0.0,0.0,0.0,1500,1500,0.0,0.0,40.0482898333,-88.232732,0.0,0.0,0.0,0.0,0.0,0.0,0.0,0.0,0.0,0.0,0.0,0,0.0,0.0,0.0,0.0,90.0,90.0,51.0,89.5087432861,89.44507598879999,127.32395935059999,27.6920013428,15.620353698699999,2.0799999237,0,2,25,1,29,266
108,1530629024269,937269, RC,0,39.9586186,-88.445067899,0,0.0,0.0,0.0,0.0,0.0,0.0,0.0,0.0,0.0,0.0,0.0,0.0,0.0,1500,1500,0.0,0.0,40.0482898333,-88.232732,0.0,0.0,0.0,0.0,0.0,0.0,0.0,0.0,0.0,0.0,0.0,0,0.0,0.0,0.0,0.0,90.0,90.0,51.0,89.5087432861,89.44507598879999,127.32395935059999,27.6920013428,15.620353698699999,2.0799999237,0,2,25,1,28,268
109,1530629024319,937319, RC,0,39.9586186,-88.445067899,0,0.0,0.0,0.0,0.0,0.0,0.0,0.0,0.0,0.0,0.0,0.0,0.0,0.0,1500,1500,0.0,0.0,40.0482898333,-88.232732,0.0,0.0,0.0,0.0,0.0,0.0,0.0,0.0,0.0,0.0,0.0,0,0.0,0.0,0.0,0.0,90.0,90.0,51.0,89.5087432861,89.44507598879999,127.32395935059999,27.6920013428,15.620353698699999,2.0799999237,0,2,25,1,28,271
110,1530629024370,937370, RC,0,39.9586186,-88.445067899,0,0.0,0.0,0.0,0.0,0.0,0.0,0.0,0.0,0.0,0.0,0.0,0.0,0.0,1500,1500,0.0,0.0,40.0482898333,-88.232732,0.0,0.0,0.0,0.0,0.0,0.0,0.0,0.0,0.0,0.0,0.0,0,0.0,0.0,0.0,0.0,90.0,90.0,51.0,89.5087432861,89.44507598879999,127.32395935059999,27.6920013428,15.620353698699999,2.0799999237,0,2,25,1,24,273
111,1530629024420,937420, RC,0,39.9586186,-88.445067899,0,0.0,0.0,0.0,0.0,0.0,0.0,0.0,0.0,0.0,0.0,0.0,0.0,0.0,1500,1500,0.0,0.0,40.0482898333,-88.232732,0.0,0.0,0.0,0.0,0.0,0.0,0.0,0.0,0.0,0.0,0.0,0,0.0,0.0,0.0,0.0,90.0,90.0,54.0,89.5087432861,89.44507598879999,127.26029205319999,27.6920013428,15.620353698699999,2.0799999237,0,2,25,1,30,276
112,1530629024471,937471, RC,0,39.9586186,-88.445067899,0,0.0,0.0,0.0,0.0,0.0,0.0,0.0,0.0,0.0,0.0,0.0,0.0,0.0,1500,1500,0.0,0.0,40.0482898333,-88.232732,0.0,0.0,0.0,0.0,0.0,0.0,0.0,0.0,0.0,0.0,0.0,0,0.0,0.0,0.0,0.0,90.0,90.0,54.0,89.5087432861,89.44507598879999,127.26029205319999,27.6920013428,15.620353698699999,2.0799999237,0,2,25,1,23,278
113,1530629024521,937521, RC,0,39.9586186,-88.445067899,0,0.0,0.0,0.0,0.0,0.0,0.0,0.0,0.0,0.0,0.0,0.0,0.0,0.0,1500,1500,0.0,0.0,40.0482898333,-88.232732,0.0,0.0,0.0,0.0,0.0,0.0,0.0,0.0,0.0,0.0,0.0,0,0.0,0.0,0.0,0.0,90.0,90.0,54.0,89.5087432861,89.44507598879999,127.26029205319999,27.6920013428,15.620353698699999,2.0799999237,0,2,25,1,31,281
114,1530629024572,937572, RC,0,39.9586186,-88.445067899,0,0.0,0.0,0.0,0.0,0.0,0.0,0.0,0.0,0.0,0.0,0.0,0.0,0.0,1500,1500,0.0,0.0,40.0482898333,-88.232732,0.0,0.0,0.0,0.0,0.0,0.0,0.0,0.0,0.0,0.0,0.0,0,0.0,0.0,0.0,0.0,90.0,90.0,54.0,89.5087432861,89.44507598879999,126.62367248540001,27.6920013428,15.620353698699999,2.0799999237,0,2,25,1,24,283
115,1530629024622,937622, RC,0,39.9586186,-88.445067899,0,0.0,0.0,0.0,0.0,0.0,0.0,0.0,0.0,0.0,0.0,0.0,0.0,0.0,1500,1500,0.0,0.0,40.0482898333,-88.232732,0.0,0.0,0.0,0.0,0.0,0.0,0.0,0.0,0.0,0.0,0.0,0,0.0,0.0,0.0,0.0,90.0,90.0,54.0,89.5087432861,89.44507598879999,124.65014648440001,27.6920013428,15.620353698699999,2.0799999237,0,2,25,1,17,286
116,1530629024673,937673, RC,0,39.9586186,-88.445067899,0,0.0,0.0,0.0,0.0,0.0,0.0,0.0,0.0,0.0,0.0,0.0,0.0,0.0,1500,1500,0.0,0.0,40.0482898333,-88.232732,0.0,0.0,0.0,0.0,0.0,0.0,0.0,0.0,0.0,0.0,0.0,0,0.0,0.0,0.0,0.0,90.0,90.0,54.0,89.5087432861,89.44507598879999,124.45915985110001,27.6920013428,15.620353698699999,2.0799999237,0,2,25,1,17,289
117,1530629024724,937724, RC,0,39.9586186,-88.445067899,0,0.0,0.0,0.0,0.0,0.0,0.0,0.0,0.0,0.0,0.0,0.0,0.0,0.0,1500,1500,0.0,0.0,40.0482898333,-88.232732,0.0,0.0,0.0,0.0,0.0,0.0,0.0,0.0,0.0,0.0,0.0,0,0.0,0.0,0.0,0.0,90.0,90.0,54.0,89.5087432861,89.44507598879999,124.45915985110001,27.6920013428,15.620353698699999,2.0799999237,0,2,25,1,19,291
118,1530629024774,937774, RC,0,39.9586186,-88.445067899,0,0.0,0.0,0.0,0.0,0.0,0.0,0.0,0.0,0.0,0.0,0.0,0.0,0.0,1500,1500,0.0,0.0,40.0482898333,-88.232732,0.0,0.0,0.0,0.0,0.0,0.0,0.0,0.0,0.0,0.0,0.0,0,0.0,0.0,0.0,0.0,90.0,90.0,54.0,89.5087432861,89.44507598879999,124.45915985110001,27.6920013428,15.6156692505,2.9600000381,0,2,25,1,20,294
119,1530629024825,937825, RC,0,39.9586186,-88.445067899,0,0.0,0.0,0.0,0.0,0.0,0.0,0.0,0.0,0.0,0.0,0.0,0.0,0.0,1500,1500,0.0,0.0,40.0482898333,-88.232732,0.0,0.0,0.0,0.0,0.0,0.0,0.0,0.0,0.0,0.0,0.0,0,0.0,0.0,0.0,0.0,90.0,90.0,54.0,89.5087432861,89.44507598879999,124.45915985110001,27.6920013428,15.6156692505,2.9600000381,0,2,25,1,21,296
120,1530629024875,937875, RC,0,39.9586186,-88.445067899,0,0.0,0.0,0.0,0.0,0.0,0.0,0.0,0.0,0.0,0.0,0.0,0.0,0.0,1500,1500,0.0,0.0,40.0482898333,-88.2327315,0.0,0.0,0.0,0.0,0.0,0.0,0.0,0.0,0.0,0.0,0.0,0,0.0,0.0,0.0,0.0,90.0,90.0,54.0,89.5087432861,89.44507598879999,124.45915985110001,27.6920013428,15.6156692505,2.9600000381,0,2,25,1,15,299
121,1530629024926,937926, RC,0,39.9586186,-88.445067899,0,0.0,0.0,0.0,0.0,0.0,0.0,0.0,0.0,0.0,0.0,0.0,0.0,0.0,1500,1500,0.0,0.0,40.0482898333,-88.2327315,0.0,0.0,0.0,0.0,0.0,0.0,0.0,0.0,0.0,0.0,0.0,0,0.0,0.0,0.0,0.0,90.0,90.0,54.0,89.5087432861,89.44507598879999,124.45915985110001,27.6920013428,15.6156692505,2.9600000381,0,2,25,1,16,301
122,1530629024976,937976, RC,0,39.9586186,-88.445067899,0,0.0,0.0,0.0,0.0,0.0,0.0,0.0,0.0,0.0,0.0,0.0,0.0,0.0,1500,1500,0.0,0.0,40.0482898333,-88.2327315,0.0,0.0,0.0,0.0,0.0,0.0,0.0,0.0,0.0,0.0,0.0,0,0.0,0.0,0.0,0.0,90.0,90.0,54.0,89.5087432861,89.44507598879999,124.45915985110001,27.6920013428,15.6156692505,2.9600000381,0,2,25,1,16,304
123,1530629025027,938027, RC,0,39.9586186,-88.445067899,0,0.0,0.0,0.0,0.0,0.0,0.0,0.0,0.0,0.0,0.0,0.0,0.0,0.0,1500,1500,0.0,0.0,40.0482898333,-88.2327315,0.0,0.0,0.0,0.0,0.0,0.0,0.0,0.0,0.0,0.0,0.0,0,0.0,0.0,0.0,0.0,90.0,90.0,54.0,89.5087432861,89.44507598879999,124.45915985110001,27.6920013428,15.6156692505,2.9600000381,0,2,25,1,16,306
124,1530629025077,938077, RC,0,39.9586186,-88.445067899,0,0.0,0.0,0.0,0.0,0.0,0.0,0.0,0.0,0.0,0.0,0.0,0.0,0.0,1500,1500,0.0,0.0,40.0482898333,-88.2327315,0.0,0.0,0.0,0.0,0.0,0.0,0.0,0.0,0.0,0.0,0.0,0,0.0,0.0,0.0,0.0,90.0,90.0,54.0,89.5087432861,89.44507598879999,124.3955001831,27.6920013428,15.6156692505,2.9600000381,0,2,25,1,20,309
125,1530629025128,938128, RC,0,39.9586186,-88.445067899,0,0.0,0.0,0.0,0.0,0.0,0.0,0.0,0.0,0.0,0.0,0.0,0.0,0.0,1500,1500,0.0,0.0,40.0482898333,-88.2327315,0.0,0.0,0.0,0.0,0.0,0.0,0.0,0.0,0.0,0.0,0.0,0,0.0,0.0,0.0,0.0,90.0,90.0,55.0,89.5087432861,89.44507598879999,124.3955001831,27.6920013428,15.6156692505,2.9600000381,0,2,25,1,21,311
126,1530629025178,938178, RC,0,39.9586186,-88.445067899,0,0.0,0.0,0.0,0.0,0.0,0.0,0.0,0.0,0.0,0.0,0.0,0.0,0.0,1500,1500,0.0,0.0,40.0482898333,-88.2327315,0.0,0.0,0.0,0.0,0.0,0.0,0.0,0.0,0.0,0.0,0.0,0,0.0,0.0,0.0,0.0,90.0,90.0,55.0,89.5087432861,89.44507598879999,124.3955001831,27.6920013428,15.6156692505,2.9600000381,0,2,25,1,16,314
127,1530629025229,938229, RC,0,39.9586186,-88.445067899,0,0.0,0.0,0.0,0.0,0.0,0.0,0.0,0.0,0.0,0.0,0.0,0.0,0.0,1500,1500,0.0,0.0,40.0482898333,-88.2327315,0.0,0.0,0.0,0.0,0.0,0.0,0.0,0.0,0.0,0.0,0.0,0,0.0,0.0,0.0,0.0,90.0,90.0,57.0,89.5087432861,89.44507598879999,124.3955001831,27.6920013428,15.6156692505,2.9600000381,0,2,25,1,10,316
128,1530629025280,938280, RC,0,39.9586186,-88.445067899,0,0.0,0.0,0.0,0.0,0.0,0.0,0.0,0.0,0.0,0.0,0.0,0.0,0.0,1500,1500,0.0,0.0,40.0482898333,-88.2327315,0.0,0.0,0.0,0.0,0.0,0.0,0.0,0.0,0.0,0.0,0.0,0,0.0,0.0,0.0,0.0,90.0,90.0,57.0,89.5087432861,89.44507598879999,124.3955001831,27.6920013428,15.6156692505,2.9600000381,0,2,25,1,19,319
129,1530629025330,938330, RC,0,39.9586186,-88.445067899,0,0.0,0.0,0.0,0.0,0.0,0.0,0.0,0.0,0.0,0.0,0.0,0.0,0.0,1500,1500,0.0,0.0,40.0482898333,-88.2327315,0.0,0.0,0.0,0.0,0.0,0.0,0.0,0.0,0.0,0.0,0.0,0,0.0,0.0,0.0,0.0,90.0,90.0,58.0,89.5087432861,89.44507598879999,124.3955001831,27.6920013428,15.6156692505,2.9600000381,0,2,25,1,18,321
130,1530629025381,938381, RC,0,39.9586186,-88.445067899,0,0.0,0.0,0.0,0.0,0.0,0.0,0.0,0.0,0.0,0.0,0.0,0.0,0.0,1500,1500,0.0,0.0,40.0482898333,-88.2327315,0.0,0.0,0.0,0.0,0.0,0.0,0.0,0.0,0.0,0.0,0.0,0,0.0,0.0,0.0,0.0,90.0,90.0,58.0,89.5087432861,89.44507598879999,124.2045211792,27.6920013428,15.6156692505,2.9600000381,0,2,25,1,21,324
131,1530629025431,938431, RC,0,39.9586186,-88.445067899,0,0.0,0.0,0.0,0.0,0.0,0.0,0.0,0.0,0.0,0.0,0.0,0.0,0.0,1500,1500,0.0,0.0,40.0482898333,-88.2327315,0.0,0.0,0.0,0.0,0.0,0.0,0.0,0.0,0.0,0.0,0.0,0,0.0,0.0,0.0,0.0,90.0,90.0,58.0,89.5087432861,89.44507598879999,120.2574768066,27.6920013428,15.6156692505,2.9600000381,0,2,25,1,23,326
132,1530629025482,938482, RC,0,39.9586186,-88.445067899,0,0.0,0.0,0.0,0.0,0.0,0.0,0.0,0.0,0.0,0.0,0.0,0.0,0.0,1500,1500,0.0,0.0,40.0482898333,-88.2327315,0.0,0.0,0.0,0.0,0.0,0.0,0.0,0.0,0.0,0.0,0.0,0,0.0,0.0,0.0,0.0,90.0,90.0,58.0,89.5087432861,89.44507598879999,120.2574768066,27.6920013428,15.6156692505,2.9600000381,0,2,25,1,20,329
133,1530629025532,938532, RC,0,39.9586186,-88.445067899,0,0.0,0.0,0.0,0.0,0.0,0.0,0.0,0.0,0.0,0.0,0.0,0.0,0.0,1500,1500,0.0,0.0,40.0482898333,-88.2327315,0.0,0.0,0.0,0.0,0.0,0.0,0.0,0.0,0.0,0.0,0.0,0,0.0,0.0,0.0,0.0,90.0,90.0,58.0,89.5087432861,89.44507598879999,120.2574768066,27.6920013428,15.6156692505,2.9600000381,0,2,25,1,17,331
134,1530629025583,938583, RC,0,39.9586186,-88.445067899,0,0.0,0.0,0.0,0.0,0.0,0.0,0.0,0.0,0.0,0.0,0.0,0.0,0.0,1500,1500,0.0,0.0,40.0482898333,-88.2327315,0.0,0.0,0.0,0.0,0.0,0.0,0.0,0.0,0.0,0.0,0.0,0,0.0,0.0,0.0,0.0,90.0,90.0,58.0,89.5087432861,89.44507598879999,120.2574768066,27.6920013428,15.6156692505,2.9600000381,0,2,25,1,23,334
135,1530629025633,938633, RC,0,39.9586186,-88.445067899,0,0.0,0.0,0.0,0.0,0.0,0.0,0.0,0.0,0.0,0.0,0.0,0.0,0.0,1500,1500,0.0,0.0,40.0482898333,-88.2327315,0.0,0.0,0.0,0.0,0.0,0.0,0.0,0.0,0.0,0.0,0.0,0,0.0,0.0,0.0,0.0,90.0,90.0,58.0,89.5087432861,89.44507598879999,120.2574768066,27.6920013428,15.6156692505,2.9600000381,0,2,25,1,17,336
136,1530629025684,938684, RC,0,39.9586186,-88.445067899,0,0.0,0.0,0.0,0.0,0.0,0.0,0.0,0.0,0.0,0.0,0.0,0.0,0.0,1500,1500,0.0,0.0,40.0482898333,-88.2327315,0.0,0.0,0.0,0.0,0.0,0.0,0.0,0.0,0.0,0.0,0.0,0,0.0,0.0,0.0,0.0,90.0,90.0,58.0,89.5087432861,89.44507598879999,120.2574768066,27.6920013428,15.6156692505,2.9600000381,0,2,25,1,20,339
137,1530629025735,938735, RC,0,39.9586186,-88.445067899,0,0.0,0.0,0.0,0.0,0.0,0.0,0.0,0.0,0.0,0.0,0.0,0.0,0.0,1500,1500,0.0,0.0,40.0482898333,-88.2327315,0.0,0.0,0.0,0.0,0.0,0.0,0.0,0.0,0.0,0.0,0.0,0,0.0,0.0,0.0,0.0,90.0,90.0,58.0,89.5087432861,89.44507598879999,120.2574768066,27.6920013428,15.6156692505,2.9600000381,0,2,25,1,20,341
138,1530629025785,938785, RC,0,39.9586186,-88.445067899,0,0.0,0.0,0.0,0.0,0.0,0.0,0.0,0.0,0.0,0.0,0.0,0.0,0.0,1500,1500,0.0,0.0,40.0482898333,-88.2327315,0.0,0.0,0.0,0.0,0.0,0.0,0.0,0.0,0.0,0.0,0.0,0,0.0,0.0,0.0,0.0,90.0,90.0,58.0,89.5087432861,89.44507598879999,120.2574768066,27.6920013428,15.610821723900001,2.5199999809,0,2,25,1,22,344
139,1530629025836,938836, RC,0,39.9586186,-88.445067899,0,0.0,0.0,0.0,0.0,0.0,0.0,0.0,0.0,0.0,0.0,0.0,0.0,0.0,1500,1500,0.0,0.0,40.0482898333,-88.23273,0.0,0.0,0.0,0.0,0.0,0.0,0.0,0.0,0.0,0.0,0.0,0,0.0,0.0,0.0,0.0,90.0,90.0,58.0,89.5087432861,89.44507598879999,120.2574768066,27.6920013428,15.610821723900001,2.5199999809,0,2,25,1,20,346
140,1530629025886,938886, RC,0,39.9586186,-88.445067899,0,0.0,0.0,0.0,0.0,0.0,0.0,0.0,0.0,0.0,0.0,0.0,0.0,0.0,1500,1500,0.0,0.0,40.0482898333,-88.23273,0.0,0.0,0.0,0.0,0.0,0.0,0.0,0.0,0.0,0.0,0.0,0,0.0,0.0,0.0,0.0,90.0,90.0,60.0,89.5087432861,89.44507598879999,120.19381713870001,27.6920013428,15.610821723900001,2.5199999809,0,2,25,1,21,349
141,1530629025937,938937, RC,0,39.9586186,-88.445067899,0,0.0,0.0,0.0,0.0,0.0,0.0,0.0,0.0,0.0,0.0,0.0,0.0,0.0,1500,1500,0.0,0.0,40.0482898333,-88.23273,0.0,0.0,0.0,0.0,0.0,0.0,0.0,0.0,0.0,0.0,0.0,0,0.0,0.0,0.0,0.0,90.0,90.0,60.0,89.5087432861,89.44507598879999,120.19381713870001,27.6920013428,15.610821723900001,2.5199999809,0,2,25,1,19,351
142,1530629025987,938987, RC,0,39.9586186,-88.445067899,0,0.0,0.0,0.0,0.0,0.0,0.0,0.0,0.0,0.0,0.0,0.0,0.0,0.0,1500,1500,0.0,0.0,40.0482898333,-88.23273,0.0,0.0,0.0,0.0,0.0,0.0,0.0,0.0,0.0,0.0,0.0,0,0.0,0.0,0.0,0.0,90.0,90.0,60.0,89.5087432861,89.44507598879999,120.19381713870001,27.6920013428,15.610821723900001,2.5199999809,0,2,25,1,21,354
143,1530629026038,939038, RC,0,39.9586186,-88.445067899,0,0.0,0.0,0.0,0.0,0.0,0.0,0.0,0.0,0.0,0.0,0.0,0.0,0.0,1500,1500,0.0,0.0,40.0482898333,-88.23273,0.0,0.0,0.0,0.0,0.0,0.0,0.0,0.0,0.0,0.0,0.0,0,0.0,0.0,0.0,0.0,90.0,90.0,60.0,89.5087432861,89.44507598879999,120.19381713870001,27.6920013428,15.610821723900001,2.5199999809,0,2,25,1,17,356
144,1530629026089,939089, RC,0,39.9586186,-88.445067899,0,0.0,0.0,0.0,0.0,0.0,0.0,0.0,0.0,0.0,0.0,0.0,0.0,0.0,1500,1500,0.0,0.0,40.0482898333,-88.23273,0.0,0.0,0.0,0.0,0.0,0.0,0.0,0.0,0.0,0.0,0.0,0,0.0,0.0,0.0,0.0,90.0,90.0,63.0,89.5087432861,89.44507598879999,120.19381713870001,27.6920013428,15.610821723900001,2.5199999809,0,2,25,1,15,359
145,1530629026139,939139, RC,0,39.9586186,-88.445067899,0,0.0,0.0,0.0,0.0,0.0,0.0,0.0,0.0,0.0,0.0,0.0,0.0,0.0,1500,1500,0.0,0.0,40.0482898333,-88.23273,0.0,0.0,0.0,0.0,0.0,0.0,0.0,0.0,0.0,0.0,0.0,0,0.0,0.0,0.0,0.0,90.0,90.0,63.0,89.5087432861,89.44507598879999,120.00283050540001,27.6920013428,15.610821723900001,2.5199999809,0,2,25,1,24,361
146,1530629026190,939190, RC,0,39.9586186,-88.445067899,0,0.0,0.0,0.0,0.0,0.0,0.0,0.0,0.0,0.0,0.0,0.0,0.0,0.0,1500,1500,0.0,0.0,40.0482898333,-88.23273,0.0,0.0,0.0,0.0,0.0,0.0,0.0,0.0,0.0,0.0,0.0,0,0.0,0.0,0.0,0.0,90.0,90.0,63.0,89.5087432861,89.44507598879999,115.80113220209999,27.6920013428,15.610821723900001,2.5199999809,0,2,25,1,15,364
147,1530629026240,939240, RC,0,39.9586186,-88.445067899,0,0.0,0.0,0.0,0.0,0.0,0.0,0.0,0.0,0.0,0.0,0.0,0.0,0.0,1500,1500,0.0,0.0,40.0482898333,-88.23273,0.0,0.0,0.0,0.0,0.0,0.0,0.0,0.0,0.0,0.0,0.0,0,0.0,0.0,0.0,0.0,90.0,90.0,63.0,89.5087432861,89.44507598879999,115.291847229,27.6920013428,15.610821723900001,2.5199999809,0,2,25,1,19,366
148,1530629026291,939291, RC,0,39.9586186,-88.445067899,0,0.0,0.0,0.0,0.0,0.0,0.0,0.0,0.0,0.0,0.0,0.0,0.0,0.0,1500,1500,0.0,0.0,40.0482898333,-88.23273,0.0,0.0,0.0,0.0,0.0,0.0,0.0,0.0,0.0,0.0,0.0,0,0.0,0.0,0.0,0.0,90.0,90.0,63.0,89.5087432861,89.44507598879999,115.291847229,27.6920013428,15.610821723900001,2.5199999809,0,2,25,1,15,369
149,1530629026341,939341, RC,0,39.9586186,-88.445067899,0,0.0,0.0,0.0,0.0,0.0,0.0,0.0,0.0,0.0,0.0,0.0,0.0,0.0,1500,1500,0.0,0.0,40.0482898333,-88.23273,0.0,0.0,0.0,0.0,0.0,0.0,0.0,0.0,0.0,0.0,0.0,0,0.0,0.0,0.0,0.0,90.0,90.0,63.0,89.5087432861,89.44507598879999,115.291847229,27.6920013428,15.610821723900001,2.5199999809,0,2,25,1,16,372
150,1530629026392,939392, RC,0,39.9586186,-88.445067899,0,0.0,0.0,0.0,0.0,0.0,0.0,0.0,0.0,0.0,0.0,0.0,0.0,0.0,1500,1500,0.0,0.0,40.0482898333,-88.23273,0.0,0.0,0.0,0.0,0.0,0.0,0.0,0.0,0.0,0.0,0.0,0,0.0,0.0,0.0,0.0,90.0,90.0,63.0,89.5087432861,89.44507598879999,115.291847229,27.6920013428,15.610821723900001,2.5199999809,0,2,25,1,19,374
151,1530629026442,939442, RC,0,39.9586186,-88.445067899,0,0.0,0.0,0.0,0.0,0.0,0.0,0.0,0.0,0.0,0.0,0.0,0.0,0.0,1500,1500,0.0,0.0,40.0482898333,-88.23273,0.0,0.0,0.0,0.0,0.0,0.0,0.0,0.0,0.0,0.0,0.0,0,0.0,0.0,0.0,0.0,90.0,90.0,63.0,89.5087432861,89.44507598879999,115.291847229,27.6920013428,15.610821723900001,2.5199999809,0,2,25,1,14,377
152,1530629026493,939493, RC,0,39.9586186,-88.445067899,0,0.0,0.0,0.0,0.0,0.0,0.0,0.0,0.0,0.0,0.0,0.0,0.0,0.0,1500,1500,0.0,0.0,40.0482898333,-88.23273,0.0,0.0,0.0,0.0,0.0,0.0,0.0,0.0,0.0,0.0,0.0,0,0.0,0.0,0.0,0.0,90.0,90.0,66.0,89.5087432861,89.44507598879999,115.291847229,27.6920013428,15.610821723900001,2.5199999809,0,2,25,1,15,379
153,1530629026544,939544, RC,0,39.9586186,-88.445067899,0,0.0,0.0,0.0,0.0,0.0,0.0,0.0,0.0,0.0,0.0,0.0,0.0,0.0,1500,1500,0.0,0.0,40.0482898333,-88.23273,0.0,0.0,0.0,0.0,0.0,0.0,0.0,0.0,0.0,0.0,0.0,0,0.0,0.0,0.0,0.0,90.0,90.0,66.0,89.5087432861,89.44507598879999,115.291847229,27.6920013428,15.610821723900001,2.5199999809,0,2,25,1,19,382
154,1530629026594,939594, RC,0,39.9586186,-88.445067899,0,0.0,0.0,0.0,0.0,0.0,0.0,0.0,0.0,0.0,0.0,0.0,0.0,0.0,1500,1500,0.0,0.0,40.0482898333,-88.23273,0.0,0.0,0.0,0.0,0.0,0.0,0.0,0.0,0.0,0.0,0.0,0,0.0,0.0,0.0,0.0,90.0,90.0,60.0,89.5087432861,89.44507598879999,115.291847229,27.6920013428,15.610821723900001,2.5199999809,0,2,25,1,23,384
155,1530629026645,939645, RC,0,39.9586186,-88.445067899,0,0.0,0.0,0.0,0.0,0.0,0.0,0.0,0.0,0.0,0.0,0.0,0.0,0.0,1500,1500,0.0,0.0,40.0482898333,-88.23273,0.0,0.0,0.0,0.0,0.0,0.0,0.0,0.0,0.0,0.0,0.0,0,0.0,0.0,0.0,0.0,90.0,90.0,60.0,89.5087432861,89.44507598879999,114.6552200317,27.6920013428,15.610821723900001,2.5199999809,0,2,25,1,45,387
156,1530629026695,939695, RC,0,39.9586186,-88.445067899,0,0.0,0.0,0.0,0.0,0.0,0.0,0.0,0.0,0.0,0.0,0.0,0.0,0.0,1500,1500,0.0,0.0,40.0482898333,-88.23273,0.0,0.0,0.0,0.0,0.0,0.0,0.0,0.0,0.0,0.0,0.0,0,0.0,0.0,0.0,0.0,90.0,90.0,60.0,89.5087432861,89.44507598879999,114.08226776120001,27.6920013428,15.610821723900001,2.5199999809,0,2,25,1,48,389
157,1530629026746,939746, RC,0,39.9586186,-88.445067899,0,0.0,0.0,0.0,0.0,0.0,0.0,0.0,0.0,0.0,0.0,0.0,0.0,0.0,1500,1500,0.0,0.0,40.0482898333,-88.23273,0.0,0.0,0.0,0.0,0.0,0.0,0.0,0.0,0.0,0.0,0.0,0,0.0,0.0,0.0,0.0,90.0,90.0,60.0,89.5087432861,89.44507598879999,115.1008605957,27.6920013428,15.60597229,2.5199999809,0,2,25,1,35,392
158,1530629026796,939796, RC,0,39.9586186,-88.445067899,0,0.0,0.0,0.0,0.0,0.0,0.0,0.0,0.0,0.0,0.0,0.0,0.0,0.0,1500,1500,0.0,0.0,40.0482898333,-88.23273,0.0,0.0,0.0,0.0,0.0,0.0,0.0,0.0,0.0,0.0,0.0,0,0.0,0.0,0.0,0.0,90.0,90.0,60.0,89.5087432861,89.44507598879999,117.3290328979,27.6920013428,15.60597229,2.5199999809,0,2,25,1,28,394
159,1530629026847,939847, RC,0,39.9586186,-88.445067899,0,0.0,0.0,0.0,0.0,0.0,0.0,0.0,0.0,0.0,0.0,0.0,0.0,0.0,1500,1500,0.0,0.0,40.0482901667,-88.2327293333,0.0,0.0,0.0,0.0,0.0,0.0,0.0,0.0,0.0,0.0,0.0,0,0.0,0.0,0.0,0.0,90.0,90.0,60.0,89.5087432861,89.12677001950001,118.34761810299999,27.6920013428,15.60597229,2.5199999809,0,2,25,1,45,397
160,1530629026898,939898, RC,0,39.9586186,-88.445067899,0,0.0,0.0,0.0,0.0,0.0,0.0,0.0,0.0,0.0,0.0,0.0,0.0,0.0,1500,1500,0.0,0.0,40.0482901667,-88.2327293333,0.0,0.0,0.0,0.0,0.0,0.0,0.0,0.0,0.0,0.0,0.0,0,0.0,0.0,0.0,0.0,90.0,90.0,55.0,89.5087432861,89.12677001950001,118.34761810299999,27.6920013428,15.60597229,2.5199999809,0,2,25,1,43,399
161,1530629026948,939948, RC,0,39.9586186,-88.445067899,0,0.0,0.0,0.0,0.0,0.0,0.0,0.0,0.0,0.0,0.0,0.0,0.0,0.0,1500,1500,0.0,0.0,40.0482901667,-88.2327293333,0.0,0.0,0.0,0.0,0.0,0.0,0.0,0.0,0.0,0.0,0.0,0,0.0,0.0,0.0,0.0,90.0,90.0,55.0,89.5087432861,89.12677001950001,119.5571899414,27.6920013428,15.60597229,2.5199999809,0,2,25,1,40,402
162,1530629026999,939999, RC,0,39.9586186,-88.445067899,0,0.0,0.0,0.0,0.0,0.0,0.0,0.0,0.0,0.0,0.0,0.0,0.0,0.0,1500,1500,0.0,0.0,40.0482901667,-88.2327293333,0.0,0.0,0.0,0.0,0.0,0.0,0.0,0.0,0.0,0.0,0.0,0,0.0,0.0,0.0,0.0,90.0,90.0,55.0,89.5087432861,89.12677001950001,124.0135345459,27.6920013428,15.60597229,2.5199999809,0,2,25,1,76,404
163,1530629027049,940049, RC,0,39.9586186,-88.445067899,0,0.0,0.0,0.0,0.0,0.0,0.0,0.0,0.0,0.0,0.0,0.0,0.0,0.0,1500,1500,0.0,0.0,40.0482901667,-88.2327293333,0.0,0.0,0.0,0.0,0.0,0.0,0.0,0.0,0.0,0.0,0.0,0,0.0,0.0,0.0,0.0,90.0,90.0,55.0,89.5087432861,89.12677001950001,124.33184814450001,27.6920013428,15.60597229,2.5199999809,0,2,25,1,96,407
164,1530629027100,940100, RC,0,39.9586186,-88.445067899,0,0.0,0.0,0.0,0.0,0.0,0.0,0.0,0.0,0.0,0.0,0.0,0.0,0.0,1500,1500,0.0,0.0,40.0482901667,-88.2327293333,0.0,0.0,0.0,0.0,0.0,0.0,0.0,0.0,0.0,0.0,0.0,0,0.0,0.0,0.0,0.0,90.0,90.0,57.0,89.5087432861,89.12677001950001,124.33184814450001,27.6920013428,15.60597229,2.5199999809,0,2,25,1,88,409
165,1530629027150,940150, RC,0,39.9586186,-88.445067899,0,0.0,0.0,0.0,0.0,0.0,0.0,0.0,0.0,0.0,0.0,0.0,0.0,0.0,1500,1500,0.0,0.0,40.0482901667,-88.2327293333,0.0,0.0,0.0,0.0,0.0,0.0,0.0,0.0,0.0,0.0,0.0,0,0.0,0.0,0.0,0.0,90.0,90.0,57.0,89.5087432861,89.12677001950001,124.33184814450001,27.6920013428,15.60597229,2.5199999809,0,2,25,1,108,412
166,1530629027201,940201, RC,0,39.9586186,-88.445067899,0,0.0,0.0,0.0,0.0,0.0,0.0,0.0,0.0,0.0,0.0,0.0,0.0,0.0,1500,1500,0.0,0.0,40.0482901667,-88.2327293333,0.0,0.0,0.0,0.0,0.0,0.0,0.0,0.0,0.0,0.0,0.0,0,0.0,0.0,0.0,0.0,90.0,90.0,57.0,89.5087432861,89.12677001950001,124.33184814450001,27.6920013428,15.60597229,2.5199999809,0,2,25,1,112,414
167,1530629027251,940251, RC,0,39.9586186,-88.445067899,0,0.0,0.0,0.0,0.0,0.0,0.0,0.0,0.0,0.0,0.0,0.0,0.0,0.0,1500,1500,0.0,0.0,40.0482901667,-88.2327293333,0.0,0.0,0.0,0.0,0.0,0.0,0.0,0.0,0.0,0.0,0.0,0,0.0,0.0,0.0,0.0,90.0,90.0,57.0,89.5087432861,89.12677001950001,124.26817321780001,27.6920013428,15.60597229,2.5199999809,0,2,25,1,52,417
168,1530629027302,940302, RC,0,39.9586186,-88.445067899,0,0.0,0.0,0.0,0.0,0.0,0.0,0.0,0.0,0.0,0.0,0.0,0.0,0.0,1500,1500,0.0,0.0,40.0482901667,-88.2327293333,0.0,0.0,0.0,0.0,0.0,0.0,0.0,0.0,0.0,0.0,0.0,0,0.0,0.0,0.0,0.0,90.0,90.0,57.0,89.5087432861,89.12677001950001,124.0135345459,27.6920013428,15.60597229,2.5199999809,0,2,25,1,55,419
169,1530629027353,940353, RC,0,39.9586186,-88.445067899,0,0.0,0.0,0.0,0.0,0.0,0.0,0.0,0.0,0.0,0.0,0.0,0.0,0.0,1500,1500,0.0,0.0,40.0482901667,-88.2327293333,0.0,0.0,0.0,0.0,0.0,0.0,0.0,0.0,0.0,0.0,0.0,0,0.0,0.0,0.0,0.0,90.0,90.0,57.0,89.5087432861,89.12677001950001,122.8039627075,27.6920013428,15.60597229,2.5199999809,0,2,25,1,55,422
170,1530629027403,940403, RC,0,39.9586186,-88.445067899,0,0.0,0.0,0.0,0.0,0.0,0.0,0.0,0.0,0.0,0.0,0.0,0.0,0.0,1500,1500,0.0,0.0,40.0482901667,-88.2327293333,0.0,0.0,0.0,0.0,0.0,0.0,0.0,0.0,0.0,0.0,0.0,0,0.0,0.0,0.0,0.0,90.0,90.0,57.0,89.5087432861,89.12677001950001,121.5307159424,27.6920013428,15.60597229,2.5199999809,0,2,25,1,72,424
