,(0)linux time (ms),    (1)uptime  (ms),      (2)drive mode,(3)mpc step counter,(4)mpc origin latitude  (deg),(5)mpc origin longitude  (deg),(6)closest trajectory point index to robot,(7)mpc error x (W;E)  (m),(8)mpc error y (W;E)  (m),(9)abs mpc error (m),(10)input [x] for mhe (m),(11)input [y] for mhe (m),(12)input [speed] for mhe (m/s),(13)input [vyaw] for mhe (rad/s),(14)mhe output x  (m),(15)mhe output y  (m),(16)mhe output speed  (m/s),(17)mhe output yaw  (rad),(18)mpc reference heading (rad),(19)mpc turn rate command (rad/s),(20)turn rate command as PWM,(21)throttle command as PWM,(22)primary gps latitude (deg),(23)primary gps longitude (deg),(24)secondary gps latitude  (deg),(25)secondary gps longitude (deg),(26)accelerometer x (m/s^2),(27)accelerometer y (m/s^2),(28)accelerometer z (m/s^2),(29)gyro yaw rate (rad/s),(30)gyro pitch rate   (rad/s),(31)gyro roll rate (rad/s),      (32)yaw (rad),  (33)pitch   (rad),     (34)roll (rad),(35)sonar1 measurement (m),(36)ultrasonic sensor measurement (m),(37)primary gps time (s),(38)normalized turn rate command,(39)normalized throttle command,(40)speed calculation from encoder left (m/s),(41)speed calculation from encoder right (m/s),(42)front gimbal target angle (degrees from straight down),(43)left gimbal target angle  (degrees from straight down),(44)right gimbal target angle  (degrees from straight down),(45)front gimbal measured angle  (degrees from straight down),(46)left gimbal measured angle    (degrees from straight down),(47)right gimbal measured angle  (degrees from straight down),(48)internal temperature (C),(49)battery voltage (V),(50)primary gps type,(51)secondary gps type,    (52)MPC R value, (53)MPC Q[0] value,Unnamed: 54,weed_num,start
0,1530629182068,1095068, RC,0,39.9586186,-88.445067899,0,0.0,0.0,0.0,0.0,0.0,0.0,0.0,0.0,0.0,0.0,0.0,0.0,0.0,1500,1500,0.0,0.0,40.0482846667,-88.2330675,0.0,0.0,0.0,0.0,0.0,0.0,0.0,0.0,0.0,0.0,0.0,0,0.0,0.0,0.0,0.0,90.0,90.0,90.0,88.8084564209,89.5087432861,85.5616989136,30.381999969499997,15.5542573929,1.0399999619,0,2,25,1,78,6
1,1530629182118,1095118, RC,0,39.9586186,-88.445067899,0,0.0,0.0,0.0,0.0,0.0,0.0,0.0,0.0,0.0,0.0,0.0,0.0,0.0,1500,1500,0.0,0.0,40.0482846667,-88.2330675,0.0,0.0,0.0,0.0,0.0,0.0,0.0,0.0,0.0,0.0,0.0,0,0.0,0.0,0.0,0.0,90.0,90.0,90.0,88.8721160889,89.5087432861,88.4264831543,30.381999969499997,15.5542573929,1.0399999619,0,2,25,1,123,9
2,1530629182169,1095169, RC,0,39.9586186,-88.445067899,0,0.0,0.0,0.0,0.0,0.0,0.0,0.0,0.0,0.0,0.0,0.0,0.0,0.0,1500,1500,0.0,0.0,40.0482846667,-88.2330675,0.0,0.0,0.0,0.0,0.0,0.0,0.0,0.0,0.0,0.0,0.0,0,0.0,0.0,0.0,0.0,90.0,90.0,90.0,88.8721160889,89.5087432861,89.8907089233,30.381999969499997,15.5542573929,1.0399999619,0,2,25,1,109,11
3,1530629182219,1095219, RC,0,39.9586186,-88.445067899,0,0.0,0.0,0.0,0.0,0.0,0.0,0.0,0.0,0.0,0.0,0.0,0.0,0.0,1500,1500,0.0,0.0,40.0482846667,-88.2330675,0.0,0.0,0.0,0.0,0.0,0.0,0.0,0.0,0.0,0.0,0.0,0,0.0,0.0,0.0,0.0,90.0,90.0,90.0,88.8721160889,89.5087432861,89.82704925540001,30.381999969499997,15.5542573929,1.0399999619,0,2,25,1,112,13
4,1530629182269,1095269, RC,0,39.9586186,-88.445067899,0,0.0,0.0,0.0,0.0,0.0,0.0,0.0,0.0,0.0,0.0,0.0,0.0,0.0,1500,1500,0.0,0.0,40.0482846667,-88.2330675,0.0,0.0,0.0,0.0,0.0,0.0,0.0,0.0,0.0,0.0,0.0,0,0.0,0.0,0.0,0.0,90.0,90.0,90.0,89.3177566528,89.5087432861,89.82704925540001,30.381999969499997,15.5542573929,1.0399999619,0,2,25,1,108,16
5,1530629182320,1095320, RC,0,39.9586186,-88.445067899,0,0.0,0.0,0.0,0.0,0.0,0.0,0.0,0.0,0.0,0.0,0.0,0.0,0.0,1500,1500,0.0,0.0,40.0482846667,-88.2330675,0.0,0.0,0.0,0.0,0.0,0.0,0.0,0.0,0.0,0.0,0.0,0,0.0,0.0,0.0,0.0,90.0,90.0,90.0,89.3177566528,89.5087432861,89.82704925540001,30.381999969499997,15.5542573929,1.0399999619,0,2,25,1,97,18
6,1530629182370,1095370, RC,0,39.9586186,-88.445067899,0,0.0,0.0,0.0,0.0,0.0,0.0,0.0,0.0,0.0,0.0,0.0,0.0,0.0,1500,1500,0.0,0.0,40.0482846667,-88.2330675,0.0,0.0,0.0,0.0,0.0,0.0,0.0,0.0,0.0,0.0,0.0,0,0.0,0.0,0.0,0.0,90.0,90.0,90.0,89.3177566528,89.5087432861,89.82704925540001,30.381999969499997,15.5542573929,1.0399999619,0,2,25,1,91,20
7,1530629182420,1095420, RC,0,39.9586186,-88.445067899,0,0.0,0.0,0.0,0.0,0.0,0.0,0.0,0.0,0.0,0.0,0.0,0.0,0.0,1500,1500,0.0,0.0,40.0482846667,-88.2330675,0.0,0.0,0.0,0.0,0.0,0.0,0.0,0.0,0.0,0.0,0.0,0,0.0,0.0,0.0,0.0,90.0,90.0,90.0,89.3177566528,89.5087432861,89.82704925540001,30.381999969499997,15.5542573929,1.0399999619,0,2,25,1,94,23
8,1530629182470,1095470, RC,0,39.9586186,-88.445067899,0,0.0,0.0,0.0,0.0,0.0,0.0,0.0,0.0,0.0,0.0,0.0,0.0,0.0,1500,1500,0.0,0.0,40.0482846667,-88.2330675,0.0,0.0,0.0,0.0,0.0,0.0,0.0,0.0,0.0,0.0,0.0,0,0.0,0.0,0.0,0.0,90.0,90.0,90.0,89.3177566528,89.5087432861,89.82704925540001,30.381999969499997,15.5542573929,1.0399999619,0,2,25,1,130,27
9,1530629182521,1095521, RC,0,39.9586186,-88.445067899,0,0.0,0.0,0.0,0.0,0.0,0.0,0.0,0.0,0.0,0.0,0.0,0.0,0.0,1500,1500,0.0,0.0,40.0482846667,-88.2330675,0.0,0.0,0.0,0.0,0.0,0.0,0.0,0.0,0.0,0.0,0.0,0,0.0,0.0,0.0,0.0,90.0,90.0,90.0,89.3177566528,89.5087432861,89.82704925540001,30.381999969499997,15.5542573929,1.0399999619,0,2,25,1,114,30
10,1530629182571,1095571, RC,0,39.9586186,-88.445067899,0,0.0,0.0,0.0,0.0,0.0,0.0,0.0,0.0,0.0,0.0,0.0,0.0,0.0,1500,1500,0.0,0.0,40.0482846667,-88.2330675,0.0,0.0,0.0,0.0,0.0,0.0,0.0,0.0,0.0,0.0,0.0,0,0.0,0.0,0.0,0.0,90.0,90.0,90.0,89.3177566528,89.5087432861,89.7633895874,30.381999969499997,15.5542573929,1.0399999619,0,2,25,1,116,33
11,1530629182621,1095621, RC,0,39.9586186,-88.445067899,0,0.0,0.0,0.0,0.0,0.0,0.0,0.0,0.0,0.0,0.0,0.0,0.0,0.0,1500,1500,0.0,0.0,40.0482846667,-88.2330675,0.0,0.0,0.0,0.0,0.0,0.0,0.0,0.0,0.0,0.0,0.0,0,0.0,0.0,0.0,0.0,90.0,90.0,90.0,89.3177566528,89.5087432861,89.7633895874,30.381999969499997,15.5542573929,1.0399999619,0,2,25,1,99,35
12,1530629182672,1095672, RC,0,39.9586186,-88.445067899,0,0.0,0.0,0.0,0.0,0.0,0.0,0.0,0.0,0.0,0.0,0.0,0.0,0.0,1500,1500,0.0,0.0,40.0482846667,-88.2330675,0.0,0.0,0.0,0.0,0.0,0.0,0.0,0.0,0.0,0.0,0.0,0,0.0,0.0,0.0,0.0,90.0,90.0,90.0,89.25408935549999,89.5087432861,89.7633895874,30.381999969499997,15.5542573929,1.0399999619,0,2,25,1,114,38
13,1530629182722,1095722, RC,0,39.9586186,-88.445067899,0,0.0,0.0,0.0,0.0,0.0,0.0,0.0,0.0,0.0,0.0,0.0,0.0,0.0,1500,1500,0.0,0.0,40.0482846667,-88.2330675,0.0,0.0,0.0,0.0,0.0,0.0,0.0,0.0,0.0,0.0,0.0,0,0.0,0.0,0.0,0.0,90.0,90.0,90.0,89.25408935549999,89.5087432861,89.7633895874,30.381999969499997,15.5542573929,1.0399999619,0,2,25,1,124,40
14,1530629182772,1095772, RC,0,39.9586186,-88.445067899,0,0.0,0.0,0.0,0.0,0.0,0.0,0.0,0.0,0.0,0.0,0.0,0.0,0.0,1500,1500,0.0,0.0,40.0482846667,-88.2330675,0.0,0.0,0.0,0.0,0.0,0.0,0.0,0.0,0.0,0.0,0.0,0,0.0,0.0,0.0,0.0,90.0,90.0,90.0,89.25408935549999,89.5087432861,89.7633895874,30.381999969499997,15.5493679047,2.1900000572,0,2,25,1,126,42
15,1530629182823,1095823, RC,0,39.9586186,-88.445067899,0,0.0,0.0,0.0,0.0,0.0,0.0,0.0,0.0,0.0,0.0,0.0,0.0,0.0,1500,1500,0.0,0.0,40.0482846667,-88.2330675,0.0,0.0,0.0,0.0,0.0,0.0,0.0,0.0,0.0,0.0,0.0,0,0.0,0.0,0.0,0.0,90.0,90.0,90.0,89.25408935549999,89.5087432861,89.7633895874,30.381999969499997,15.5493679047,2.1900000572,0,2,25,1,116,45
16,1530629182873,1095873, RC,0,39.9586186,-88.445067899,0,0.0,0.0,0.0,0.0,0.0,0.0,0.0,0.0,0.0,0.0,0.0,0.0,0.0,1500,1500,0.0,0.0,40.0482851667,-88.2330703333,0.0,0.0,0.0,0.0,0.0,0.0,0.0,0.0,0.0,0.0,0.0,0,0.0,0.0,0.0,0.0,90.0,90.0,90.0,89.25408935549999,89.5087432861,89.7633895874,30.381999969499997,15.5493679047,2.1900000572,0,2,25,1,106,47
17,1530629182923,1095923, RC,0,39.9586186,-88.445067899,0,0.0,0.0,0.0,0.0,0.0,0.0,0.0,0.0,0.0,0.0,0.0,0.0,0.0,1500,1500,0.0,0.0,40.0482851667,-88.2330703333,0.0,0.0,0.0,0.0,0.0,0.0,0.0,0.0,0.0,0.0,0.0,0,0.0,0.0,0.0,0.0,90.0,90.0,90.0,89.25408935549999,89.5087432861,89.7633895874,30.381999969499997,15.5493679047,2.1900000572,0,2,25,1,110,49
18,1530629182974,1095974, RC,0,39.9586186,-88.445067899,0,0.0,0.0,0.0,0.0,0.0,0.0,0.0,0.0,0.0,0.0,0.0,0.0,0.0,1500,1500,0.0,0.0,40.0482851667,-88.2330703333,0.0,0.0,0.0,0.0,0.0,0.0,0.0,0.0,0.0,0.0,0.0,0,0.0,0.0,0.0,0.0,90.0,90.0,90.0,89.25408935549999,89.5087432861,89.7633895874,30.381999969499997,15.5493679047,2.1900000572,0,2,25,1,115,51
19,1530629183024,1096024, RC,0,39.9586186,-88.445067899,0,0.0,0.0,0.0,0.0,0.0,0.0,0.0,0.0,0.0,0.0,0.0,0.0,0.0,1500,1500,0.0,0.0,40.0482851667,-88.2330703333,0.0,0.0,0.0,0.0,0.0,0.0,0.0,0.0,0.0,0.0,0.0,0,0.0,0.0,0.0,0.0,90.0,90.0,90.0,89.25408935549999,89.5087432861,89.7633895874,30.381999969499997,15.5493679047,2.1900000572,0,2,25,1,120,54
20,1530629183074,1096074, RC,0,39.9586186,-88.445067899,0,0.0,0.0,0.0,0.0,0.0,0.0,0.0,0.0,0.0,0.0,0.0,0.0,0.0,1500,1500,0.0,0.0,40.0482851667,-88.2330703333,0.0,0.0,0.0,0.0,0.0,0.0,0.0,0.0,0.0,0.0,0.0,0,0.0,0.0,0.0,0.0,90.0,90.0,90.0,89.3177566528,89.5087432861,89.7633895874,30.381999969499997,15.5493679047,2.1900000572,0,2,25,1,120,56
21,1530629183125,1096125, RC,0,39.9586186,-88.445067899,0,0.0,0.0,0.0,0.0,0.0,0.0,0.0,0.0,0.0,0.0,0.0,0.0,0.0,1500,1500,0.0,0.0,40.0482851667,-88.2330703333,0.0,0.0,0.0,0.0,0.0,0.0,0.0,0.0,0.0,0.0,0.0,0,0.0,0.0,0.0,0.0,90.0,90.0,90.0,89.3177566528,89.5087432861,89.7633895874,30.381999969499997,15.5493679047,2.1900000572,0,2,25,1,118,58
22,1530629183175,1096175, RC,0,39.9586186,-88.445067899,0,0.0,0.0,0.0,0.0,0.0,0.0,0.0,0.0,0.0,0.0,0.0,0.0,0.0,1500,1500,0.0,0.0,40.0482851667,-88.2330703333,0.0,0.0,0.0,0.0,0.0,0.0,0.0,0.0,0.0,0.0,0.0,0,0.0,0.0,0.0,0.0,90.0,90.0,90.0,89.25408935549999,89.5087432861,89.7633895874,30.381999969499997,15.5493679047,2.1900000572,0,2,25,1,107,61
23,1530629183225,1096225, RC,0,39.9586186,-88.445067899,0,0.0,0.0,0.0,0.0,0.0,0.0,0.0,0.0,0.0,0.0,0.0,0.0,0.0,1500,1500,0.0,0.0,40.0482851667,-88.2330703333,0.0,0.0,0.0,0.0,0.0,0.0,0.0,0.0,0.0,0.0,0.0,0,0.0,0.0,0.0,0.0,90.0,90.0,90.0,89.3177566528,89.5087432861,89.7633895874,30.381999969499997,15.5493679047,2.1900000572,0,2,25,1,124,63
24,1530629183276,1096276, RC,0,39.9586186,-88.445067899,0,0.0,0.0,0.0,0.0,0.0,0.0,0.0,0.0,0.0,0.0,0.0,0.0,0.0,1500,1500,0.0,0.0,40.0482851667,-88.2330703333,0.0,0.0,0.0,0.0,0.0,0.0,0.0,0.0,0.0,0.0,0.0,0,0.0,0.0,0.0,0.0,90.0,90.0,90.0,89.25408935549999,89.5087432861,89.7633895874,30.381999969499997,15.5493679047,2.1900000572,0,2,25,1,113,65
25,1530629183326,1096326, RC,0,39.9586186,-88.445067899,0,0.0,0.0,0.0,0.0,0.0,0.0,0.0,0.0,0.0,0.0,0.0,0.0,0.0,1500,1500,0.0,0.0,40.0482851667,-88.2330703333,0.0,0.0,0.0,0.0,0.0,0.0,0.0,0.0,0.0,0.0,0.0,0,0.0,0.0,0.0,0.0,90.0,90.0,90.0,89.3177566528,89.5087432861,89.7633895874,30.381999969499997,15.5493679047,2.1900000572,0,2,25,1,123,68
26,1530629183376,1096376, RC,0,39.9586186,-88.445067899,0,0.0,0.0,0.0,0.0,0.0,0.0,0.0,0.0,0.0,0.0,0.0,0.0,0.0,1500,1500,0.0,0.0,40.0482851667,-88.2330703333,0.0,0.0,0.0,0.0,0.0,0.0,0.0,0.0,0.0,0.0,0.0,0,0.0,0.0,0.0,0.0,90.0,90.0,90.0,89.3177566528,89.5087432861,89.7633895874,30.381999969499997,15.5493679047,2.1900000572,0,2,25,1,123,72
27,1530629183427,1096427, RC,0,39.9586186,-88.445067899,0,0.0,0.0,0.0,0.0,0.0,0.0,0.0,0.0,0.0,0.0,0.0,0.0,0.0,1500,1500,0.0,0.0,40.0482851667,-88.2330703333,0.0,0.0,0.0,0.0,0.0,0.0,0.0,0.0,0.0,0.0,0.0,0,0.0,0.0,0.0,0.0,90.0,90.0,90.0,89.3177566528,89.5087432861,89.7633895874,30.381999969499997,15.5493679047,2.1900000572,0,2,25,1,110,75
28,1530629183477,1096477, RC,0,39.9586186,-88.445067899,0,0.0,0.0,0.0,0.0,0.0,0.0,0.0,0.0,0.0,0.0,0.0,0.0,0.0,1500,1500,0.0,0.0,40.0482851667,-88.2330703333,0.0,0.0,0.0,0.0,0.0,0.0,0.0,0.0,0.0,0.0,0.0,0,0.0,0.0,0.0,0.0,90.0,90.0,90.0,89.3177566528,89.5087432861,89.7633895874,30.381999969499997,15.5493679047,2.1900000572,0,2,25,1,125,78
29,1530629183527,1096527, RC,0,39.9586186,-88.445067899,0,0.0,0.0,0.0,0.0,0.0,0.0,0.0,0.0,0.0,0.0,0.0,0.0,0.0,1500,1500,0.0,0.0,40.0482851667,-88.2330703333,0.0,0.0,0.0,0.0,0.0,0.0,0.0,0.0,0.0,0.0,0.0,0,0.0,0.0,0.0,0.0,90.0,90.0,90.0,89.3177566528,89.5087432861,89.7633895874,30.381999969499997,15.5493679047,2.1900000572,0,2,25,1,119,80
30,1530629183578,1096578, RC,0,39.9586186,-88.445067899,0,0.0,0.0,0.0,0.0,0.0,0.0,0.0,0.0,0.0,0.0,0.0,0.0,0.0,1500,1500,0.0,0.0,40.0482851667,-88.2330703333,0.0,0.0,0.0,0.0,0.0,0.0,0.0,0.0,0.0,0.0,0.0,0,0.0,0.0,0.0,0.0,90.0,90.0,90.0,89.3177566528,89.5087432861,89.7633895874,30.381999969499997,15.5493679047,2.1900000572,0,2,25,1,123,83
31,1530629183628,1096628, RC,0,39.9586186,-88.445067899,0,0.0,0.0,0.0,0.0,0.0,0.0,0.0,0.0,0.0,0.0,0.0,0.0,0.0,1500,1500,0.0,0.0,40.0482851667,-88.2330703333,0.0,0.0,0.0,0.0,0.0,0.0,0.0,0.0,0.0,0.0,0.0,0,0.0,0.0,0.0,0.0,90.0,90.0,90.0,89.3177566528,89.5087432861,89.7633895874,30.381999969499997,15.5493679047,2.1900000572,0,2,25,1,112,85
32,1530629183678,1096678, RC,0,39.9586186,-88.445067899,0,0.0,0.0,0.0,0.0,0.0,0.0,0.0,0.0,0.0,0.0,0.0,0.0,0.0,1500,1500,0.0,0.0,40.0482851667,-88.2330703333,0.0,0.0,0.0,0.0,0.0,0.0,0.0,0.0,0.0,0.0,0.0,0,0.0,0.0,0.0,0.0,90.0,90.0,90.0,89.3177566528,89.5087432861,89.7633895874,30.381999969499997,15.5493679047,2.1900000572,0,2,25,1,119,88
33,1530629183729,1096729, RC,0,39.9586186,-88.445067899,0,0.0,0.0,0.0,0.0,0.0,0.0,0.0,0.0,0.0,0.0,0.0,0.0,0.0,1500,1500,0.0,0.0,40.0482851667,-88.2330703333,0.0,0.0,0.0,0.0,0.0,0.0,0.0,0.0,0.0,0.0,0.0,0,0.0,0.0,0.0,0.0,90.0,90.0,90.0,89.3177566528,89.5087432861,89.7633895874,30.381999969499997,15.5493679047,2.1900000572,0,2,25,1,94,90
34,1530629183779,1096779, RC,0,39.9586186,-88.445067899,0,0.0,0.0,0.0,0.0,0.0,0.0,0.0,0.0,0.0,0.0,0.0,0.0,0.0,1500,1500,0.0,0.0,40.0482851667,-88.2330703333,0.0,0.0,0.0,0.0,0.0,0.0,0.0,0.0,0.0,0.0,0.0,0,0.0,0.0,0.0,0.0,90.0,90.0,90.0,89.3177566528,89.5087432861,89.7633895874,30.381999969499997,15.5446977615,2.9600000381,0,2,25,1,123,93
35,1530629183829,1096829, RC,0,39.9586186,-88.445067899,0,0.0,0.0,0.0,0.0,0.0,0.0,0.0,0.0,0.0,0.0,0.0,0.0,0.0,1500,1500,0.0,0.0,40.0482851667,-88.2330703333,0.0,0.0,0.0,0.0,0.0,0.0,0.0,0.0,0.0,0.0,0.0,0,0.0,0.0,0.0,0.0,90.0,90.0,90.0,89.3177566528,89.5087432861,89.7633895874,30.381999969499997,15.5446977615,2.9600000381,0,2,25,1,111,95
36,1530629183880,1096880, RC,0,39.9586186,-88.445067899,0,0.0,0.0,0.0,0.0,0.0,0.0,0.0,0.0,0.0,0.0,0.0,0.0,0.0,1500,1500,0.0,0.0,40.048285,-88.2330728333,0.0,0.0,0.0,0.0,0.0,0.0,0.0,0.0,0.0,0.0,0.0,0,0.0,0.0,0.0,0.0,90.0,90.0,90.0,89.3177566528,89.5087432861,89.7633895874,30.381999969499997,15.5446977615,2.9600000381,0,2,25,1,106,98
37,1530629183930,1096930, RC,0,39.9586186,-88.445067899,0,0.0,0.0,0.0,0.0,0.0,0.0,0.0,0.0,0.0,0.0,0.0,0.0,0.0,1500,1500,0.0,0.0,40.048285,-88.2330728333,0.0,0.0,0.0,0.0,0.0,0.0,0.0,0.0,0.0,0.0,0.0,0,0.0,0.0,0.0,0.0,90.0,90.0,90.0,89.3177566528,89.3814163208,89.7633895874,30.381999969499997,15.5446977615,2.9600000381,0,2,25,1,112,100
38,1530629183980,1096980, RC,0,39.9586186,-88.445067899,0,0.0,0.0,0.0,0.0,0.0,0.0,0.0,0.0,0.0,0.0,0.0,0.0,0.0,1500,1500,0.0,0.0,40.048285,-88.2330728333,0.0,0.0,0.0,0.0,0.0,0.0,0.0,0.0,0.0,0.0,0.0,0,0.0,0.0,0.0,0.0,90.0,90.0,90.0,89.3177566528,89.12677001950001,89.7633895874,30.381999969499997,15.5446977615,2.9600000381,0,2,25,1,122,102
39,1530629184031,1097031, RC,0,39.9586186,-88.445067899,0,0.0,0.0,0.0,0.0,0.0,0.0,0.0,0.0,0.0,0.0,0.0,0.0,0.0,1500,1500,0.0,0.0,40.048285,-88.2330728333,0.0,0.0,0.0,0.0,0.0,0.0,0.0,0.0,0.0,0.0,0.0,0,0.0,0.0,0.0,0.0,90.0,90.0,90.0,89.3177566528,89.12677001950001,89.7633895874,30.381999969499997,15.5446977615,2.9600000381,0,2,25,1,121,105
40,1530629184081,1097081, RC,0,39.9586186,-88.445067899,0,0.0,0.0,0.0,0.0,0.0,0.0,0.0,0.0,0.0,0.0,0.0,0.0,0.0,1500,1500,0.0,0.0,40.048285,-88.2330728333,0.0,0.0,0.0,0.0,0.0,0.0,0.0,0.0,0.0,0.0,0.0,0,0.0,0.0,0.0,0.0,90.0,90.0,90.0,89.3177566528,89.12677001950001,89.7633895874,30.381999969499997,15.5446977615,2.9600000381,0,2,25,1,107,107
41,1530629184132,1097132, RC,0,39.9586186,-88.445067899,0,0.0,0.0,0.0,0.0,0.0,0.0,0.0,0.0,0.0,0.0,0.0,0.0,0.0,1500,1500,0.0,0.0,40.048285,-88.2330728333,0.0,0.0,0.0,0.0,0.0,0.0,0.0,0.0,0.0,0.0,0.0,0,0.0,0.0,0.0,0.0,90.0,90.0,90.0,89.3177566528,89.12677001950001,89.7633895874,30.381999969499997,15.5446977615,2.9600000381,0,2,25,1,123,109
42,1530629184182,1097182, RC,0,39.9586186,-88.445067899,0,0.0,0.0,0.0,0.0,0.0,0.0,0.0,0.0,0.0,0.0,0.0,0.0,0.0,1500,1500,0.0,0.0,40.048285,-88.2330728333,0.0,0.0,0.0,0.0,0.0,0.0,0.0,0.0,0.0,0.0,0.0,0,0.0,0.0,0.0,0.0,90.0,90.0,90.0,89.3177566528,89.12677001950001,89.7633895874,30.381999969499997,15.5446977615,2.9600000381,0,2,25,1,111,111
43,1530629184233,1097233, RC,0,39.9586186,-88.445067899,0,0.0,0.0,0.0,0.0,0.0,0.0,0.0,0.0,0.0,0.0,0.0,0.0,0.0,1500,1500,0.0,0.0,40.048285,-88.2330728333,0.0,0.0,0.0,0.0,0.0,0.0,0.0,0.0,0.0,0.0,0.0,0,0.0,0.0,0.0,0.0,90.0,90.0,90.0,89.3177566528,89.12677001950001,89.7633895874,30.381999969499997,15.5446977615,2.9600000381,0,2,25,1,129,115
44,1530629184284,1097284, RC,0,39.9586186,-88.445067899,0,0.0,0.0,0.0,0.0,0.0,0.0,0.0,0.0,0.0,0.0,0.0,0.0,0.0,1500,1500,0.0,0.0,40.048285,-88.2330728333,0.0,0.0,0.0,0.0,0.0,0.0,0.0,0.0,0.0,0.0,0.0,0,0.0,0.0,0.0,0.0,90.0,90.0,90.0,89.3177566528,89.12677001950001,89.7633895874,30.381999969499997,15.5446977615,2.9600000381,0,2,25,1,129,118
45,1530629184334,1097334, RC,0,39.9586186,-88.445067899,0,0.0,0.0,0.0,0.0,0.0,0.0,0.0,0.0,0.0,0.0,0.0,0.0,0.0,1500,1500,0.0,0.0,40.048285,-88.2330728333,0.0,0.0,0.0,0.0,0.0,0.0,0.0,0.0,0.0,0.0,0.0,0,0.0,0.0,0.0,0.0,90.0,90.0,90.0,89.3177566528,89.12677001950001,89.7633895874,30.381999969499997,15.5446977615,2.9600000381,0,2,25,1,123,120
46,1530629184385,1097385, RC,0,39.9586186,-88.445067899,0,0.0,0.0,0.0,0.0,0.0,0.0,0.0,0.0,0.0,0.0,0.0,0.0,0.0,1500,1500,0.0,0.0,40.048285,-88.2330728333,0.0,0.0,0.0,0.0,0.0,0.0,0.0,0.0,0.0,0.0,0.0,0,0.0,0.0,0.0,0.0,90.0,90.0,90.0,89.3177566528,89.12677001950001,89.7633895874,30.381999969499997,15.5446977615,2.9600000381,0,2,25,1,136,123
47,1530629184435,1097435, RC,0,39.9586186,-88.445067899,0,0.0,0.0,0.0,0.0,0.0,0.0,0.0,0.0,0.0,0.0,0.0,0.0,0.0,1500,1500,0.0,0.0,40.048285,-88.2330728333,0.0,0.0,0.0,0.0,0.0,0.0,0.0,0.0,0.0,0.0,0.0,0,0.0,0.0,0.0,0.0,90.0,90.0,90.0,89.3177566528,89.12677001950001,89.7633895874,30.381999969499997,15.5446977615,2.9600000381,0,2,25,1,123,125
48,1530629184486,1097486, RC,0,39.9586186,-88.445067899,0,0.0,0.0,0.0,0.0,0.0,0.0,0.0,0.0,0.0,0.0,0.0,0.0,0.0,1500,1500,0.0,0.0,40.048285,-88.2330728333,0.0,0.0,0.0,0.0,0.0,0.0,0.0,0.0,0.0,0.0,0.0,0,0.0,0.0,0.0,0.0,90.0,90.0,90.0,89.3177566528,89.12677001950001,89.7633895874,30.381999969499997,15.5446977615,2.9600000381,0,2,25,1,119,128
49,1530629184537,1097537, RC,0,39.9586186,-88.445067899,0,0.0,0.0,0.0,0.0,0.0,0.0,0.0,0.0,0.0,0.0,0.0,0.0,0.0,1500,1500,0.0,0.0,40.048285,-88.2330728333,0.0,0.0,0.0,0.0,0.0,0.0,0.0,0.0,0.0,0.0,0.0,0,0.0,0.0,0.0,0.0,90.0,90.0,90.0,89.3177566528,89.12677001950001,89.7633895874,30.381999969499997,15.5446977615,2.9600000381,0,2,25,1,125,131
50,1530629184587,1097587, RC,0,39.9586186,-88.445067899,0,0.0,0.0,0.0,0.0,0.0,0.0,0.0,0.0,0.0,0.0,0.0,0.0,0.0,1500,1500,0.0,0.0,40.048285,-88.2330728333,0.0,0.0,0.0,0.0,0.0,0.0,0.0,0.0,0.0,0.0,0.0,0,0.0,0.0,0.0,0.0,90.0,90.0,90.0,89.3177566528,89.12677001950001,89.7633895874,30.381999969499997,15.5446977615,2.9600000381,0,2,25,1,132,133
51,1530629184638,1097638, RC,0,39.9586186,-88.445067899,0,0.0,0.0,0.0,0.0,0.0,0.0,0.0,0.0,0.0,0.0,0.0,0.0,0.0,1500,1500,0.0,0.0,40.048285,-88.2330728333,0.0,0.0,0.0,0.0,0.0,0.0,0.0,0.0,0.0,0.0,0.0,0,0.0,0.0,0.0,0.0,90.0,90.0,90.0,89.3177566528,89.12677001950001,89.7633895874,30.381999969499997,15.5446977615,2.9600000381,0,2,25,1,120,136
52,1530629184689,1097689, RC,0,39.9586186,-88.445067899,0,0.0,0.0,0.0,0.0,0.0,0.0,0.0,0.0,0.0,0.0,0.0,0.0,0.0,1500,1500,0.0,0.0,40.048285,-88.2330728333,0.0,0.0,0.0,0.0,0.0,0.0,0.0,0.0,0.0,0.0,0.0,0,0.0,0.0,0.0,0.0,90.0,90.0,90.0,89.3177566528,89.12677001950001,89.7633895874,30.381999969499997,15.5446977615,2.9600000381,0,2,25,1,126,138
53,1530629184739,1097739, RC,0,39.9586186,-88.445067899,0,0.0,0.0,0.0,0.0,0.0,0.0,0.0,0.0,0.0,0.0,0.0,0.0,0.0,1500,1500,0.0,0.0,40.048285,-88.2330728333,0.0,0.0,0.0,0.0,0.0,0.0,0.0,0.0,0.0,0.0,0.0,0,0.0,0.0,0.0,0.0,90.0,90.0,90.0,89.3177566528,89.12677001950001,89.7633895874,30.381999969499997,15.5446977615,2.9600000381,0,2,25,1,131,141
54,1530629184790,1097790, RC,0,39.9586186,-88.445067899,0,0.0,0.0,0.0,0.0,0.0,0.0,0.0,0.0,0.0,0.0,0.0,0.0,0.0,1500,1500,0.0,0.0,40.048285,-88.2330728333,0.0,0.0,0.0,0.0,0.0,0.0,0.0,0.0,0.0,0.0,0.0,0,0.0,0.0,0.0,0.0,90.0,90.0,90.0,89.3177566528,89.12677001950001,89.7633895874,30.381999969499997,15.5398578644,2.5099999905000003,0,2,25,1,136,143
55,1530629184840,1097840, RC,0,39.9586186,-88.445067899,0,0.0,0.0,0.0,0.0,0.0,0.0,0.0,0.0,0.0,0.0,0.0,0.0,0.0,1500,1500,0.0,0.0,40.048285,-88.2330728333,0.0,0.0,0.0,0.0,0.0,0.0,0.0,0.0,0.0,0.0,0.0,0,0.0,0.0,0.0,0.0,90.0,90.0,90.0,89.25408935549999,89.12677001950001,89.7633895874,30.381999969499997,15.5398578644,2.5099999905000003,0,2,25,1,111,145
56,1530629184891,1097891, RC,0,39.9586186,-88.445067899,0,0.0,0.0,0.0,0.0,0.0,0.0,0.0,0.0,0.0,0.0,0.0,0.0,0.0,1500,1500,0.0,0.0,40.048285,-88.233075,0.0,0.0,0.0,0.0,0.0,0.0,0.0,0.0,0.0,0.0,0.0,0,0.0,0.0,0.0,0.0,90.0,90.0,90.0,89.0631027222,89.12677001950001,89.82704925540001,30.381999969499997,15.5398578644,2.5099999905000003,0,2,25,1,120,148
57,1530629184942,1097942, RC,0,39.9586186,-88.445067899,0,0.0,0.0,0.0,0.0,0.0,0.0,0.0,0.0,0.0,0.0,0.0,0.0,0.0,1500,1500,0.0,0.0,40.048285,-88.233075,0.0,0.0,0.0,0.0,0.0,0.0,0.0,0.0,0.0,0.0,0.0,0,0.0,0.0,0.0,0.0,90.0,90.0,90.0,89.0631027222,89.12677001950001,89.82704925540001,30.381999969499997,15.5398578644,2.5099999905000003,0,2,25,1,132,150
58,1530629184992,1097992, RC,0,39.9586186,-88.445067899,0,0.0,0.0,0.0,0.0,0.0,0.0,0.0,0.0,0.0,0.0,0.0,0.0,0.0,1500,1500,0.0,0.0,40.048285,-88.233075,0.0,0.0,0.0,0.0,0.0,0.0,0.0,0.0,0.0,0.0,0.0,0,0.0,0.0,0.0,0.0,90.0,90.0,90.0,88.9994430542,89.12677001950001,89.82704925540001,30.381999969499997,15.5398578644,2.5099999905000003,0,2,25,1,117,152
59,1530629185043,1098043, RC,0,39.9586186,-88.445067899,0,0.0,0.0,0.0,0.0,0.0,0.0,0.0,0.0,0.0,0.0,0.0,0.0,0.0,1500,1500,0.0,0.0,40.048285,-88.233075,0.0,0.0,0.0,0.0,0.0,0.0,0.0,0.0,0.0,0.0,0.0,0,0.0,0.0,0.0,0.0,90.0,90.0,90.0,88.9994430542,89.12677001950001,89.82704925540001,30.381999969499997,15.5398578644,2.5099999905000003,0,2,25,1,125,154
60,1530629185093,1098093, RC,0,39.9586186,-88.445067899,0,0.0,0.0,0.0,0.0,0.0,0.0,0.0,0.0,0.0,0.0,0.0,0.0,0.0,1500,1500,0.0,0.0,40.048285,-88.233075,0.0,0.0,0.0,0.0,0.0,0.0,0.0,0.0,0.0,0.0,0.0,0,0.0,0.0,0.0,0.0,90.0,90.0,90.0,88.9994430542,89.12677001950001,89.82704925540001,30.381999969499997,15.5398578644,2.5099999905000003,0,2,25,1,124,157
61,1530629185144,1098144, RC,0,39.9586186,-88.445067899,0,0.0,0.0,0.0,0.0,0.0,0.0,0.0,0.0,0.0,0.0,0.0,0.0,0.0,1500,1500,0.0,0.0,40.048285,-88.233075,0.0,0.0,0.0,0.0,0.0,0.0,0.0,0.0,0.0,0.0,0.0,0,0.0,0.0,0.0,0.0,90.0,90.0,90.0,88.9994430542,89.12677001950001,89.82704925540001,30.381999969499997,15.5398578644,2.5099999905000003,0,2,25,1,125,160
62,1530629185195,1098195, RC,0,39.9586186,-88.445067899,0,0.0,0.0,0.0,0.0,0.0,0.0,0.0,0.0,0.0,0.0,0.0,0.0,0.0,1500,1500,0.0,0.0,40.048285,-88.233075,0.0,0.0,0.0,0.0,0.0,0.0,0.0,0.0,0.0,0.0,0.0,0,0.0,0.0,0.0,0.0,90.0,90.0,90.0,88.9994430542,89.12677001950001,89.82704925540001,30.381999969499997,15.5398578644,2.5099999905000003,0,2,25,1,142,163
63,1530629185245,1098245, RC,0,39.9586186,-88.445067899,0,0.0,0.0,0.0,0.0,0.0,0.0,0.0,0.0,0.0,0.0,0.0,0.0,0.0,1500,1500,0.0,0.0,40.048285,-88.233075,0.0,0.0,0.0,0.0,0.0,0.0,0.0,0.0,0.0,0.0,0.0,0,0.0,0.0,0.0,0.0,90.0,90.0,90.0,88.8721160889,89.12677001950001,89.82704925540001,30.381999969499997,15.5398578644,2.5099999905000003,0,2,25,1,124,166
64,1530629185296,1098296, RC,0,39.9586186,-88.445067899,0,0.0,0.0,0.0,0.0,0.0,0.0,0.0,0.0,0.0,0.0,0.0,0.0,0.0,1500,1500,0.0,0.0,40.048285,-88.233075,0.0,0.0,0.0,0.0,0.0,0.0,0.0,0.0,0.0,0.0,0.0,0,0.0,0.0,0.0,0.0,90.0,90.0,90.0,88.8721160889,89.12677001950001,89.82704925540001,30.381999969499997,15.5398578644,2.5099999905000003,0,2,25,1,121,168
65,1530629185347,1098347, RC,0,39.9586186,-88.445067899,0,0.0,0.0,0.0,0.0,0.0,0.0,0.0,0.0,0.0,0.0,0.0,0.0,0.0,1500,1500,0.0,0.0,40.048285,-88.233075,0.0,0.0,0.0,0.0,0.0,0.0,0.0,0.0,0.0,0.0,0.0,0,0.0,0.0,0.0,0.0,90.0,90.0,90.0,88.8084564209,89.12677001950001,89.82704925540001,30.381999969499997,15.5398578644,2.5099999905000003,0,2,25,1,127,171
66,1530629185397,1098397, RC,0,39.9586186,-88.445067899,0,0.0,0.0,0.0,0.0,0.0,0.0,0.0,0.0,0.0,0.0,0.0,0.0,0.0,1500,1500,0.0,0.0,40.048285,-88.233075,0.0,0.0,0.0,0.0,0.0,0.0,0.0,0.0,0.0,0.0,0.0,0,0.0,0.0,0.0,0.0,90.0,90.0,90.0,88.74479675290002,89.12677001950001,89.82704925540001,30.381999969499997,15.5398578644,2.5099999905000003,0,2,25,1,125,173
67,1530629185448,1098448, RC,0,39.9586186,-88.445067899,0,0.0,0.0,0.0,0.0,0.0,0.0,0.0,0.0,0.0,0.0,0.0,0.0,0.0,1500,1500,0.0,0.0,40.048285,-88.233075,0.0,0.0,0.0,0.0,0.0,0.0,0.0,0.0,0.0,0.0,0.0,0,0.0,0.0,0.0,0.0,90.0,90.0,90.0,88.681137085,89.0631027222,89.82704925540001,30.381999969499997,15.5398578644,2.5099999905000003,0,2,25,1,144,176
68,1530629185498,1098498, RC,0,39.9586186,-88.445067899,0,0.0,0.0,0.0,0.0,0.0,0.0011955709,0.0,0.0,0.0,0.0,0.0,0.0,0.0,1500,1500,0.0,0.0,40.048285,-88.233075,0.0,0.0,0.0,0.0,0.0,0.0,0.0,0.0,0.0,0.0,0.0,0,0.0,0.0,0.0,0.0023911418,90.0,90.0,90.0,88.6174697876,89.0631027222,89.82704925540001,30.381999969499997,15.5398578644,2.5099999905000003,0,2,25,1,123,178
69,1530629185549,1098549, RC,0,39.9586186,-88.445067899,0,0.0,0.0,0.0,0.0,0.0,0.0017473729000000002,0.0,0.0,0.0,0.0,0.0,0.0,0.0,1500,1500,0.0,0.0,40.048285,-88.233075,0.0,0.0,0.0,0.0,0.0,0.0,0.0,0.0,0.0,0.0,0.0,0,0.0,0.0,0.0,0.0034947458000000003,90.0,90.0,90.0,88.55381011959999,89.3177566528,89.8907089233,30.381999969499997,15.5398578644,2.5099999905000003,0,2,25,1,120,180
70,1530629185600,1098600, RC,0,39.9586186,-88.445067899,0,0.0,0.0,0.0,0.0,0.0,0.0024831088,0.0,0.0,0.0,0.0,0.0,0.0,0.0,1500,1500,0.0,0.0,40.048285,-88.233075,0.0,0.0,0.0,0.0,0.0,0.0,0.0,0.0,0.0,0.0,0.0,0,0.0,0.0,0.0,0.0049662176,90.0,76.0,90.0,88.55381011959999,89.25408935549999,90.01803588870001,30.381999969499997,15.5398578644,2.5099999905000003,0,2,25,1,119,183
71,1530629185650,1098650, RC,0,39.9586186,-88.445067899,0,0.0,0.0,0.0,0.0,0.0,0.0030349109000000003,0.0,0.0,0.0,0.0,0.0,0.0,0.0,1500,1500,0.0,0.0,40.048285,-88.233075,0.0,0.0,0.0,0.0,0.0,0.0,0.0,0.0,0.0,0.0,0.0,0,0.0,0.0,0.0,0.006069821800000001,90.0,76.0,90.0,88.55381011959999,89.1904296875,90.0816955566,30.381999969499997,15.5398578644,2.5099999905000003,0,2,25,1,117,185
72,1530629185701,1098701, RC,0,39.9586186,-88.445067899,0,0.0,0.0,0.0,0.0,0.0,0.0028509768,0.0,0.0,0.0,0.0,0.0,0.0,0.0,1500,1500,0.0,0.0,40.048285,-88.233075,0.0,0.0,0.0,0.0,0.0,0.0,0.0,0.0,0.0,0.0,0.0,0,0.0,0.0,0.0,0.0057019535,90.0,70.0,90.0,88.55381011959999,96.8298721313,90.0816955566,30.381999969499997,15.5398578644,2.5099999905000003,0,2,25,1,111,187
73,1530629185751,1098751, RC,0,39.9586186,-88.445067899,0,0.0,0.0,0.0,0.0,0.0,0.002115241,0.0,0.0,0.0,0.0,0.0,0.0,0.0,1500,1500,0.0,0.0,40.048285,-88.233075,0.0,0.0,0.0,0.0,0.0,0.0,0.0,0.0,0.0,0.0,0.0,0,0.0,0.0,0.0,0.004230482,90.0,70.0,90.0,88.55381011959999,107.52507781979999,90.0816955566,30.381999969499997,15.5398578644,2.5099999905000003,0,2,25,1,118,190
74,1530629185802,1098802, RC,0,39.9586186,-88.445067899,0,0.0,0.0,0.0,0.0,0.0,0.0017473729000000002,0.0,0.0,0.0,0.0,0.0,0.0,0.0,1500,1500,0.0,0.0,40.048285,-88.233075,0.0,0.0,0.0,0.0,0.0,0.0,0.0,0.0,0.0,0.0,0.0,0,0.0,0.0,0.0,0.0034947458000000003,90.0,67.0,90.0,88.55381011959999,108.352684021,89.8907089233,30.381999969499997,15.5351896286,3.0199999808999998,0,2,25,1,122,192
75,1530629185853,1098853, RC,0,39.9586186,-88.445067899,0,0.0,0.0,0.0,0.0,0.0,0.001287538,0.0,0.0,0.0,0.0,0.0,0.0,0.0,1500,1500,0.0,0.0,40.048285,-88.233075,0.0,0.0,0.0,0.0,0.0,0.0,0.0,0.0,0.0,0.0,0.0,0,0.0,0.0,0.0,0.002575076,90.0,67.0,90.0,88.55381011959999,109.4986038208,89.63606262209998,30.381999969499997,15.5351896286,3.0199999808999998,0,2,25,1,121,195
76,1530629185903,1098903, RC,0,39.9586186,-88.445067899,0,0.0,0.0,0.0,0.0,0.0,0.001103604,0.0,0.0,0.0,0.0,0.0,0.0,0.0,1500,1500,0.0,0.0,40.0482846667,-88.2330761667,0.0,0.0,0.0,0.0,0.0,0.0,0.0,0.0,0.0,0.0,0.0,0,0.0,0.0,0.0,0.002207208,90.0,66.0,90.0,88.4901504517,111.85409545899999,89.63606262209998,30.381999969499997,15.5351896286,3.0199999808999998,0,2,25,1,133,197
77,1530629185954,1098954, RC,0,39.9586186,-88.445067899,0,0.0,0.0,0.0,0.0,0.0,0.0013795048999999998,0.0,0.0,0.0,0.0,0.0,0.0,0.0,1500,1500,0.0,0.0,40.0482846667,-88.2330761667,0.0,0.0,0.0,0.0,0.0,0.0,0.0,0.0,0.0,0.0,0.0,0,0.0,0.0,0.0,0.0027590097999999996,90.0,66.0,90.0,88.4901504517,112.55437469479999,89.63606262209998,30.381999969499997,15.5351896286,3.0199999808999998,0,2,25,1,128,199
78,1530629186005,1099005, RC,0,39.9586186,-88.445067899,0,0.0,0.0,0.0,0.0,0.0,0.0015634389000000002,0.0,0.0,0.0,0.0,0.0,0.0,0.0,1500,1500,0.0,0.0,40.0482846667,-88.2330761667,0.0,0.0,0.0,0.0,0.0,0.0,0.0,0.0,0.0,0.0,0.0,0,0.0,0.0,0.0,0.0031268778000000004,90.0,66.0,90.0,88.681137085,112.4907150269,89.63606262209998,30.381999969499997,15.5351896286,3.0199999808999998,0,2,25,1,133,201
79,1530629186055,1099055, RC,0,39.9586186,-88.445067899,0,0.0,0.0,0.0,0.0,0.0,0.0015634389000000002,0.0,0.0,0.0,0.0,0.0,0.0,0.0,1500,1500,0.0,0.0,40.0482846667,-88.2330761667,0.0,0.0,0.0,0.0,0.0,0.0,0.0,0.0,0.0,0.0,0.0,0,0.0,0.0,0.0,0.0031268778000000004,90.0,66.0,90.0,89.44507598879999,112.55437469479999,89.63606262209998,30.381999969499997,15.5351896286,3.0199999808999998,0,2,25,1,129,204
80,1530629186106,1099106, RC,0,39.9586186,-88.445067899,0,0.0,0.0,0.0,0.0,0.0,0.0018393398,0.0,0.0,0.0,0.0,0.0,0.0,0.0,1500,1500,0.0,0.0,40.0482846667,-88.2330761667,0.0,0.0,0.0,0.0,0.0,0.0,0.0,0.0,0.0,0.0,0.0,0,0.0,0.0,0.0,0.0036786796999999996,90.0,66.0,90.0,89.44507598879999,112.4907150269,89.63606262209998,30.381999969499997,15.5351896286,3.0199999808999998,0,2,25,1,128,206
81,1530629186156,1099156, RC,0,39.9586186,-88.445067899,0,0.0,0.0,0.0,0.0,0.0,0.0022991749,0.0,0.0,0.0,0.0,0.0,0.0,0.0,1500,1500,0.0,0.0,40.0482846667,-88.2330761667,0.0,0.0,0.0,0.0,0.0,0.0,0.0,0.0,0.0,0.0,0.0,0,0.0,0.0,0.0,0.0045983498,90.0,66.0,90.0,89.44507598879999,112.4907150269,89.3814163208,30.381999969499997,15.5351896286,3.0199999808999998,0,2,25,1,137,208
82,1530629186207,1099207, RC,0,39.9586186,-88.445067899,0,0.0,0.0,0.0,0.0,0.0,0.0027590097999999996,0.0,0.0,0.0,0.0,0.0,0.0,0.0,1500,1500,0.0,0.0,40.0482846667,-88.2330761667,0.0,0.0,0.0,0.0,0.0,0.0,0.0,0.0,0.0,0.0,0.0,0,0.0,0.0,0.0,0.0055180197,90.0,66.0,90.0,89.44507598879999,112.6817016602,89.44507598879999,30.381999969499997,15.5351896286,3.0199999808999998,0,2,25,1,141,211
83,1530629186258,1099258, RC,0,39.9586186,-88.445067899,0,0.0,0.0,0.0,0.0,0.0,0.002207208,0.0,0.0,0.0,0.0,0.0,0.0,0.0,1500,1500,0.0,0.0,40.0482846667,-88.2330761667,0.0,0.0,0.0,0.0,0.0,0.0,0.0,0.0,0.0,0.0,0.0,0,0.0,0.0,0.0,0.0044144159,90.0,66.0,90.0,89.44507598879999,113.1273269653,89.3814163208,30.381999969499997,15.5351896286,3.0199999808999998,0,2,25,1,127,213
84,1530629186308,1099308, RC,0,39.9586186,-88.445067899,0,0.0,0.0,0.0,0.0,0.0,0.0018393398,0.0,0.0,0.0,0.0,0.0,0.0,0.0,1500,1500,0.0,0.0,40.0482846667,-88.2330761667,0.0,0.0,0.0,0.0,0.0,0.0,0.0,0.0,0.0,0.0,0.0,0,0.0,0.0,0.0,0.0036786796999999996,90.0,66.0,90.0,89.44507598879999,113.1273269653,89.3814163208,30.381999969499997,15.5351896286,3.0199999808999998,0,2,25,1,129,215
85,1530629186359,1099359, RC,0,39.9586186,-88.445067899,0,0.0,0.0,0.0,0.0,0.0,0.0013795048999999998,0.0,0.0,0.0,0.0,0.0,0.0,0.0,1500,1500,0.0,0.0,40.0482846667,-88.2330761667,0.0,0.0,0.0,0.0,0.0,0.0,0.0,0.0,0.0,0.0,0.0,0,0.0,0.0,0.0,0.0027590097999999996,90.0,66.0,90.0,89.44507598879999,113.1273269653,89.3814163208,30.381999969499997,15.5351896286,3.0199999808999998,0,2,25,1,138,219
86,1530629186410,1099410, RC,0,39.9586186,-88.445067899,0,0.0,0.0,0.0,0.0,0.0,0.001103604,0.0,0.0,0.0,0.0,0.0,0.0,0.0,1500,1500,0.0,0.0,40.0482846667,-88.2330761667,0.0,0.0,0.0,0.0,0.0,0.0,0.0,0.0,0.0,0.0,0.0,0,0.0,0.0,0.0,0.002207208,90.0,66.0,90.0,89.44507598879999,113.0636749268,89.3814163208,30.381999969499997,15.5351896286,3.0199999808999998,0,2,25,1,137,223
87,1530629186460,1099460, RC,0,39.9586186,-88.445067899,0,0.0,0.0,0.0,0.0,0.0,0.0008277028999999999,0.0,0.0,0.0,0.0,0.0,0.0,0.0,1500,1500,0.0,0.0,40.0482846667,-88.2330761667,0.0,0.0,0.0,0.0,0.0,0.0,0.0,0.0,0.0,0.0,0.0,0,0.0,0.0,0.0,0.0016554058999999999,90.0,66.0,90.0,89.44507598879999,113.0636749268,89.44507598879999,30.381999969499997,15.5351896286,3.0199999808999998,0,2,25,1,151,225
88,1530629186511,1099511, RC,0,39.9586186,-88.445067899,0,0.0,0.0,0.0,0.0,0.0,0.0007357360000000001,0.0,0.0,0.0,0.0,0.0,0.0,0.0,1500,1500,0.0,0.0,40.0482846667,-88.2330761667,0.0,0.0,0.0,0.0,0.0,0.0,0.0,0.0,0.0,0.0,0.0,0,0.0,0.0,0.0,0.0014714720000000001,90.0,66.0,90.0,89.44507598879999,113.0636749268,89.44507598879999,30.381999969499997,15.5351896286,3.0199999808999998,0,2,25,1,138,228
89,1530629186561,1099561, RC,0,39.9586186,-88.445067899,0,0.0,0.0,0.0,0.0,0.0,0.000551802,0.0,0.0,0.0,0.0,0.0,0.0,0.0,1500,1500,0.0,0.0,40.0482846667,-88.2330761667,0.0,0.0,0.0,0.0,0.0,0.0,0.0,0.0,0.0,0.0,0.0,0,0.0,0.0,0.0,0.001103604,90.0,66.0,90.0,89.44507598879999,113.0636749268,89.5087432861,30.381999969499997,15.5351896286,3.0199999808999998,0,2,25,1,137,230
90,1530629186612,1099612, RC,0,39.9586186,-88.445067899,0,0.0,0.0,0.0,0.0,0.0,0.000459835,0.0,0.0,0.0,0.0,0.0,0.0,0.0,1500,1500,0.0,0.0,40.0482846667,-88.2330761667,0.0,0.0,0.0,0.0,0.0,0.0,0.0,0.0,0.0,0.0,0.0,0,0.0,0.0,0.0,0.0009196699,90.0,66.0,90.0,89.44507598879999,113.0636749268,89.5087432861,30.381999969499997,15.5351896286,3.0199999808999998,0,2,25,1,142,233
91,1530629186662,1099662, RC,0,39.9586186,-88.445067899,0,0.0,0.0,0.0,0.0,0.0,0.000275901,0.0,0.0,0.0,0.0,0.0,0.0,0.0,1500,1500,0.0,0.0,40.0482846667,-88.2330761667,0.0,0.0,0.0,0.0,0.0,0.0,0.0,0.0,0.0,0.0,0.0,0,0.0,0.0,0.0,0.000551802,90.0,66.0,90.0,89.44507598879999,113.0636749268,89.5724029541,30.381999969499997,15.5351896286,3.0199999808999998,0,2,25,1,144,235
92,1530629186713,1099713, RC,0,39.9586186,-88.445067899,0,0.0,0.0,0.0,0.0,0.0,0.000275901,0.0,0.0,0.0,0.0,0.0,0.0,0.0,1500,1500,0.0,0.0,40.0482846667,-88.2330761667,0.0,0.0,0.0,0.0,0.0,0.0,0.0,0.0,0.0,0.0,0.0,0,0.0,0.0,0.0,0.000551802,90.0,64.0,90.0,89.44507598879999,113.0000076294,89.5724029541,30.381999969499997,15.5351896286,3.0199999808999998,0,2,25,1,139,237
93,1530629186764,1099764, RC,0,39.9586186,-88.445067899,0,0.0,0.0,0.0,0.0,0.0,0.00018393400000000002,0.0,0.0,0.0,0.0,0.0,0.0,0.0,1500,1500,0.0,0.0,40.0482846667,-88.2330761667,0.0,0.0,0.0,0.0,0.0,0.0,0.0,0.0,0.0,0.0,0.0,0,0.0,0.0,0.0,0.00036786800000000004,90.0,64.0,90.0,89.44507598879999,113.5729675293,89.63606262209998,30.381999969499997,15.5305204391,3.0699999332,0,2,25,1,140,240
94,1530629186814,1099814, RC,0,39.9586186,-88.445067899,0,0.0,0.0,0.0,0.0,0.0,0.00018393400000000002,0.0,0.0,0.0,0.0,0.0,0.0,0.0,1500,1500,0.0,0.0,40.0482846667,-88.2330761667,0.0,0.0,0.0,0.0,0.0,0.0,0.0,0.0,0.0,0.0,0.0,0,0.0,0.0,0.0,0.00036786800000000004,90.0,64.0,90.0,89.44507598879999,114.78254699709998,89.63606262209998,30.381999969499997,15.5305204391,3.0699999332,0,2,25,1,150,242
95,1530629186865,1099865, RC,0,39.9586186,-88.445067899,0,0.0,0.0,0.0,0.0,0.0,9.196700000000001e-05,0.0,0.0,0.0,0.0,0.0,0.0,0.0,1500,1500,0.0,0.0,40.0482846667,-88.2330768333,0.0,0.0,0.0,0.0,0.0,0.0,0.0,0.0,0.0,0.0,0.0,0,0.0,0.0,0.0,0.00018393400000000002,90.0,64.0,90.0,89.44507598879999,115.291847229,89.63606262209998,30.381999969499997,15.5305204391,3.0699999332,0,2,25,1,129,244
96,1530629186915,1099915, RC,0,39.9586186,-88.445067899,0,0.0,0.0,0.0,0.0,0.0,9.196700000000001e-05,0.0,0.0,0.0,0.0,0.0,0.0,0.0,1500,1500,0.0,0.0,40.0482846667,-88.2330768333,0.0,0.0,0.0,0.0,0.0,0.0,0.0,0.0,0.0,0.0,0.0,0,0.0,0.0,0.0,0.00018393400000000002,90.0,64.0,90.0,89.44507598879999,115.291847229,89.6997299194,30.381999969499997,15.5305204391,3.0699999332,0,2,25,1,135,246
97,1530629186966,1099966, RC,0,39.9586186,-88.445067899,0,0.0,0.0,0.0,0.0,0.0,9.196700000000001e-05,0.0,0.0,0.0,0.0,0.0,0.0,0.0,1500,1500,0.0,0.0,40.0482846667,-88.2330768333,0.0,0.0,0.0,0.0,0.0,0.0,0.0,0.0,0.0,0.0,0.0,0,0.0,0.0,0.0,0.00018393400000000002,90.0,64.0,90.0,89.44507598879999,115.291847229,89.6997299194,30.381999969499997,15.5305204391,3.0699999332,0,2,25,1,125,249
98,1530629187017,1100017, RC,0,39.9586186,-88.445067899,0,0.0,0.0,0.0,0.0,0.0,0.0,0.0,0.0,0.0,0.0,0.0,0.0,0.0,1500,1500,0.0,0.0,40.0482846667,-88.2330768333,0.0,0.0,0.0,0.0,0.0,0.0,0.0,0.0,0.0,0.0,0.0,0,0.0,0.0,0.0,0.0,90.0,64.0,90.0,89.44507598879999,115.2281723022,89.6997299194,30.381999969499997,15.5305204391,3.0699999332,0,2,25,1,116,251
99,1530629187067,1100067, RC,0,39.9586186,-88.445067899,0,0.0,0.0,0.0,0.0,0.0,0.0,0.0,0.0,0.0,0.0,0.0,0.0,0.0,1500,1500,0.0,0.0,40.0482846667,-88.2330768333,0.0,0.0,0.0,0.0,0.0,0.0,0.0,0.0,0.0,0.0,0.0,0,0.0,0.0,0.0,0.0,90.0,64.0,90.0,89.44507598879999,115.2281723022,89.6997299194,30.381999969499997,15.5305204391,3.0699999332,0,2,25,1,121,254
100,1530629187118,1100118, RC,0,39.9586186,-88.445067899,0,0.0,0.0,0.0,0.0,0.0,0.0,0.0,0.0,0.0,0.0,0.0,0.0,0.0,1500,1500,0.0,0.0,40.0482846667,-88.2330768333,0.0,0.0,0.0,0.0,0.0,0.0,0.0,0.0,0.0,0.0,0.0,0,0.0,0.0,0.0,0.0,90.0,64.0,90.0,89.44507598879999,115.2281723022,89.6997299194,30.381999969499997,15.5305204391,3.0699999332,0,2,25,1,139,256
101,1530629187168,1100168, RC,0,39.9586186,-88.445067899,0,0.0,0.0,0.0,0.0,0.0,0.0,0.0,0.0,0.0,0.0,0.0,0.0,0.0,1500,1500,0.0,0.0,40.0482846667,-88.2330768333,0.0,0.0,0.0,0.0,0.0,0.0,0.0,0.0,0.0,0.0,0.0,0,0.0,0.0,0.0,0.0,90.0,64.0,90.0,89.5087432861,115.2281723022,89.63606262209998,30.381999969499997,15.5305204391,3.0699999332,0,2,25,1,122,258
102,1530629187219,1100219, RC,0,39.9586186,-88.445067899,0,0.0,0.0,0.0,0.0,0.0,0.0,0.0,0.0,0.0,0.0,0.0,0.0,0.0,1500,1500,0.0,0.0,40.0482846667,-88.2330768333,0.0,0.0,0.0,0.0,0.0,0.0,0.0,0.0,0.0,0.0,0.0,0,0.0,0.0,0.0,0.0,90.0,64.0,90.0,89.5087432861,115.2281723022,89.12677001950001,30.381999969499997,15.5305204391,3.0699999332,0,2,25,1,114,261
103,1530629187270,1100270, RC,0,39.9586186,-88.445067899,0,0.0,0.0,0.0,0.0,0.0,0.0,0.0,0.0,0.0,0.0,0.0,0.0,0.0,1500,1500,0.0,0.0,40.0482846667,-88.2330768333,0.0,0.0,0.0,0.0,0.0,0.0,0.0,0.0,0.0,0.0,0.0,0,0.0,0.0,0.0,0.0,90.0,64.0,90.0,89.5087432861,115.2281723022,89.0631027222,30.381999969499997,15.5305204391,3.0699999332,0,2,25,1,105,264
104,1530629187320,1100320, RC,0,39.9586186,-88.445067899,0,0.0,0.0,0.0,0.0,0.0,0.0,0.0,0.0,0.0,0.0,0.0,0.0,0.0,1500,1500,0.0,0.0,40.0482846667,-88.2330768333,0.0,0.0,0.0,0.0,0.0,0.0,0.0,0.0,0.0,0.0,0.0,0,0.0,0.0,0.0,0.0,90.0,63.0,90.0,89.5087432861,115.2281723022,89.0631027222,30.381999969499997,15.5305204391,3.0699999332,0,2,25,1,115,268
105,1530629187371,1100371, RC,0,39.9586186,-88.445067899,0,0.0,0.0,0.0,0.0,0.0,0.0,0.0,0.0,0.0,0.0,0.0,0.0,0.0,1500,1500,0.0,0.0,40.0482846667,-88.2330768333,0.0,0.0,0.0,0.0,0.0,0.0,0.0,0.0,0.0,0.0,0.0,0,0.0,0.0,0.0,0.0,90.0,63.0,90.0,89.5087432861,115.291847229,88.9994430542,30.381999969499997,15.5305204391,3.0699999332,0,2,25,1,106,270
106,1530629187421,1100421, RC,0,39.9586186,-88.445067899,0,0.0,0.0,0.0,0.0,0.0,0.0,0.0,0.0,0.0,0.0,0.0,0.0,0.0,1500,1500,0.0,0.0,40.0482846667,-88.2330768333,0.0,0.0,0.0,0.0,0.0,0.0,0.0,0.0,0.0,0.0,0.0,0,0.0,0.0,0.0,0.0,90.0,63.0,90.0,89.5087432861,116.24677276610001,88.9994430542,30.381999969499997,15.5305204391,3.0699999332,0,2,25,1,116,273
107,1530629187472,1100472, RC,0,39.9586186,-88.445067899,0,0.0,0.0,0.0,0.0,0.0,0.0,0.0,0.0,0.0,0.0,0.0,0.0,0.0,1500,1500,0.0,0.0,40.0482846667,-88.2330768333,0.0,0.0,0.0,0.0,0.0,0.0,0.0,0.0,0.0,0.0,0.0,0,0.0,0.0,0.0,0.0,90.0,63.0,90.0,89.5087432861,116.3104324341,88.9994430542,30.381999969499997,15.5305204391,3.0699999332,0,2,25,1,116,275
108,1530629187522,1100522, RC,0,39.9586186,-88.445067899,0,0.0,0.0,0.0,0.0,0.0,0.0,0.0,0.0,0.0,0.0,0.0,0.0,0.0,1500,1500,0.0,0.0,40.0482846667,-88.2330768333,0.0,0.0,0.0,0.0,0.0,0.0,0.0,0.0,0.0,0.0,0.0,0,0.0,0.0,0.0,0.0,90.0,60.0,90.0,89.5087432861,116.3104324341,88.9994430542,30.381999969499997,15.5305204391,3.0699999332,0,2,25,1,93,278
109,1530629187573,1100573, RC,0,39.9586186,-88.445067899,0,0.0,0.0,0.0,0.0,0.0,0.0,0.0,0.0,0.0,0.0,0.0,0.0,0.0,1500,1500,0.0,0.0,40.0482846667,-88.2330768333,0.0,0.0,0.0,0.0,0.0,0.0,0.0,0.0,0.0,0.0,0.0,0,0.0,0.0,0.0,0.0,90.0,60.0,90.0,89.5087432861,116.62874603270001,88.9994430542,30.381999969499997,15.5305204391,3.0699999332,0,2,25,1,120,280
110,1530629187624,1100624, RC,0,39.9586186,-88.445067899,0,0.0,0.0,0.0,0.0,0.0,0.0,0.0,0.0,0.0,0.0,0.0,0.0,0.0,1500,1500,0.0,0.0,40.0482846667,-88.2330768333,0.0,0.0,0.0,0.0,0.0,0.0,0.0,0.0,0.0,0.0,0.0,0,0.0,0.0,0.0,0.0,90.0,60.0,90.0,89.5087432861,118.6659317017,89.0631027222,30.381999969499997,15.5305204391,3.0699999332,0,2,25,1,98,283
111,1530629187674,1100674, RC,0,39.9586186,-88.445067899,0,0.0,0.0,0.0,0.0,0.0,0.0,0.0,0.0,0.0,0.0,0.0,0.0,0.0,1500,1500,0.0,0.0,40.0482846667,-88.2330768333,0.0,0.0,0.0,0.0,0.0,0.0,0.0,0.0,0.0,0.0,0.0,0,0.0,0.0,0.0,0.0,90.0,60.0,90.0,89.5087432861,118.7932434082,89.0631027222,30.381999969499997,15.5305204391,3.0699999332,0,2,25,1,109,285
112,1530629187725,1100725, RC,0,39.9586186,-88.445067899,0,0.0,0.0,0.0,0.0,0.0,0.0,0.0,0.0,0.0,0.0,0.0,0.0,0.0,1500,1500,0.0,0.0,40.0482846667,-88.2330768333,0.0,0.0,0.0,0.0,0.0,0.0,0.0,0.0,0.0,0.0,0.0,0,0.0,0.0,0.0,0.0,90.0,60.0,90.0,89.5087432861,118.7932434082,89.0631027222,30.381999969499997,15.5305204391,3.0699999332,0,2,25,1,113,287
113,1530629187775,1100775, RC,0,39.9586186,-88.445067899,0,0.0,0.0,0.0,0.0,0.0,0.0,0.0,0.0,0.0,0.0,0.0,0.0,0.0,1500,1500,0.0,0.0,40.0482846667,-88.2330768333,0.0,0.0,0.0,0.0,0.0,0.0,0.0,0.0,0.0,0.0,0.0,0,0.0,0.0,0.0,0.0,90.0,60.0,90.0,89.5087432861,118.856918335,89.0631027222,30.381999969499997,15.5255994797,2.1900000572,0,2,25,1,103,289
114,1530629187826,1100826, RC,0,39.9586186,-88.445067899,0,0.0,0.0,0.0,0.0,0.0,0.0,0.0,0.0,0.0,0.0,0.0,0.0,0.0,1500,1500,0.0,0.0,40.0482846667,-88.2330768333,0.0,0.0,0.0,0.0,0.0,0.0,0.0,0.0,0.0,0.0,0.0,0,0.0,0.0,0.0,0.0,90.0,60.0,90.0,89.5087432861,118.856918335,89.0631027222,30.381999969499997,15.5255994797,2.1900000572,0,2,25,1,115,292
115,1530629187877,1100877, RC,0,39.9586186,-88.445067899,0,0.0,0.0,0.0,0.0,0.0,0.0,0.0,0.0,0.0,0.0,0.0,0.0,0.0,1500,1500,0.0,0.0,40.0482848333,-88.233077,0.0,0.0,0.0,0.0,0.0,0.0,0.0,0.0,0.0,0.0,0.0,0,0.0,0.0,0.0,0.0,90.0,60.0,90.0,89.5087432861,118.7932434082,89.0631027222,30.381999969499997,15.5255994797,2.1900000572,0,2,25,1,124,294
116,1530629187927,1100927, RC,0,39.9586186,-88.445067899,0,0.0,0.0,0.0,0.0,0.0,0.0,0.0,0.0,0.0,0.0,0.0,0.0,0.0,1500,1500,0.0,0.0,40.0482848333,-88.233077,0.0,0.0,0.0,0.0,0.0,0.0,0.0,0.0,0.0,0.0,0.0,0,0.0,0.0,0.0,0.0,90.0,60.0,90.0,89.5087432861,118.7932434082,89.0631027222,30.381999969499997,15.5255994797,2.1900000572,0,2,25,1,113,297
117,1530629187978,1100978, RC,0,39.9586186,-88.445067899,0,0.0,0.0,0.0,0.0,0.0,0.0,0.0,0.0,0.0,0.0,0.0,0.0,0.0,1500,1500,0.0,0.0,40.0482848333,-88.233077,0.0,0.0,0.0,0.0,0.0,0.0,0.0,0.0,0.0,0.0,0.0,0,0.0,0.0,0.0,0.0,90.0,60.0,90.0,89.5087432861,118.7932434082,89.0631027222,30.381999969499997,15.5255994797,2.1900000572,0,2,25,1,118,299
118,1530629188029,1101029, RC,0,39.9586186,-88.445067899,0,0.0,0.0,0.0,0.0,0.0,0.0,0.0,0.0,0.0,0.0,0.0,0.0,0.0,1500,1500,0.0,0.0,40.0482848333,-88.233077,0.0,0.0,0.0,0.0,0.0,0.0,0.0,0.0,0.0,0.0,0.0,0,0.0,0.0,0.0,0.0,90.0,60.0,90.0,89.5087432861,118.856918335,89.0631027222,30.381999969499997,15.5255994797,2.1900000572,0,2,25,1,114,301
119,1530629188079,1101079, RC,0,39.9586186,-88.445067899,0,0.0,0.0,0.0,0.0,0.0,0.0,0.0,0.0,0.0,0.0,0.0,0.0,0.0,1500,1500,0.0,0.0,40.0482848333,-88.233077,0.0,0.0,0.0,0.0,0.0,0.0,0.0,0.0,0.0,0.0,0.0,0,0.0,0.0,0.0,0.0,90.0,60.0,90.0,89.5087432861,118.7932434082,89.0631027222,30.381999969499997,15.5255994797,2.1900000572,0,2,25,1,110,303
120,1530629188130,1101130, RC,0,39.9586186,-88.445067899,0,0.0,0.0,0.0,0.0,0.0,0.0,0.0,0.0,0.0,0.0,0.0,0.0,0.0,1500,1500,0.0,0.0,40.0482848333,-88.233077,0.0,0.0,0.0,0.0,0.0,0.0,0.0,0.0,0.0,0.0,0.0,0,0.0,0.0,0.0,0.0,90.0,60.0,90.0,89.5724029541,118.7932434082,89.0631027222,30.381999969499997,15.5255994797,2.1900000572,0,2,25,1,110,306
121,1530629188180,1101180, RC,0,39.9586186,-88.445067899,0,0.0,0.0,0.0,0.0,0.0,0.0,0.0,0.0,0.0,0.0,0.0,0.0,0.0,1500,1500,0.0,0.0,40.0482848333,-88.233077,0.0,0.0,0.0,0.0,0.0,0.0,0.0,0.0,0.0,0.0,0.0,0,0.0,0.0,0.0,0.0,90.0,60.0,90.0,89.63606262209998,118.7932434082,88.9994430542,30.381999969499997,15.5255994797,2.1900000572,0,2,25,1,111,308
122,1530629188231,1101231, RC,0,39.9586186,-88.445067899,0,0.0,0.0,0.0,0.0,0.0,0.0,0.0,0.0,0.0,0.0,0.0,0.0,0.0,1500,1500,0.0,0.0,40.0482848333,-88.233077,0.0,0.0,0.0,0.0,0.0,0.0,0.0,0.0,0.0,0.0,0.0,0,0.0,0.0,0.0,0.0,90.0,60.0,90.0,89.63606262209998,118.7932434082,88.9994430542,30.381999969499997,15.5255994797,2.1900000572,0,2,25,1,120,310
123,1530629188282,1101282, RC,0,39.9586186,-88.445067899,0,0.0,0.0,0.0,0.0,0.0,0.0,0.0,0.0,0.0,0.0,0.0,0.0,0.0,1500,1500,0.0,0.0,40.0482848333,-88.233077,0.0,0.0,0.0,0.0,0.0,0.0,0.0,0.0,0.0,0.0,0.0,0,0.0,0.0,0.0,0.0,90.0,60.0,90.0,89.63606262209998,118.7932434082,88.9994430542,30.381999969499997,15.5255994797,2.1900000572,0,2,25,1,104,313
124,1530629188332,1101332, RC,0,39.9586186,-88.445067899,0,0.0,0.0,0.0,0.0,0.0,0.0,0.0,0.0,0.0,0.0,0.0,0.0,0.0,1500,1500,0.0,0.0,40.0482848333,-88.233077,0.0,0.0,0.0,0.0,0.0,0.0,0.0,0.0,0.0,0.0,0.0,0,0.0,0.0,0.0,0.0,90.0,60.0,90.0,89.6997299194,118.856918335,88.9994430542,30.381999969499997,15.5255994797,2.1900000572,0,2,25,1,124,315
125,1530629188383,1101383, RC,0,39.9586186,-88.445067899,0,0.0,0.0,0.0,0.0,0.0,0.0,0.0,0.0,0.0,0.0,0.0,0.0,0.0,1500,1500,0.0,0.0,40.0482848333,-88.233077,0.0,0.0,0.0,0.0,0.0,0.0,0.0,0.0,0.0,0.0,0.0,0,0.0,0.0,0.0,0.0,90.0,60.0,90.0,89.6997299194,118.7932434082,88.9994430542,30.381999969499997,15.5255994797,2.1900000572,0,2,25,1,126,317
126,1530629188433,1101433, RC,0,39.9586186,-88.445067899,0,0.0,0.0,0.0,0.0,0.0,0.0,0.0,0.0,0.0,0.0,0.0,0.0,0.0,1500,1500,0.0,0.0,40.0482848333,-88.233077,0.0,0.0,0.0,0.0,0.0,0.0,0.0,0.0,0.0,0.0,0.0,0,0.0,0.0,0.0,0.0,90.0,60.0,90.0,89.6997299194,118.7932434082,88.9994430542,30.381999969499997,15.5255994797,2.1900000572,0,2,25,1,131,319
127,1530629188484,1101484, RC,0,39.9586186,-88.445067899,0,0.0,0.0,0.0,0.0,0.0,0.0,0.0,0.0,0.0,0.0,0.0,0.0,0.0,1500,1500,0.0,0.0,40.0482848333,-88.233077,0.0,0.0,0.0,0.0,0.0,0.0,0.0,0.0,0.0,0.0,0.0,0,0.0,0.0,0.0,0.0,90.0,60.0,90.0,89.6997299194,118.856918335,88.9994430542,30.381999969499997,15.5255994797,2.1900000572,0,2,25,1,124,322
128,1530629188535,1101535, RC,0,39.9586186,-88.445067899,0,0.0,0.0,0.0,0.0,0.0,0.0,0.0,0.0,0.0,0.0,0.0,0.0,0.0,1500,1500,0.0,0.0,40.0482848333,-88.233077,0.0,0.0,0.0,0.0,0.0,0.0,0.0,0.0,0.0,0.0,0.0,0,0.0,0.0,0.0,0.0,90.0,60.0,90.0,89.6997299194,118.856918335,88.9994430542,30.381999969499997,15.5255994797,2.1900000572,0,2,25,1,99,324
129,1530629188585,1101585, RC,0,39.9586186,-88.445067899,0,0.0,0.0,0.0,0.0,0.0,0.0,0.0,0.0,0.0,0.0,0.0,0.0,0.0,1500,1500,0.0,0.0,40.0482848333,-88.233077,0.0,0.0,0.0,0.0,0.0,0.0,0.0,0.0,0.0,0.0,0.0,0,0.0,0.0,0.0,0.0,90.0,60.0,90.0,89.6997299194,118.856918335,88.9994430542,30.381999969499997,15.5255994797,2.1900000572,0,2,25,1,115,326
130,1530629188636,1101636, RC,0,39.9586186,-88.445067899,0,0.0,0.0,0.0,0.0,0.0,0.0,0.0,0.0,0.0,0.0,0.0,0.0,0.0,1500,1500,0.0,0.0,40.0482848333,-88.233077,0.0,0.0,0.0,0.0,0.0,0.0,0.0,0.0,0.0,0.0,0.0,0,0.0,0.0,0.0,0.0,90.0,60.0,90.0,89.6997299194,118.7932434082,88.9994430542,30.381999969499997,15.5255994797,2.1900000572,0,2,25,1,123,329
131,1530629188686,1101686, RC,0,39.9586186,-88.445067899,0,0.0,0.0,0.0,0.0,0.0,0.0,0.0,0.0,0.0,0.0,0.0,0.0,0.0,1500,1500,0.0,0.0,40.0482848333,-88.233077,0.0,0.0,0.0,0.0,0.0,0.0,0.0,0.0,0.0,0.0,0.0,0,0.0,0.0,0.0,0.0,90.0,60.0,90.0,89.6997299194,118.856918335,88.9994430542,30.381999969499997,15.5255994797,2.1900000572,0,2,25,1,119,331
132,1530629188737,1101737, RC,0,39.9586186,-88.445067899,0,0.0,0.0,0.0,0.0,0.0,0.0,0.0,0.0,0.0,0.0,0.0,0.0,0.0,1500,1500,0.0,0.0,40.0482848333,-88.233077,0.0,0.0,0.0,0.0,0.0,0.0,0.0,0.0,0.0,0.0,0.0,0,0.0,0.0,0.0,0.0,90.0,60.0,90.0,89.6997299194,118.856918335,88.9994430542,30.381999969499997,15.5255994797,2.1900000572,0,2,25,1,123,333
133,1530629188788,1101788, RC,0,39.9586186,-88.445067899,0,0.0,0.0,0.0,0.0,0.0,0.0,0.0,0.0,0.0,0.0,0.0,0.0,0.0,1500,1500,0.0,0.0,40.0482833333,-88.2330823333,0.0,0.0,0.0,0.0,0.0,0.0,0.0,0.0,0.0,0.0,0.0,0,0.0,0.0,0.0,0.0,90.0,60.0,90.0,89.6997299194,118.856918335,88.9994430542,30.381999969499997,15.5207538605,2.5799999237,0,2,25,1,112,336
134,1530629188838,1101838, RC,0,39.9586186,-88.445067899,0,0.0,0.0,0.0,0.0,0.0,0.0,0.0,0.0,0.0,0.0,0.0,0.0,0.0,1500,1500,0.0,0.0,40.0482833333,-88.2330823333,0.0,0.0,0.0,0.0,0.0,0.0,0.0,0.0,0.0,0.0,0.0,0,0.0,0.0,0.0,0.0,90.0,60.0,90.0,89.6997299194,118.856918335,88.9994430542,30.381999969499997,15.5207538605,2.5799999237,0,2,25,1,107,338
135,1530629188889,1101889, RC,0,39.9586186,-88.445067899,0,0.0,0.0,0.0,0.0,0.0,0.0,0.0,0.0,0.0,0.0,0.0,0.0,0.0,1500,1500,0.0,0.0,40.0482833333,-88.2330823333,0.0,0.0,0.0,0.0,0.0,0.0,0.0,0.0,0.0,0.0,0.0,0,0.0,0.0,0.0,0.0,90.0,60.0,90.0,89.6997299194,118.856918335,88.9994430542,30.381999969499997,15.5207538605,2.5799999237,0,2,25,1,129,340
136,1530629188940,1101940, RC,0,39.9586186,-88.445067899,0,0.0,0.0,0.0,0.0,0.0,0.0,0.0,0.0,0.0,0.0,0.0,0.0,0.0,1500,1500,0.0,0.0,40.0482833333,-88.2330823333,0.0,0.0,0.0,0.0,0.0,0.0,0.0,0.0,0.0,0.0,0.0,0,0.0,0.0,0.0,0.0,90.0,60.0,91.0,89.6997299194,118.856918335,88.9994430542,30.381999969499997,15.5207538605,2.5799999237,0,2,25,1,106,343
137,1530629188990,1101990, RC,0,39.9586186,-88.445067899,0,0.0,0.0,0.0,0.0,0.0,0.0,0.0,0.0,0.0,0.0,0.0,0.0,0.0,1500,1500,0.0,0.0,40.0482833333,-88.2330823333,0.0,0.0,0.0,0.0,0.0,0.0,0.0,0.0,0.0,0.0,0.0,0,0.0,0.0,0.0,0.0,90.0,60.0,91.0,89.6997299194,118.856918335,88.9994430542,30.381999969499997,15.5207538605,2.5799999237,0,2,25,1,113,345
138,1530629189041,1102041, RC,0,39.9586186,-88.445067899,0,0.0,0.0,0.0,0.0,0.0,0.0,0.0,0.0,0.0,0.0,0.0,0.0,0.0,1500,1500,0.0,0.0,40.0482833333,-88.2330823333,0.0,0.0,0.0,0.0,0.0,0.0,0.0,0.0,0.0,0.0,0.0,0,0.0,0.0,0.0,0.0,90.0,60.0,91.0,89.6997299194,118.856918335,88.9994430542,30.381999969499997,15.5207538605,2.5799999237,0,2,25,1,117,348
139,1530629189091,1102091, RC,0,39.9586186,-88.445067899,0,0.0,0.0,0.0,0.0,0.0,0.0,0.0,0.0,0.0,0.0,0.0,0.0,0.0,1500,1500,0.0,0.0,40.0482833333,-88.2330823333,0.0,0.0,0.0,0.0,0.0,0.0,0.0,0.0,0.0,0.0,0.0,0,0.0,0.0,0.0,0.0,90.0,60.0,91.0,89.6997299194,118.856918335,88.9994430542,30.381999969499997,15.5207538605,2.5799999237,0,2,25,1,111,352
140,1530629189142,1102142, RC,0,39.9586186,-88.445067899,0,0.0,0.0,0.0,0.0,0.0,0.0,0.0,0.0,0.0,0.0,0.0,0.0,0.0,1500,1500,0.0,0.0,40.0482833333,-88.2330823333,0.0,0.0,0.0,0.0,0.0,0.0,0.0,0.0,0.0,0.0,0.0,0,0.0,0.0,0.0,0.0,90.0,60.0,87.0,89.6997299194,118.856918335,88.9994430542,30.381999969499997,15.5207538605,2.5799999237,0,2,25,1,109,355
141,1530629189193,1102193, RC,0,39.9586186,-88.445067899,0,0.0,0.0,0.0,0.0,0.0,0.0,0.0,0.0,0.0,0.0,0.0,0.0,0.0,1500,1500,0.0,0.0,40.0482833333,-88.2330823333,0.0,0.0,0.0,0.0,0.0,0.0,0.0,0.0,0.0,0.0,0.0,0,0.0,0.0,0.0,0.0,90.0,60.0,87.0,89.6997299194,118.856918335,88.9994430542,30.381999969499997,15.5207538605,2.5799999237,0,2,25,1,111,358
142,1530629189243,1102243, RC,0,39.9586186,-88.445067899,0,0.0,0.0,0.0,0.0,0.0,0.0,0.0,0.0,0.0,0.0,0.0,0.0,0.0,1500,1500,0.0,0.0,40.0482833333,-88.2330823333,0.0,0.0,0.0,0.0,0.0,0.0,0.0,0.0,0.0,0.0,0.0,0,0.0,0.0,0.0,0.0,90.0,60.0,85.0,89.6997299194,118.856918335,89.1904296875,30.381999969499997,15.5207538605,2.5799999237,0,2,25,1,126,361
143,1530629189294,1102294, RC,0,39.9586186,-88.445067899,0,0.0,0.0,0.0,0.0,0.0,0.0,0.0,0.0,0.0,0.0,0.0,0.0,0.0,1500,1500,0.0,0.0,40.0482833333,-88.2330823333,0.0,0.0,0.0,0.0,0.0,0.0,0.0,0.0,0.0,0.0,0.0,0,0.0,0.0,0.0,0.0,90.0,60.0,85.0,89.6997299194,118.856918335,91.8642349243,30.381999969499997,15.5207538605,2.5799999237,0,2,25,1,127,363
144,1530629189344,1102344, RC,0,39.9586186,-88.445067899,0,0.0,0.0,0.0,0.0,0.0,0.0,0.0,0.0,0.0,0.0,0.0,0.0,0.0,1500,1500,0.0,0.0,40.0482833333,-88.2330823333,0.0,0.0,0.0,0.0,0.0,0.0,0.0,0.0,0.0,0.0,0.0,0,0.0,0.0,0.0,0.0,90.0,60.0,84.0,89.6997299194,118.856918335,93.07381439209999,30.381999969499997,15.5207538605,2.5799999237,0,2,25,1,121,365
145,1530629189395,1102395, RC,0,39.9586186,-88.445067899,0,0.0,0.0,0.0,0.0,0.0,0.0,0.0,0.0,0.0,0.0,0.0,0.0,0.0,1500,1500,0.0,0.0,40.0482833333,-88.2330823333,0.0,0.0,0.0,0.0,0.0,0.0,0.0,0.0,0.0,0.0,0.0,0,0.0,0.0,0.0,0.0,90.0,60.0,84.0,89.6997299194,119.2388916016,94.15606689450001,30.381999969499997,15.5207538605,2.5799999237,0,2,25,1,112,368
146,1530629189456,1102456, RC,0,39.9586186,-88.445067899,0,0.0,0.0,0.0,0.0,0.0,0.0,0.0,0.0,0.0,0.0,0.0,0.0,0.0,1500,1500,0.0,0.0,40.0482833333,-88.2330823333,0.0,0.0,0.0,0.0,0.0,0.0,0.0,0.0,0.0,0.0,0.0,0,0.0,0.0,0.0,0.0,90.0,60.0,84.0,89.5724029541,119.2388916016,94.7926864624,30.381999969499997,15.5207538605,2.5799999237,0,2,25,1,104,371
147,1530629189507,1102507, RC,0,39.9586186,-88.445067899,0,0.0,0.0,0.0,0.0,0.0,0.0,0.0,0.0,0.0,0.0,0.0,0.0,0.0,1500,1500,0.0,0.0,40.0482833333,-88.2330823333,0.0,0.0,0.0,0.0,0.0,0.0,0.0,0.0,0.0,0.0,0.0,0,0.0,0.0,0.0,0.0,90.0,60.0,84.0,89.5724029541,119.2388916016,94.7926864624,30.381999969499997,15.5207538605,2.5799999237,0,2,25,1,130,373
148,1530629189558,1102558, RC,0,39.9586186,-88.445067899,0,0.0,0.0,0.0,0.0,0.0,0.0,0.0,0.0,0.0,0.0,0.0,0.0,0.0,1500,1500,0.0,0.0,40.0482833333,-88.2330823333,0.0,0.0,0.0,0.0,0.0,0.0,0.0,0.0,0.0,0.0,0.0,0,0.0,0.0,0.0,0.0,90.0,60.0,79.0,89.5724029541,119.2388916016,94.7926864624,30.381999969499997,15.5207538605,2.5799999237,0,2,25,1,116,375
149,1530629189608,1102608, RC,0,39.9586186,-88.445067899,0,0.0,0.0,0.0,0.0,0.0,0.0,0.0,0.0,0.0,0.0,0.0,0.0,0.0,1500,1500,0.0,0.0,40.0482833333,-88.2330823333,0.0,0.0,0.0,0.0,0.0,0.0,0.0,0.0,0.0,0.0,0.0,0,0.0,0.0,0.0,0.0,90.0,60.0,79.0,89.5724029541,119.2388916016,98.8670501709,30.381999969499997,15.5207538605,2.5799999237,0,2,25,1,95,378
150,1530629189659,1102659, RC,0,39.9586186,-88.445067899,0,0.0,0.0,0.0,0.0,0.0,0.0,0.0,0.0,0.0,0.0,0.0,0.0,0.0,1500,1500,0.0,0.0,40.0482833333,-88.2330823333,0.0,0.0,0.0,0.0,0.0,0.0,0.0,0.0,0.0,0.0,0.0,0,0.0,0.0,0.0,0.0,90.0,60.0,76.0,89.5724029541,119.2388916016,100.6495819092,30.381999969499997,15.5207538605,2.5799999237,0,2,25,1,72,380
151,1530629189709,1102709, RC,0,39.9586186,-88.445067899,0,0.0,0.0,0.0,0.0,0.0,0.0,0.0,0.0,0.0,0.0,0.0,0.0,0.0,1500,1500,0.0,0.0,40.0482833333,-88.2330823333,0.0,0.0,0.0,0.0,0.0,0.0,0.0,0.0,0.0,0.0,0.0,0,0.0,0.0,0.0,0.0,90.0,60.0,76.0,89.5724029541,119.2388916016,100.6495819092,30.381999969499997,15.5207538605,2.5799999237,0,2,25,1,76,382
152,1530629189760,1102760, RC,0,39.9586186,-88.445067899,0,0.0,0.0,0.0,0.0,0.0,0.0,0.0,0.0,0.0,0.0,0.0,0.0,0.0,1500,1500,0.0,0.0,40.0482833333,-88.2330823333,0.0,0.0,0.0,0.0,0.0,0.0,0.0,0.0,0.0,0.0,0.0,0,0.0,0.0,0.0,0.0,90.0,60.0,72.0,89.5724029541,119.2388916016,103.7053604126,30.381999969499997,15.5158748627,2.2999999523,0,2,25,1,96,385
153,1530629189811,1102811, RC,0,39.9586186,-88.445067899,0,0.0,0.0,0.0,0.0,0.0,0.0,0.0,0.0,0.0,0.0,0.0,0.0,0.0,1500,1500,0.0,0.0,40.0482833333,-88.2330823333,0.0,0.0,0.0,0.0,0.0,0.0,0.0,0.0,0.0,0.0,0.0,0,0.0,0.0,0.0,0.0,90.0,60.0,72.0,89.5724029541,119.2388916016,104.4056396484,30.381999969499997,15.5158748627,2.2999999523,0,2,25,1,92,388
154,1530629189861,1102861, RC,0,39.9586186,-88.445067899,0,0.0,0.0,0.0,0.0,0.0,0.0,0.0,0.0,0.0,0.0,0.0,0.0,0.0,1500,1500,0.0,0.0,40.0482861667,-88.2330855,0.0,0.0,0.0,0.0,0.0,0.0,0.0,0.0,0.0,0.0,0.0,0,0.0,0.0,0.0,0.0,90.0,60.0,72.0,89.5724029541,119.2388916016,107.39775848389999,30.381999969499997,15.5158748627,2.2999999523,0,2,25,1,100,391
155,1530629189912,1102912, RC,0,39.9586186,-88.445067899,0,0.0,0.0,0.0,0.0,0.0,0.0,0.0,0.0,0.0,0.0,0.0,0.0,0.0,1500,1500,0.0,0.0,40.0482861667,-88.2330855,0.0,0.0,0.0,0.0,0.0,0.0,0.0,0.0,0.0,0.0,0.0,0,0.0,0.0,0.0,0.0,90.0,60.0,72.0,89.5724029541,119.2388916016,107.52507781979999,30.381999969499997,15.5158748627,2.2999999523,0,2,25,1,84,394
156,1530629189962,1102962, RC,0,39.9586186,-88.445067899,0,0.0,0.0,0.0,0.0,0.0,0.0,0.0,0.0,0.0,0.0,0.0,0.0,0.0,1500,1500,0.0,0.0,40.0482861667,-88.2330855,0.0,0.0,0.0,0.0,0.0,0.0,0.0,0.0,0.0,0.0,0.0,0,0.0,0.0,0.0,0.0,90.0,60.0,72.0,89.5724029541,119.2388916016,107.58874511719999,30.381999969499997,15.5158748627,2.2999999523,0,2,25,1,79,396
157,1530629190013,1103013, RC,0,39.9586186,-88.445067899,0,0.0,0.0,0.0,0.0,0.0,0.0,0.0,0.0,0.0,0.0,0.0,0.0,0.0,1500,1500,0.0,0.0,40.0482861667,-88.2330855,0.0,0.0,0.0,0.0,0.0,0.0,0.0,0.0,0.0,0.0,0.0,0,0.0,0.0,0.0,0.0,90.0,60.0,72.0,89.5724029541,119.2388916016,107.58874511719999,30.381999969499997,15.5158748627,2.2999999523,0,2,25,1,70,398
158,1530629190063,1103063, RC,0,39.9586186,-88.445067899,0,0.0,0.0,0.0,0.0,0.0,0.000551802,0.0,0.0,0.0,0.0,0.0,0.0,0.0,1500,1500,0.0,0.0,40.0482861667,-88.2330855,0.0,0.0,0.0,0.0,0.0,0.0,0.0,0.0,0.0,0.0,0.0,0,0.0,0.0,0.0,0.001103604,90.0,60.0,72.0,89.5724029541,119.2388916016,107.58874511719999,30.381999969499997,15.5158748627,2.2999999523,0,2,25,1,73,401
159,1530629190114,1103114, RC,0,39.9586186,-88.445067899,0,0.0,0.0,0.0,0.0,0.0,0.000643769,0.0,0.0,0.0,0.0,0.0,0.0,0.0,1500,1500,0.0,0.0,40.0482861667,-88.2330855,0.0,0.0,0.0,0.0,0.0,0.0,0.0,0.0,0.0,0.0,0.0,0,0.0,0.0,0.0,0.001287538,90.0,60.0,69.0,89.5724029541,119.2388916016,107.58874511719999,30.381999969499997,15.5158748627,2.2999999523,0,2,25,1,71,403
160,1530629190165,1103165, RC,0,39.9586186,-88.445067899,0,0.0,0.0,0.0,0.0,0.0,0.0006437689,0.0,0.0,0.0,0.0,0.0,0.0,0.0,1500,1500,0.0,0.0,40.0482861667,-88.2330855,0.0,0.0,0.0,0.0,0.0,0.0,0.0,0.0,0.0,0.0,0.0,0,0.0,0.0,0.00036786800000000004,0.0009196699,90.0,60.0,69.0,89.5724029541,119.2388916016,107.58874511719999,30.381999969499997,15.5158748627,2.2999999523,0,2,25,1,60,405
161,1530629190215,1103215, RC,0,39.9586186,-88.445067899,0,0.0,0.0,0.0,0.0,0.0,0.000551802,0.0,0.0,0.0,0.0,0.0,0.0,0.0,1500,1500,0.0,0.0,40.0482861667,-88.2330855,0.0,0.0,0.0,0.0,0.0,0.0,0.0,0.0,0.0,0.0,0.0,0,0.0,0.0,0.00036786800000000004,0.0007357360000000001,90.0,60.0,69.0,89.5724029541,119.2388916016,108.7346572876,30.381999969499997,15.5158748627,2.2999999523,0,2,25,1,60,407
162,1530629190266,1103266, RC,0,39.9586186,-88.445067899,0,0.0,0.0,0.0,0.0,0.0,0.00036786800000000004,0.0,0.0,0.0,0.0,0.0,0.0,0.0,1500,1500,0.0,0.0,40.0482861667,-88.2330855,0.0,0.0,0.0,0.0,0.0,0.0,0.0,0.0,0.0,0.0,0.0,0,0.0,0.0,0.00018393400000000002,0.000551802,90.0,60.0,69.0,89.5724029541,119.2388916016,109.56226348879999,30.381999969499997,15.5158748627,2.2999999523,0,2,25,1,67,410
163,1530629190316,1103316, RC,0,39.9586186,-88.445067899,0,0.0,0.0,0.0,0.0,0.0,0.001011637,0.0,0.0,0.0,0.0,0.0,0.0,0.0,1500,1500,0.0,0.0,40.0482861667,-88.2330855,0.0,0.0,0.0,0.0,0.0,0.0,0.0,0.0,0.0,0.0,0.0,0,0.0,0.0,0.0014714720000000001,0.000551802,90.0,60.0,67.0,89.5724029541,119.2388916016,109.56226348879999,30.381999969499997,15.5158748627,2.2999999523,0,2,25,1,70,412
164,1530629190367,1103367, RC,0,39.9586186,-88.445067899,0,0.0,0.0,0.0,0.0,0.0,0.00091967,0.0,0.0,0.0,0.0,0.0,0.0,0.0,1500,1500,0.0,0.0,40.0482861667,-88.2330855,0.0,0.0,0.0,0.0,0.0,0.0,0.0,0.0,0.0,0.0,0.0,0,0.0,0.0,0.0014714720000000001,0.00036786800000000004,90.0,60.0,67.0,89.5087432861,119.3025436401,109.6259231567,30.381999969499997,15.5158748627,2.2999999523,0,2,25,1,71,414
165,1530629190418,1103418, RC,0,39.9586186,-88.445067899,0,0.0,0.0,0.0,0.0,0.0,0.000643769,0.0,0.0,0.0,0.0,0.0,0.0,0.0,1500,1500,0.0,0.0,40.0482861667,-88.2330855,0.0,0.0,0.0,0.0,0.0,0.0,0.0,0.0,0.0,0.0,0.0,0,0.0,0.0,0.001103604,0.00018393400000000002,90.0,60.0,67.0,89.5087432861,119.3025436401,111.85409545899999,30.381999969499997,15.5158748627,2.2999999523,0,2,25,1,76,417
166,1530629190468,1103468, RC,0,39.9586186,-88.445067899,0,0.0,0.0,0.0,0.0,0.0,0.000551802,0.0,0.0,0.0,0.0,0.0,0.0,0.0,1500,1500,0.0,0.0,40.0482861667,-88.2330855,0.0,0.0,0.0,0.0,0.0,0.0,0.0,0.0,0.0,0.0,0.0,0,0.0,0.0,0.0009196699,0.00018393400000000002,90.0,60.0,67.0,89.5087432861,119.3025436401,112.6180343628,30.381999969499997,15.5158748627,2.2999999523,0,2,25,1,81,419
