,(0)linux time (ms),    (1)uptime  (ms),      (2)drive mode,(3)mpc step counter,(4)mpc origin latitude  (deg),(5)mpc origin longitude  (deg),(6)closest trajectory point index to robot,(7)mpc error x (W;E)  (m),(8)mpc error y (W;E)  (m),(9)abs mpc error (m),(10)input [x] for mhe (m),(11)input [y] for mhe (m),(12)input [speed] for mhe (m/s),(13)input [vyaw] for mhe (rad/s),(14)mhe output x  (m),(15)mhe output y  (m),(16)mhe output speed  (m/s),(17)mhe output yaw  (rad),(18)mpc reference heading (rad),(19)mpc turn rate command (rad/s),(20)turn rate command as PWM,(21)throttle command as PWM,(22)primary gps latitude (deg),(23)primary gps longitude (deg),(24)secondary gps latitude  (deg),(25)secondary gps longitude (deg),(26)accelerometer x (m/s^2),(27)accelerometer y (m/s^2),(28)accelerometer z (m/s^2),(29)gyro yaw rate (rad/s),(30)gyro pitch rate   (rad/s),(31)gyro roll rate (rad/s),      (32)yaw (rad),  (33)pitch   (rad),     (34)roll (rad),(35)sonar1 measurement (m),(36)ultrasonic sensor measurement (m),(37)primary gps time (s),(38)normalized turn rate command,(39)normalized throttle command,(40)speed calculation from encoder left (m/s),(41)speed calculation from encoder right (m/s),(42)front gimbal target angle (degrees from straight down),(43)left gimbal target angle  (degrees from straight down),(44)right gimbal target angle  (degrees from straight down),(45)front gimbal measured angle  (degrees from straight down),(46)left gimbal measured angle    (degrees from straight down),(47)right gimbal measured angle  (degrees from straight down),(48)internal temperature (C),(49)battery voltage (V),(50)primary gps type,(51)secondary gps type,    (52)MPC R value, (53)MPC Q[0] value,Unnamed: 54,weed_num,start
0,1530630425258,2338258, RC,0,39.9586186,-88.445067899,0,0.0,0.0,0.0,0.0,0.0,0.0,0.0,0.0,0.0,0.0,0.0,0.0,0.0,1500,1500,0.0,0.0,40.0483061667,-88.2330976667,0.0,0.0,0.0,0.0,0.0,0.0,0.0,0.0,0.0,0.0,0.0,0,0.0,0.0,0.0,0.0,90.0,90.0,90.0,89.8907089233,89.5724029541,89.8907089233,39.5279998779,15.1396465302,1.9199999571000002,0,2,25,1,129,9
1,1530630425308,2338308, RC,0,39.9586186,-88.445067899,0,0.0,0.0,0.0,0.0,0.0,0.0,0.0,0.0,0.0,0.0,0.0,0.0,0.0,1500,1500,0.0,0.0,40.0483061667,-88.2330976667,0.0,0.0,0.0,0.0,0.0,0.0,0.0,0.0,0.0,0.0,0.0,0,0.0,0.0,0.0,0.0,90.0,90.0,90.0,89.8907089233,89.5724029541,89.8907089233,39.5279998779,15.1396465302,1.9199999571000002,0,2,25,1,141,11
2,1530630425359,2338359, RC,0,39.9586186,-88.445067899,0,0.0,0.0,0.0,0.0,0.0,0.0,0.0,0.0,0.0,0.0,0.0,0.0,0.0,1500,1500,0.0,0.0,40.0483061667,-88.2330976667,0.0,0.0,0.0,0.0,0.0,0.0,0.0,0.0,0.0,0.0,0.0,0,0.0,0.0,0.0,0.0,90.0,90.0,90.0,89.8907089233,89.5724029541,89.8907089233,39.5279998779,15.1396465302,1.9199999571000002,0,2,25,1,124,13
3,1530630425409,2338409, RC,0,39.9586186,-88.445067899,0,0.0,0.0,0.0,0.0,0.0,0.0,0.0,0.0,0.0,0.0,0.0,0.0,0.0,1500,1500,0.0,0.0,40.0483061667,-88.2330976667,0.0,0.0,0.0,0.0,0.0,0.0,0.0,0.0,0.0,0.0,0.0,0,0.0,0.0,0.0,0.0,90.0,90.0,90.0,89.8907089233,89.5724029541,89.82704925540001,39.5279998779,15.1396465302,1.9199999571000002,0,2,25,1,133,15
4,1530630425460,2338460, RC,0,39.9586186,-88.445067899,0,0.0,0.0,0.0,0.0,0.0,0.0,0.0,0.0,0.0,0.0,0.0,0.0,0.0,1500,1500,0.0,0.0,40.0483061667,-88.2330976667,0.0,0.0,0.0,0.0,0.0,0.0,0.0,0.0,0.0,0.0,0.0,0,0.0,0.0,0.0,0.0,90.0,90.0,90.0,89.8907089233,89.5724029541,89.82704925540001,39.5279998779,15.1396465302,1.9199999571000002,0,2,25,1,132,17
5,1530630425510,2338510, RC,0,39.9586186,-88.445067899,0,0.0,0.0,0.0,0.0,0.0,0.0,0.0,0.0,0.0,0.0,0.0,0.0,0.0,1500,1500,0.0,0.0,40.0483061667,-88.2330976667,0.0,0.0,0.0,0.0,0.0,0.0,0.0,0.0,0.0,0.0,0.0,0,0.0,0.0,0.0,0.0,90.0,90.0,90.0,89.8907089233,89.5724029541,89.82704925540001,39.5279998779,15.1396465302,1.9199999571000002,0,2,25,1,132,19
6,1530630425560,2338560, RC,0,39.9586186,-88.445067899,0,0.0,0.0,0.0,0.0,0.0,0.0,0.0,0.0,0.0,0.0,0.0,0.0,0.0,1500,1500,0.0,0.0,40.0483061667,-88.2330976667,0.0,0.0,0.0,0.0,0.0,0.0,0.0,0.0,0.0,0.0,0.0,0,0.0,0.0,0.0,0.0,90.0,90.0,90.0,89.8907089233,89.5724029541,89.82704925540001,39.5279998779,15.1396465302,1.9199999571000002,0,2,25,1,133,21
7,1530630425611,2338611, RC,0,39.9586186,-88.445067899,0,0.0,0.0,0.0,0.0,0.0,0.0,0.0,0.0,0.0,0.0,0.0,0.0,0.0,1500,1500,0.0,0.0,40.0483061667,-88.2330976667,0.0,0.0,0.0,0.0,0.0,0.0,0.0,0.0,0.0,0.0,0.0,0,0.0,0.0,0.0,0.0,90.0,90.0,90.0,89.8907089233,89.5724029541,89.82704925540001,39.5279998779,15.1396465302,1.9199999571000002,0,2,25,1,117,23
8,1530630425661,2338661, RC,0,39.9586186,-88.445067899,0,0.0,0.0,0.0,0.0,0.0,0.0,0.0,0.0,0.0,0.0,0.0,0.0,0.0,1500,1500,0.0,0.0,40.0483061667,-88.2330976667,0.0,0.0,0.0,0.0,0.0,0.0,0.0,0.0,0.0,0.0,0.0,0,0.0,0.0,0.0,0.0,90.0,90.0,90.0,89.8907089233,89.5724029541,89.82704925540001,39.5279998779,15.1396465302,1.9199999571000002,0,2,25,1,134,25
9,1530630425711,2338711, RC,0,39.9586186,-88.445067899,0,0.0,0.0,0.0,0.0,0.0,0.0,0.0,0.0,0.0,0.0,0.0,0.0,0.0,1500,1500,0.0,0.0,40.0483061667,-88.2330976667,0.0,0.0,0.0,0.0,0.0,0.0,0.0,0.0,0.0,0.0,0.0,0,0.0,0.0,0.0,0.0,90.0,90.0,81.0,89.8907089233,89.5724029541,89.82704925540001,39.5279998779,15.1396465302,1.9199999571000002,0,2,25,1,127,27
10,1530630425762,2338762, RC,0,39.9586186,-88.445067899,0,0.0,0.0,0.0,0.0,0.0,0.0,0.0,0.0,0.0,0.0,0.0,0.0,0.0,1500,1500,0.0,0.0,40.0483061667,-88.2330976667,0.0,0.0,0.0,0.0,0.0,0.0,0.0,0.0,0.0,0.0,0.0,0,0.0,0.0,0.0,0.0,90.0,90.0,81.0,89.8907089233,89.5724029541,91.800567627,39.5279998779,15.1396465302,1.9199999571000002,0,2,25,1,143,29
11,1530630425812,2338812, RC,0,39.9586186,-88.445067899,0,0.0,0.0,0.0,0.0,0.0,0.0,0.0,0.0,0.0,0.0,0.0,0.0,0.0,1500,1500,0.0,0.0,40.0483061667,-88.2330976667,0.0,0.0,0.0,0.0,0.0,0.0,0.0,0.0,0.0,0.0,0.0,0,0.0,0.0,0.0,0.0,90.0,90.0,81.0,89.8907089233,89.5724029541,98.23043060299999,39.5279998779,15.1396465302,1.9199999571000002,0,2,25,1,122,31
12,1530630425862,2338862, RC,0,39.9586186,-88.445067899,0,0.0,0.0,0.0,0.0,0.0,0.0,0.0,0.0,0.0,0.0,0.0,0.0,0.0,1500,1500,0.0,0.0,40.0483056667,-88.2330991667,0.0,0.0,0.0,0.0,0.0,0.0,0.0,0.0,0.0,0.0,0.0,0,0.0,0.0,0.0,0.0,90.0,90.0,76.0,89.8907089233,89.5724029541,98.23043060299999,39.5279998779,15.1396465302,1.9199999571000002,0,2,25,1,109,33
13,1530630425913,2338913, RC,0,39.9586186,-88.445067899,0,0.0,0.0,0.0,0.0,0.0,0.0,0.0,0.0,0.0,0.0,0.0,0.0,0.0,1500,1500,0.0,0.0,40.0483056667,-88.2330991667,0.0,0.0,0.0,0.0,0.0,0.0,0.0,0.0,0.0,0.0,0.0,0,0.0,0.0,0.0,0.0,90.0,90.0,76.0,89.8907089233,89.5724029541,98.23043060299999,39.5279998779,15.1396465302,1.9199999571000002,0,2,25,1,148,35
14,1530630425963,2338963, RC,0,39.9586186,-88.445067899,0,0.0,0.0,0.0,0.0,0.0,0.0,0.0,0.0,0.0,0.0,0.0,0.0,0.0,1500,1500,0.0,0.0,40.0483056667,-88.2330991667,0.0,0.0,0.0,0.0,0.0,0.0,0.0,0.0,0.0,0.0,0.0,0,0.0,0.0,0.0,0.0,90.0,90.0,72.0,89.8907089233,89.5724029541,103.5143737793,39.5279998779,15.1396465302,1.9199999571000002,0,2,25,1,151,37
15,1530630426013,2339013, RC,0,39.9586186,-88.445067899,0,0.0,0.0,0.0,0.0,0.0,0.0,0.0,0.0,0.0,0.0,0.0,0.0,0.0,1500,1500,0.0,0.0,40.0483056667,-88.2330991667,0.0,0.0,0.0,0.0,0.0,0.0,0.0,0.0,0.0,0.0,0.0,0,0.0,0.0,0.0,0.0,90.0,90.0,72.0,89.8907089233,89.5724029541,104.72395324709998,39.5279998779,15.134908676099998,3.1299998760000003,0,2,25,1,133,39
16,1530630426064,2339064, RC,0,39.9586186,-88.445067899,0,0.0,0.0,0.0,0.0,0.0,0.0,0.0,0.0,0.0,0.0,0.0,0.0,0.0,1500,1500,0.0,0.0,40.0483056667,-88.2330991667,0.0,0.0,0.0,0.0,0.0,0.0,0.0,0.0,0.0,0.0,0.0,0,0.0,0.0,0.0,0.0,90.0,90.0,72.0,89.8907089233,89.5724029541,104.787612915,39.5279998779,15.134908676099998,3.1299998760000003,0,2,25,1,169,41
17,1530630426114,2339114, RC,0,39.9586186,-88.445067899,0,0.0,0.0,0.0,0.0,0.0,0.0,0.0,0.0,0.0,0.0,0.0,0.0,0.0,1500,1500,0.0,0.0,40.0483056667,-88.2330991667,0.0,0.0,0.0,0.0,0.0,0.0,0.0,0.0,0.0,0.0,0.0,0,0.0,0.0,0.0,0.0,90.0,90.0,72.0,89.8907089233,89.5724029541,106.25184631350001,39.5279998779,15.134908676099998,3.1299998760000003,0,2,25,1,162,43
18,1530630426164,2339164, RC,0,39.9586186,-88.445067899,0,0.0,0.0,0.0,0.0,0.0,0.0,0.0,0.0,0.0,0.0,0.0,0.0,0.0,1500,1500,0.0,0.0,40.0483056667,-88.2330991667,0.0,0.0,0.0,0.0,0.0,0.0,0.0,0.0,0.0,0.0,0.0,0,0.0,0.0,0.0,0.0,90.0,90.0,70.0,89.8907089233,89.5724029541,107.14310455319999,39.5279998779,15.134908676099998,3.1299998760000003,0,2,25,1,159,45
19,1530630426215,2339215, RC,0,39.9586186,-88.445067899,0,0.0,0.0,0.0,0.0,0.0,0.0,0.0,0.0,0.0,0.0,0.0,0.0,0.0,1500,1500,0.0,0.0,40.0483056667,-88.2330991667,0.0,0.0,0.0,0.0,0.0,0.0,0.0,0.0,0.0,0.0,0.0,0,0.0,0.0,0.0,0.0,90.0,90.0,70.0,89.8907089233,89.63606262209998,107.2704315186,39.5279998779,15.134908676099998,3.1299998760000003,0,2,25,1,172,47
20,1530630426265,2339265, RC,0,39.9586186,-88.445067899,0,0.0,0.0,0.0,0.0,0.0,0.0,0.0,0.0,0.0,0.0,0.0,0.0,0.0,1500,1500,0.0,0.0,40.0483056667,-88.2330991667,0.0,0.0,0.0,0.0,0.0,0.0,0.0,0.0,0.0,0.0,0.0,0,0.0,0.0,0.0,0.0,90.0,90.0,69.0,89.8907089233,89.6997299194,109.4986038208,39.5279998779,15.134908676099998,3.1299998760000003,0,2,25,1,181,49
21,1530630426315,2339315, RC,0,39.9586186,-88.445067899,0,0.0,0.0,0.0,0.0,0.0,0.0,0.0,0.0,0.0,0.0,0.0,0.0,0.0,1500,1500,0.0,0.0,40.0483056667,-88.2330991667,0.0,0.0,0.0,0.0,0.0,0.0,0.0,0.0,0.0,0.0,0.0,0,0.0,0.0,0.0,0.0,90.0,90.0,69.0,89.8907089233,89.82704925540001,109.4986038208,39.5279998779,15.134908676099998,3.1299998760000003,0,2,25,1,179,51
22,1530630426366,2339366, RC,0,39.9586186,-88.445067899,0,0.0,0.0,0.0,0.0,0.0,0.0,0.0,0.0,0.0,0.0,0.0,0.0,0.0,1500,1500,0.0,0.0,40.0483056667,-88.2330991667,0.0,0.0,0.0,0.0,0.0,0.0,0.0,0.0,0.0,0.0,0.0,0,0.0,0.0,0.0,0.0,90.0,90.0,64.0,89.8907089233,89.8907089233,109.4986038208,39.5279998779,15.134908676099998,3.1299998760000003,0,2,25,1,189,53
23,1530630426416,2339416, RC,0,39.9586186,-88.445067899,0,0.0,0.0,0.0,0.0,0.0,0.0,0.0,0.0,0.0,0.0,0.0,0.0,0.0,1500,1500,0.0,0.0,40.0483056667,-88.2330991667,0.0,0.0,0.0,0.0,0.0,0.0,0.0,0.0,0.0,0.0,0.0,0,0.0,0.0,0.0,0.0,90.0,90.0,64.0,89.8907089233,89.9543762207,109.56226348879999,39.5279998779,15.134908676099998,3.1299998760000003,0,2,25,1,194,55
24,1530630426466,2339466, RC,0,39.9586186,-88.445067899,0,0.0,0.0,0.0,0.0,0.0,0.0,0.0,0.0,0.0,0.0,0.0,0.0,0.0,1500,1500,0.0,0.0,40.0483056667,-88.2330991667,0.0,0.0,0.0,0.0,0.0,0.0,0.0,0.0,0.0,0.0,0.0,0,0.0,0.0,0.0,0.0,90.0,90.0,63.0,89.8907089233,89.9543762207,114.78254699709998,39.5279998779,15.134908676099998,3.1299998760000003,0,2,25,1,201,57
25,1530630426517,2339517, RC,0,39.9586186,-88.445067899,0,0.0,0.0,0.0,0.0,0.0,0.0,0.0,0.0,0.0,0.0,0.0,0.0,0.0,1500,1500,0.0,0.0,40.0483056667,-88.2330991667,0.0,0.0,0.0,0.0,0.0,0.0,0.0,0.0,0.0,0.0,0.0,0,0.0,0.0,0.0,0.0,90.0,90.0,63.0,89.8907089233,90.01803588870001,115.6101455688,39.5279998779,15.134908676099998,3.1299998760000003,0,2,25,1,163,59
26,1530630426567,2339567, RC,0,39.9586186,-88.445067899,0,0.0,0.0,0.0,0.0,0.0,0.0,0.0,0.0,0.0,0.0,0.0,0.0,0.0,1500,1500,0.0,0.0,40.0483056667,-88.2330991667,0.0,0.0,0.0,0.0,0.0,0.0,0.0,0.0,0.0,0.0,0.0,0,0.0,0.0,0.0,0.0,90.0,90.0,63.0,89.8907089233,89.7633895874,115.6101455688,39.5279998779,15.134908676099998,3.1299998760000003,0,2,25,1,227,61
27,1530630426617,2339617, RC,0,39.9586186,-88.445067899,0,0.0,0.0,0.0,0.0,0.0,0.0,0.0,0.0,0.0,0.0,0.0,0.0,0.0,1500,1500,0.0,0.0,40.0483056667,-88.2330991667,0.0,0.0,0.0,0.0,0.0,0.0,0.0,0.0,0.0,0.0,0.0,0,0.0,0.0,0.0,0.0,90.0,90.0,63.0,89.8907089233,89.82704925540001,115.6101455688,39.5279998779,15.134908676099998,3.1299998760000003,0,2,25,1,197,63
28,1530630426668,2339668, RC,0,39.9586186,-88.445067899,0,0.0,0.0,0.0,0.0,0.0,0.0,0.0,0.0,0.0,0.0,0.0,0.0,0.0,1500,1500,0.0,0.0,40.0483056667,-88.2330991667,0.0,0.0,0.0,0.0,0.0,0.0,0.0,0.0,0.0,0.0,0.0,0,0.0,0.0,0.0,0.0,90.0,90.0,61.0,89.8907089233,89.8907089233,115.6101455688,39.5279998779,15.134908676099998,3.1299998760000003,0,2,25,1,212,65
29,1530630426718,2339718, RC,0,39.9586186,-88.445067899,0,0.0,0.0,0.0,0.0,0.0,0.0,0.0,0.0,0.0,0.0,0.0,0.0,0.0,1500,1500,0.0,0.0,40.0483056667,-88.2330991667,0.0,0.0,0.0,0.0,0.0,0.0,0.0,0.0,0.0,0.0,0.0,0,0.0,0.0,0.0,0.0,90.0,90.0,61.0,89.8907089233,89.9543762207,115.6101455688,39.5279998779,15.134908676099998,3.1299998760000003,0,2,25,1,205,67
30,1530630426768,2339768, RC,0,39.9586186,-88.445067899,0,0.0,0.0,0.0,0.0,0.0,0.0,0.0,0.0,0.0,0.0,0.0,0.0,0.0,1500,1500,0.0,0.0,40.0483056667,-88.2330991667,0.0,0.0,0.0,0.0,0.0,0.0,0.0,0.0,0.0,0.0,0.0,0,0.0,0.0,0.0,0.0,90.0,90.0,61.0,89.8907089233,89.9543762207,116.6924057007,39.5279998779,15.134908676099998,3.1299998760000003,0,2,25,1,193,69
31,1530630426819,2339819, RC,0,39.9586186,-88.445067899,0,0.0,0.0,0.0,0.0,0.0,0.0,0.0,0.0,0.0,0.0,0.0,0.0,0.0,1500,1500,0.0,0.0,40.0483055,-88.2330941667,0.0,0.0,0.0,0.0,0.0,0.0,0.0,0.0,0.0,0.0,0.0,0,0.0,0.0,0.0,0.0,90.0,90.0,61.0,89.8907089233,90.01803588870001,119.2388916016,39.5279998779,15.134908676099998,3.1299998760000003,0,2,25,1,189,71
32,1530630426869,2339869, RC,0,39.9586186,-88.445067899,0,0.0,0.0,0.0,0.0,0.0,0.0,0.0,0.0,0.0,0.0,0.0,0.0,0.0,1500,1500,0.0,0.0,40.0483055,-88.2330941667,0.0,0.0,0.0,0.0,0.0,0.0,0.0,0.0,0.0,0.0,0.0,0,0.0,0.0,0.0,0.0,90.0,90.0,60.0,89.8907089233,89.82704925540001,119.3025436401,39.5279998779,15.134908676099998,3.1299998760000003,0,2,25,1,213,73
33,1530630426919,2339919, RC,0,39.9586186,-88.445067899,0,0.0,0.0,0.0,0.0,0.0,0.0,0.0,0.0,0.0,0.0,0.0,0.0,0.0,1500,1500,0.0,0.0,40.0483055,-88.2330941667,0.0,0.0,0.0,0.0,0.0,0.0,0.0,0.0,0.0,0.0,0.0,0,0.0,0.0,0.0,0.0,90.0,90.0,60.0,89.8907089233,89.82704925540001,119.3025436401,39.5279998779,15.134908676099998,3.1299998760000003,0,2,25,1,246,75
34,1530630426970,2339970, RC,0,39.9586186,-88.445067899,0,0.0,0.0,0.0,0.0,0.0,0.0,0.0,0.0,0.0,0.0,0.0,0.0,0.0,1500,1500,0.0,0.0,40.0483055,-88.2330941667,0.0,0.0,0.0,0.0,0.0,0.0,0.0,0.0,0.0,0.0,0.0,0,0.0,0.0,0.0,0.0,90.0,90.0,58.0,89.8907089233,89.82704925540001,119.3025436401,39.5279998779,15.134908676099998,3.1299998760000003,0,2,25,1,210,77
35,1530630427020,2340020, RC,0,39.9586186,-88.445067899,0,0.0,0.0,0.0,0.0,0.0,0.0,0.0,0.0,0.0,0.0,0.0,0.0,0.0,1500,1500,0.0,0.0,40.0483055,-88.2330941667,0.0,0.0,0.0,0.0,0.0,0.0,0.0,0.0,0.0,0.0,0.0,0,0.0,0.0,0.0,0.0,90.0,90.0,58.0,89.8907089233,89.8907089233,119.3025436401,39.5279998779,15.1303358078,3.4099998474,0,2,25,1,226,79
36,1530630427070,2340070, RC,0,39.9586186,-88.445067899,0,0.0,0.0,0.0,0.0,0.0,0.0,0.0,0.0,0.0,0.0,0.0,0.0,0.0,1500,1500,0.0,0.0,40.0483055,-88.2330941667,0.0,0.0,0.0,0.0,0.0,0.0,0.0,0.0,0.0,0.0,0.0,0,0.0,0.0,0.0,0.0,90.0,90.0,58.0,89.8907089233,89.8907089233,119.42987060549999,39.5279998779,15.1303358078,3.4099998474,0,2,25,1,231,81
37,1530630427121,2340121, RC,0,39.9586186,-88.445067899,0,0.0,0.0,0.0,0.0,0.0,0.0,0.0,0.0,0.0,0.0,0.0,0.0,0.0,1500,1500,0.0,0.0,40.0483055,-88.2330941667,0.0,0.0,0.0,0.0,0.0,0.0,0.0,0.0,0.0,0.0,0.0,0,0.0,0.0,0.0,0.0,90.0,90.0,58.0,89.8907089233,89.8907089233,121.7853622437,39.5279998779,15.1303358078,3.4099998474,0,2,25,1,212,83
38,1530630427171,2340171, RC,0,39.9586186,-88.445067899,0,0.0,0.0,0.0,0.0,0.0,0.0,0.0,0.0,0.0,0.0,0.0,0.0,0.0,1500,1500,0.0,0.0,40.0483055,-88.2330941667,0.0,0.0,0.0,0.0,0.0,0.0,0.0,0.0,0.0,0.0,0.0,0,0.0,0.0,0.0,0.0,90.0,90.0,58.0,89.8907089233,89.9543762207,121.7853622437,39.5279998779,15.1303358078,3.4099998474,0,2,25,1,189,85
39,1530630427221,2340221, RC,0,39.9586186,-88.445067899,0,0.0,0.0,0.0,0.0,0.0,0.0,0.0,0.0,0.0,0.0,0.0,0.0,0.0,1500,1500,0.0,0.0,40.0483055,-88.2330941667,0.0,0.0,0.0,0.0,0.0,0.0,0.0,0.0,0.0,0.0,0.0,0,0.0,0.0,0.0,0.0,90.0,90.0,58.0,89.8907089233,89.9543762207,121.7853622437,39.5279998779,15.1303358078,3.4099998474,0,2,25,1,239,87
40,1530630427272,2340272, RC,0,39.9586186,-88.445067899,0,0.0,0.0,0.0,0.0,0.0,0.0,0.0,0.0,0.0,0.0,0.0,0.0,0.0,1500,1500,0.0,0.0,40.0483055,-88.2330941667,0.0,0.0,0.0,0.0,0.0,0.0,0.0,0.0,0.0,0.0,0.0,0,0.0,0.0,0.0,0.0,90.0,90.0,58.0,89.8907089233,89.9543762207,121.7853622437,39.5279998779,15.1303358078,3.4099998474,0,2,25,1,225,89
41,1530630427322,2340322, RC,0,39.9586186,-88.445067899,0,0.0,0.0,0.0,0.0,0.0,0.0,0.0,0.0,0.0,0.0,0.0,0.0,0.0,1500,1500,0.0,0.0,40.0483055,-88.2330941667,0.0,0.0,0.0,0.0,0.0,0.0,0.0,0.0,0.0,0.0,0.0,0,0.0,0.0,0.0,0.0,90.0,90.0,58.0,89.8907089233,90.01803588870001,121.7853622437,39.5279998779,15.1303358078,3.4099998474,0,2,25,1,226,91
42,1530630427372,2340372, RC,0,39.9586186,-88.445067899,0,0.0,0.0,0.0,0.0,0.0,0.0,0.0,0.0,0.0,0.0,0.0,0.0,0.0,1500,1500,0.0,0.0,40.0483055,-88.2330941667,0.0,0.0,0.0,0.0,0.0,0.0,0.0,0.0,0.0,0.0,0.0,0,0.0,0.0,0.0,0.0,90.0,90.0,58.0,89.8907089233,90.01803588870001,121.7853622437,39.5279998779,15.1303358078,3.4099998474,0,2,25,1,214,93
43,1530630427423,2340423, RC,0,39.9586186,-88.445067899,0,0.0,0.0,0.0,0.0,0.0,0.0,0.0,0.0,0.0,0.0,0.0,0.0,0.0,1500,1500,0.0,0.0,40.0483055,-88.2330941667,0.0,0.0,0.0,0.0,0.0,0.0,0.0,0.0,0.0,0.0,0.0,0,0.0,0.0,0.0,0.0,90.0,90.0,58.0,89.8907089233,90.01803588870001,121.7853622437,39.5279998779,15.1303358078,3.4099998474,0,2,25,1,214,95
44,1530630427473,2340473, RC,0,39.9586186,-88.445067899,0,0.0,0.0,0.0,0.0,0.0,0.0,0.0,0.0,0.0,0.0,0.0,0.0,0.0,1500,1500,0.0,0.0,40.0483055,-88.2330941667,0.0,0.0,0.0,0.0,0.0,0.0,0.0,0.0,0.0,0.0,0.0,0,0.0,0.0,0.0,0.0,90.0,90.0,58.0,89.8907089233,89.5087432861,121.84902954100001,39.5279998779,15.1303358078,3.4099998474,0,2,25,1,217,97
45,1530630427523,2340523, RC,0,39.9586186,-88.445067899,0,0.0,0.0,0.0,0.0,0.0,0.0,0.0,0.0,0.0,0.0,0.0,0.0,0.0,1500,1500,0.0,0.0,40.0483055,-88.2330941667,0.0,0.0,0.0,0.0,0.0,0.0,0.0,0.0,0.0,0.0,0.0,0,0.0,0.0,0.0,0.0,90.0,90.0,58.0,89.8907089233,89.5087432861,121.84902954100001,39.5279998779,15.1303358078,3.4099998474,0,2,25,1,232,99
46,1530630427574,2340574, RC,0,39.9586186,-88.445067899,0,0.0,0.0,0.0,0.0,0.0,0.0,0.0,0.0,0.0,0.0,0.0,0.0,0.0,1500,1500,0.0,0.0,40.0483055,-88.2330941667,0.0,0.0,0.0,0.0,0.0,0.0,0.0,0.0,0.0,0.0,0.0,0,0.0,0.0,0.0,0.0,90.0,90.0,58.0,89.8907089233,89.5087432861,121.84902954100001,39.5279998779,15.1303358078,3.4099998474,0,2,25,1,221,101
47,1530630427624,2340624, RC,0,39.9586186,-88.445067899,0,0.0,0.0,0.0,0.0,0.0,0.0,0.0,0.0,0.0,0.0,0.0,0.0,0.0,1500,1500,0.0,0.0,40.0483055,-88.2330941667,0.0,0.0,0.0,0.0,0.0,0.0,0.0,0.0,0.0,0.0,0.0,0,0.0,0.0,0.0,0.0,90.0,90.0,58.0,89.8907089233,89.5087432861,121.84902954100001,39.5279998779,15.1303358078,3.4099998474,0,2,25,1,216,103
48,1530630427674,2340674, RC,0,39.9586186,-88.445067899,0,0.0,0.0,0.0,0.0,0.0,0.0,0.0,0.0,0.0,0.0,0.0,0.0,0.0,1500,1500,0.0,0.0,40.0483055,-88.2330941667,0.0,0.0,0.0,0.0,0.0,0.0,0.0,0.0,0.0,0.0,0.0,0,0.0,0.0,0.0,0.0,90.0,90.0,58.0,89.8907089233,89.5724029541,121.84902954100001,39.5279998779,15.1303358078,3.4099998474,0,2,25,1,214,105
49,1530630427725,2340725, RC,0,39.9586186,-88.445067899,0,0.0,0.0,0.0,0.0,0.0,0.0,0.0,0.0,0.0,0.0,0.0,0.0,0.0,1500,1500,0.0,0.0,40.0483055,-88.2330941667,0.0,0.0,0.0,0.0,0.0,0.0,0.0,0.0,0.0,0.0,0.0,0,0.0,0.0,0.0,0.0,90.0,90.0,58.0,89.8907089233,89.5724029541,121.84902954100001,39.5279998779,15.1303358078,3.4099998474,0,2,25,1,242,107
50,1530630427775,2340775, RC,0,39.9586186,-88.445067899,0,0.0,0.0,0.0,0.0,0.0,0.0,0.0,0.0,0.0,0.0,0.0,0.0,0.0,1500,1500,0.0,0.0,40.0483055,-88.2330941667,0.0,0.0,0.0,0.0,0.0,0.0,0.0,0.0,0.0,0.0,0.0,0,0.0,0.0,0.0,0.0,90.0,90.0,58.0,89.8907089233,89.5724029541,121.84902954100001,39.5279998779,15.1303358078,3.4099998474,0,2,25,1,208,109
51,1530630427826,2340826, RC,0,39.9586186,-88.445067899,0,0.0,0.0,0.0,0.0,0.0,0.0,0.0,0.0,0.0,0.0,0.0,0.0,0.0,1500,1500,0.0,0.0,40.0483053333,-88.2330913333,0.0,0.0,0.0,0.0,0.0,0.0,0.0,0.0,0.0,0.0,0.0,0,0.0,0.0,0.0,0.0,90.0,90.0,58.0,89.8907089233,89.5724029541,121.84902954100001,39.5279998779,15.1303358078,3.4099998474,0,2,25,1,198,111
52,1530630427876,2340876, RC,0,39.9586186,-88.445067899,0,0.0,0.0,0.0,0.0,0.0,0.0,0.0,0.0,0.0,0.0,0.0,0.0,0.0,1500,1500,0.0,0.0,40.0483053333,-88.2330913333,0.0,0.0,0.0,0.0,0.0,0.0,0.0,0.0,0.0,0.0,0.0,0,0.0,0.0,0.0,0.0,90.0,90.0,58.0,89.8907089233,89.5724029541,121.84902954100001,39.5279998779,15.1303358078,3.4099998474,0,2,25,1,208,113
53,1530630427926,2340926, RC,0,39.9586186,-88.445067899,0,0.0,0.0,0.0,0.0,0.0,0.0,0.0,0.0,0.0,0.0,0.0,0.0,0.0,1500,1500,0.0,0.0,40.0483053333,-88.2330913333,0.0,0.0,0.0,0.0,0.0,0.0,0.0,0.0,0.0,0.0,0.0,0,0.0,0.0,0.0,0.0,90.0,90.0,58.0,89.8907089233,89.5724029541,121.84902954100001,39.5279998779,15.1303358078,3.4099998474,0,2,25,1,217,115
54,1530630427977,2340977, RC,0,39.9586186,-88.445067899,0,0.0,0.0,0.0,0.0,0.0,0.0,0.0,0.0,0.0,0.0,0.0,0.0,0.0,1500,1500,0.0,0.0,40.0483053333,-88.2330913333,0.0,0.0,0.0,0.0,0.0,0.0,0.0,0.0,0.0,0.0,0.0,0,0.0,0.0,0.0,0.0,90.0,90.0,58.0,89.8907089233,89.63606262209998,121.84902954100001,39.5279998779,15.1303358078,3.4099998474,0,2,25,1,206,117
55,1530630428027,2341027, RC,0,39.9586186,-88.445067899,0,0.0,0.0,0.0,0.0,0.0,0.0,0.0,0.0,0.0,0.0,0.0,0.0,0.0,1500,1500,0.0,0.0,40.0483053333,-88.2330913333,0.0,0.0,0.0,0.0,0.0,0.0,0.0,0.0,0.0,0.0,0.0,0,0.0,0.0,0.0,0.0,90.0,90.0,58.0,89.8907089233,89.63606262209998,121.84902954100001,39.5279998779,15.125778198199999,3.6300001144,0,2,25,1,198,119
56,1530630428077,2341077, RC,0,39.9586186,-88.445067899,0,0.0,0.0,0.0,0.0,0.0,0.0,0.0,0.0,0.0,0.0,0.0,0.0,0.0,1500,1500,0.0,0.0,40.0483053333,-88.2330913333,0.0,0.0,0.0,0.0,0.0,0.0,0.0,0.0,0.0,0.0,0.0,0,0.0,0.0,0.0,0.0,90.0,90.0,58.0,89.8907089233,89.63606262209998,121.84902954100001,39.5279998779,15.125778198199999,3.6300001144,0,2,25,1,186,121
57,1530630428128,2341128, RC,0,39.9586186,-88.445067899,0,0.0,0.0,0.0,0.0,0.0,0.0,0.0,0.0,0.0,0.0,0.0,0.0,0.0,1500,1500,0.0,0.0,40.0483053333,-88.2330913333,0.0,0.0,0.0,0.0,0.0,0.0,0.0,0.0,0.0,0.0,0.0,0,0.0,0.0,0.0,0.0,90.0,90.0,58.0,89.8907089233,89.63606262209998,121.84902954100001,39.5279998779,15.125778198199999,3.6300001144,0,2,25,1,213,123
58,1530630428178,2341178, RC,0,39.9586186,-88.445067899,0,0.0,0.0,0.0,0.0,0.0,0.0,0.0,0.0,0.0,0.0,0.0,0.0,0.0,1500,1500,0.0,0.0,40.0483053333,-88.2330913333,0.0,0.0,0.0,0.0,0.0,0.0,0.0,0.0,0.0,0.0,0.0,0,0.0,0.0,0.0,0.0,90.0,90.0,58.0,89.8907089233,89.63606262209998,121.84902954100001,39.5279998779,15.125778198199999,3.6300001144,0,2,25,1,205,125
59,1530630428228,2341228, RC,0,39.9586186,-88.445067899,0,0.0,0.0,0.0,0.0,0.0,0.0,0.0,0.0,0.0,0.0,0.0,0.0,0.0,1500,1500,0.0,0.0,40.0483053333,-88.2330913333,0.0,0.0,0.0,0.0,0.0,0.0,0.0,0.0,0.0,0.0,0.0,0,0.0,0.0,0.0,0.0,90.0,90.0,58.0,89.8907089233,89.63606262209998,121.84902954100001,39.5279998779,15.125778198199999,3.6300001144,0,2,25,1,212,127
60,1530630428279,2341279, RC,0,39.9586186,-88.445067899,0,0.0,0.0,0.0,0.0,0.0,0.0,0.0,0.0,0.0,0.0,0.0,0.0,0.0,1500,1500,0.0,0.0,40.0483053333,-88.2330913333,0.0,0.0,0.0,0.0,0.0,0.0,0.0,0.0,0.0,0.0,0.0,0,0.0,0.0,0.0,0.0,90.0,90.0,60.0,89.8907089233,89.63606262209998,121.84902954100001,39.5279998779,15.125778198199999,3.6300001144,0,2,25,1,214,129
61,1530630428329,2341329, RC,0,39.9586186,-88.445067899,0,0.0,0.0,0.0,0.0,0.0,0.0,0.0,0.0,0.0,0.0,0.0,0.0,0.0,1500,1500,0.0,0.0,40.0483053333,-88.2330913333,0.0,0.0,0.0,0.0,0.0,0.0,0.0,0.0,0.0,0.0,0.0,0,0.0,0.0,0.0,0.0,90.0,90.0,60.0,89.8907089233,89.63606262209998,121.84902954100001,39.5279998779,15.125778198199999,3.6300001144,0,2,25,1,193,131
62,1530630428380,2341380, RC,0,39.9586186,-88.445067899,0,0.0,0.0,0.0,0.0,0.0,0.0,0.0,0.0,0.0,0.0,0.0,0.0,0.0,1500,1500,0.0,0.0,40.0483053333,-88.2330913333,0.0,0.0,0.0,0.0,0.0,0.0,0.0,0.0,0.0,0.0,0.0,0,0.0,0.0,0.0,0.0,90.0,90.0,60.0,89.8907089233,89.63606262209998,121.7853622437,39.5279998779,15.125778198199999,3.6300001144,0,2,25,1,224,133
63,1530630428430,2341430, RC,0,39.9586186,-88.445067899,0,0.0,0.0,0.0,0.0,0.0,0.0,0.0,0.0,0.0,0.0,0.0,0.0,0.0,1500,1500,0.0,0.0,40.0483053333,-88.2330913333,0.0,0.0,0.0,0.0,0.0,0.0,0.0,0.0,0.0,0.0,0.0,0,0.0,0.0,0.0,0.0,90.0,90.0,60.0,89.8907089233,89.63606262209998,121.0214157104,40.6039962769,15.125778198199999,3.6300001144,0,2,25,1,225,135
64,1530630428480,2341480, RC,0,39.9586186,-88.445067899,0,0.0,0.0,0.0,0.0,0.0,0.0,0.0,0.0,0.0,0.0,0.0,0.0,0.0,1500,1500,0.0,0.0,40.0483053333,-88.2330913333,0.0,0.0,0.0,0.0,0.0,0.0,0.0,0.0,0.0,0.0,0.0,0,0.0,0.0,0.0,0.0,90.0,90.0,60.0,89.8907089233,89.63606262209998,119.62085723879999,40.6039962769,15.125778198199999,3.6300001144,0,2,25,1,221,137
65,1530630428531,2341531, RC,0,39.9586186,-88.445067899,0,0.0,0.0,0.0,0.0,0.0,0.0,0.0,0.0,0.0,0.0,0.0,0.0,0.0,1500,1500,0.0,0.0,40.0483053333,-88.2330913333,0.0,0.0,0.0,0.0,0.0,0.0,0.0,0.0,0.0,0.0,0.0,0,0.0,0.0,0.0,0.0,90.0,90.0,60.0,89.8907089233,89.63606262209998,119.1752166748,40.6039962769,15.125778198199999,3.6300001144,0,2,25,1,210,139
66,1530630428581,2341581, RC,0,39.9586186,-88.445067899,0,0.0,0.0,0.0,0.0,0.0,0.0,0.0,0.0,0.0,0.0,0.0,0.0,0.0,1500,1500,0.0,0.0,40.0483053333,-88.2330913333,0.0,0.0,0.0,0.0,0.0,0.0,0.0,0.0,0.0,0.0,0.0,0,0.0,0.0,0.0,0.0,90.0,90.0,60.0,89.8907089233,89.63606262209998,119.1115570068,40.6039962769,15.125778198199999,3.6300001144,0,2,25,1,237,141
67,1530630428631,2341631, RC,0,39.9586186,-88.445067899,0,0.0,0.0,0.0,0.0,0.0,0.0,0.0,0.0,0.0,0.0,0.0,0.0,0.0,1500,1500,0.0,0.0,40.0483053333,-88.2330913333,0.0,0.0,0.0,0.0,0.0,0.0,0.0,0.0,0.0,0.0,0.0,0,0.0,0.0,0.0,0.0,90.0,90.0,60.0,89.8907089233,89.63606262209998,119.0479049683,40.6039962769,15.125778198199999,3.6300001144,0,2,25,1,230,143
68,1530630428682,2341682, RC,0,39.9586186,-88.445067899,0,0.0,0.0,0.0,0.0,0.0,0.0,0.0,0.0,0.0,0.0,0.0,0.0,0.0,1500,1500,0.0,0.0,40.0483053333,-88.2330913333,0.0,0.0,0.0,0.0,0.0,0.0,0.0,0.0,0.0,0.0,0.0,0,0.0,0.0,0.0,0.0,90.0,90.0,60.0,89.8907089233,89.63606262209998,119.0479049683,40.6039962769,15.125778198199999,3.6300001144,0,2,25,1,219,147
69,1530630428732,2341732, RC,0,39.9586186,-88.445067899,0,0.0,0.0,0.0,0.0,0.0,0.0,0.0,0.0,0.0,0.0,0.0,0.0,0.0,1500,1500,0.0,0.0,40.0483053333,-88.2330913333,0.0,0.0,0.0,0.0,0.0,0.0,0.0,0.0,0.0,0.0,0.0,0,0.0,0.0,0.0,0.0,90.0,90.0,60.0,89.8907089233,89.63606262209998,119.0479049683,40.6039962769,15.125778198199999,3.6300001144,0,2,25,1,240,150
70,1530630428782,2341782, RC,0,39.9586186,-88.445067899,0,0.0,0.0,0.0,0.0,0.0,0.0,0.0,0.0,0.0,0.0,0.0,0.0,0.0,1500,1500,0.0,0.0,40.0483053333,-88.2330913333,0.0,0.0,0.0,0.0,0.0,0.0,0.0,0.0,0.0,0.0,0.0,0,0.0,0.0,0.0,0.0,90.0,90.0,60.0,89.8907089233,89.63606262209998,119.0479049683,40.6039962769,15.125778198199999,3.6300001144,0,2,25,1,250,153
71,1530630428833,2341833, RC,0,39.9586186,-88.445067899,0,0.0,0.0,0.0,0.0,0.0,0.0,0.0,0.0,0.0,0.0,0.0,0.0,0.0,1500,1500,0.0,0.0,40.048306,-88.2330883333,0.0,0.0,0.0,0.0,0.0,0.0,0.0,0.0,0.0,0.0,0.0,0,0.0,0.0,0.0,0.0,90.0,90.0,60.0,89.8907089233,89.63606262209998,118.9842300415,40.6039962769,15.125778198199999,3.6300001144,0,2,25,1,226,156
72,1530630428883,2341883, RC,0,39.9586186,-88.445067899,0,0.0,0.0,0.0,0.0,0.0,0.0,0.0,0.0,0.0,0.0,0.0,0.0,0.0,1500,1500,0.0,0.0,40.048306,-88.2330883333,0.0,0.0,0.0,0.0,0.0,0.0,0.0,0.0,0.0,0.0,0.0,0,0.0,0.0,0.0,0.0,90.0,90.0,60.0,89.8907089233,89.63606262209998,118.9842300415,40.6039962769,15.125778198199999,3.6300001144,0,2,25,1,244,158
73,1530630428933,2341933, RC,0,39.9586186,-88.445067899,0,0.0,0.0,0.0,0.0,0.0,0.0,0.0,0.0,0.0,0.0,0.0,0.0,0.0,1500,1500,0.0,0.0,40.048306,-88.2330883333,0.0,0.0,0.0,0.0,0.0,0.0,0.0,0.0,0.0,0.0,0.0,0,0.0,0.0,0.0,0.0,90.0,90.0,60.0,89.8907089233,89.63606262209998,118.9842300415,40.6039962769,15.125778198199999,3.6300001144,0,2,25,1,232,161
74,1530630428984,2341984, RC,0,39.9586186,-88.445067899,0,0.0,0.0,0.0,0.0,0.0,0.0,0.0,0.0,0.0,0.0,0.0,0.0,0.0,1500,1500,0.0,0.0,40.048306,-88.2330883333,0.0,0.0,0.0,0.0,0.0,0.0,0.0,0.0,0.0,0.0,0.0,0,0.0,0.0,0.0,0.0,90.0,90.0,60.0,89.8907089233,89.63606262209998,118.9842300415,40.6039962769,15.125778198199999,3.6300001144,0,2,25,1,237,163
75,1530630429034,2342034, RC,0,39.9586186,-88.445067899,0,0.0,0.0,0.0,0.0,0.0,0.0,0.0,0.0,0.0,0.0,0.0,0.0,0.0,1500,1500,0.0,0.0,40.048306,-88.2330883333,0.0,0.0,0.0,0.0,0.0,0.0,0.0,0.0,0.0,0.0,0.0,0,0.0,0.0,0.0,0.0,90.0,90.0,60.0,89.8907089233,89.63606262209998,118.9842300415,40.6039962769,15.121090889000001,2.8400001526,0,2,25,1,235,166
76,1530630429084,2342084, RC,0,39.9586186,-88.445067899,0,0.0,0.0,0.0,0.0,0.0,0.0,0.0,0.0,0.0,0.0,0.0,0.0,0.0,1500,1500,0.0,0.0,40.048306,-88.2330883333,0.0,0.0,0.0,0.0,0.0,0.0,0.0,0.0,0.0,0.0,0.0,0,0.0,0.0,0.0,0.0,90.0,90.0,60.0,89.8907089233,89.63606262209998,118.9842300415,40.6039962769,15.121090889000001,2.8400001526,0,2,25,1,230,168
77,1530630429135,2342135, RC,0,39.9586186,-88.445067899,0,0.0,0.0,0.0,0.0,0.0,0.0,0.0,0.0,0.0,0.0,0.0,0.0,0.0,1500,1500,0.0,0.0,40.048306,-88.2330883333,0.0,0.0,0.0,0.0,0.0,0.0,0.0,0.0,0.0,0.0,0.0,0,0.0,0.0,0.0,0.0,90.0,90.0,60.0,89.8907089233,89.63606262209998,118.9842300415,40.6039962769,15.121090889000001,2.8400001526,0,2,25,1,241,171
78,1530630429186,2342186, RC,0,39.9586186,-88.445067899,0,0.0,0.0,0.0,0.0,0.0,0.0,0.0,0.0,0.0,0.0,0.0,0.0,0.0,1500,1500,0.0,0.0,40.048306,-88.2330883333,0.0,0.0,0.0,0.0,0.0,0.0,0.0,0.0,0.0,0.0,0.0,0,0.0,0.0,0.0,0.0,90.0,90.0,60.0,89.8907089233,89.63606262209998,118.9842300415,40.6039962769,15.121090889000001,2.8400001526,0,2,25,1,242,174
79,1530630429236,2342236, RC,0,39.9586186,-88.445067899,0,0.0,0.0,0.0,0.0,0.0,0.0,0.0,0.0,0.0,0.0,0.0,0.0,0.0,1500,1500,0.0,0.0,40.048306,-88.2330883333,0.0,0.0,0.0,0.0,0.0,0.0,0.0,0.0,0.0,0.0,0.0,0,0.0,0.0,0.0,0.0,90.0,90.0,60.0,89.8907089233,89.63606262209998,118.9842300415,40.6039962769,15.121090889000001,2.8400001526,0,2,25,1,228,176
80,1530630429287,2342287, RC,0,39.9586186,-88.445067899,0,0.0,0.0,0.0,0.0,0.0,0.0,0.0,0.0,0.0,0.0,0.0,0.0,0.0,1500,1500,0.0,0.0,40.048306,-88.2330883333,0.0,0.0,0.0,0.0,0.0,0.0,0.0,0.0,0.0,0.0,0.0,0,0.0,0.0,0.0,0.0,90.0,81.0,60.0,89.8907089233,89.63606262209998,118.9842300415,40.6039962769,15.121090889000001,2.8400001526,0,2,25,1,213,179
81,1530630429337,2342337, RC,0,39.9586186,-88.445067899,0,0.0,0.0,0.0,0.0,0.0,0.0,0.0,0.0,0.0,0.0,0.0,0.0,0.0,1500,1500,0.0,0.0,40.048306,-88.2330883333,0.0,0.0,0.0,0.0,0.0,0.0,0.0,0.0,0.0,0.0,0.0,0,0.0,0.0,0.0,0.0,90.0,81.0,60.0,89.8907089233,89.8907089233,118.9842300415,40.6039962769,15.121090889000001,2.8400001526,0,2,25,1,204,181
82,1530630429388,2342388, RC,0,39.9586186,-88.445067899,0,0.0,0.0,0.0,0.0,0.0,0.0,0.0,0.0,0.0,0.0,0.0,0.0,0.0,1500,1500,0.0,0.0,40.048306,-88.2330883333,0.0,0.0,0.0,0.0,0.0,0.0,0.0,0.0,0.0,0.0,0.0,0,0.0,0.0,0.0,0.0,90.0,77.0,60.0,89.8907089233,97.46648406979999,118.9842300415,40.6039962769,15.121090889000001,2.8400001526,0,2,25,1,207,184
83,1530630429438,2342438, RC,0,39.9586186,-88.445067899,0,0.0,0.0,0.0,0.0,0.0,0.0,0.0,0.0,0.0,0.0,0.0,0.0,0.0,1500,1500,0.0,0.0,40.048306,-88.2330883333,0.0,0.0,0.0,0.0,0.0,0.0,0.0,0.0,0.0,0.0,0.0,0,0.0,0.0,0.0,0.0,90.0,77.0,60.0,89.8907089233,99.69465637209998,118.9842300415,40.6039962769,15.121090889000001,2.8400001526,0,2,25,1,218,186
84,1530630429489,2342489, RC,0,39.9586186,-88.445067899,0,0.0,0.0,0.0,0.0,0.0,0.0,0.0,0.0,0.0,0.0,0.0,0.0,0.0,1500,1500,0.0,0.0,40.048306,-88.2330883333,0.0,0.0,0.0,0.0,0.0,0.0,0.0,0.0,0.0,0.0,0.0,0,0.0,0.0,0.0,0.0,90.0,70.0,60.0,89.8907089233,100.7132492065,118.9842300415,40.6039962769,15.121090889000001,2.8400001526,0,2,25,1,232,188
85,1530630429540,2342540, RC,0,39.9586186,-88.445067899,0,0.0,0.0,0.0,0.0,0.0,0.0,0.0,0.0,0.0,0.0,0.0,0.0,0.0,1500,1500,0.0,0.0,40.048306,-88.2330883333,0.0,0.0,0.0,0.0,0.0,0.0,0.0,0.0,0.0,0.0,0.0,0,0.0,0.0,0.0,0.0,90.0,70.0,60.0,89.8907089233,104.91493988040001,118.9842300415,40.6039962769,15.121090889000001,2.8400001526,0,2,25,1,242,191
86,1530630429590,2342590, RC,0,39.9586186,-88.445067899,0,0.0,0.0,0.0,0.0,0.0,0.0,0.0,0.0,0.0,0.0,0.0,0.0,0.0,1500,1500,0.0,0.0,40.048306,-88.2330883333,0.0,0.0,0.0,0.0,0.0,0.0,0.0,0.0,0.0,0.0,0.0,0,0.0,0.0,0.0,0.0,90.0,70.0,60.0,89.8907089233,110.45352935790001,118.9842300415,40.6039962769,15.121090889000001,2.8400001526,0,2,25,1,220,194
87,1530630429641,2342641, RC,0,39.9586186,-88.445067899,0,0.0,0.0,0.0,0.0,0.0,0.0,0.0,0.0,0.0,0.0,0.0,0.0,0.0,1500,1500,0.0,0.0,40.048306,-88.2330883333,0.0,0.0,0.0,0.0,0.0,0.0,0.0,0.0,0.0,0.0,0.0,0,0.0,0.0,0.0,0.0,90.0,70.0,60.0,89.8907089233,108.9256439209,118.9842300415,40.6039962769,15.121090889000001,2.8400001526,0,2,25,1,243,196
88,1530630429691,2342691, RC,0,39.9586186,-88.445067899,0,0.0,0.0,0.0,0.0,0.0,0.0,0.0,0.0,0.0,0.0,0.0,0.0,0.0,1500,1500,0.0,0.0,40.048306,-88.2330883333,0.0,0.0,0.0,0.0,0.0,0.0,0.0,0.0,0.0,0.0,0.0,0,0.0,0.0,0.0,0.0,90.0,61.0,60.0,89.8907089233,109.37127685549999,118.9842300415,40.6039962769,15.121090889000001,2.8400001526,0,2,25,1,222,199
89,1530630429742,2342742, RC,0,39.9586186,-88.445067899,0,0.0,0.0,0.0,0.0,0.0,0.0,0.0,0.0,0.0,0.0,0.0,0.0,0.0,1500,1500,0.0,0.0,40.048306,-88.2330883333,0.0,0.0,0.0,0.0,0.0,0.0,0.0,0.0,0.0,0.0,0.0,0,0.0,0.0,0.0,0.0,90.0,61.0,60.0,89.8907089233,111.726776123,118.9842300415,40.6039962769,15.121090889000001,2.8400001526,0,2,25,1,219,201
90,1530630429792,2342792, RC,0,39.9586186,-88.445067899,0,0.0,0.0,0.0,0.0,0.0,0.0,0.0,0.0,0.0,0.0,0.0,0.0,0.0,1500,1500,0.0,0.0,40.048306,-88.2330883333,0.0,0.0,0.0,0.0,0.0,0.0,0.0,0.0,0.0,0.0,0.0,0,0.0,0.0,0.0,0.0,90.0,60.0,60.0,89.8907089233,119.1752166748,118.9842300415,40.6039962769,15.121090889000001,2.8400001526,0,2,25,1,218,204
91,1530630429843,2342843, RC,0,39.9586186,-88.445067899,0,0.0,0.0,0.0,0.0,0.0,0.0,0.0,0.0,0.0,0.0,0.0,0.0,0.0,1500,1500,0.0,0.0,40.0483041667,-88.233085,0.0,0.0,0.0,0.0,0.0,0.0,0.0,0.0,0.0,0.0,0.0,0,0.0,0.0,0.0,0.0,90.0,60.0,60.0,89.82704925540001,118.6022567749,118.9842300415,40.6039962769,15.121090889000001,2.8400001526,0,2,25,1,236,206
92,1530630429893,2342893, RC,0,39.9586186,-88.445067899,0,0.0,0.0,0.0,0.0,0.0,0.0,0.0,0.0,0.0,0.0,0.0,0.0,0.0,1500,1500,0.0,0.0,40.0483041667,-88.233085,0.0,0.0,0.0,0.0,0.0,0.0,0.0,0.0,0.0,0.0,0.0,0,0.0,0.0,0.0,0.0,90.0,60.0,60.0,89.82704925540001,119.1115570068,118.9842300415,40.6039962769,15.121090889000001,2.8400001526,0,2,25,1,217,209
93,1530630429944,2342944, RC,0,39.9586186,-88.445067899,0,0.0,0.0,0.0,0.0,0.0,0.0,0.0,0.0,0.0,0.0,0.0,0.0,0.0,1500,1500,0.0,0.0,40.0483041667,-88.233085,0.0,0.0,0.0,0.0,0.0,0.0,0.0,0.0,0.0,0.0,0.0,0,0.0,0.0,0.0,0.0,90.0,60.0,60.0,89.82704925540001,119.0479049683,118.9842300415,40.6039962769,15.121090889000001,2.8400001526,0,2,25,1,212,211
94,1530630429995,2342995, RC,0,39.9586186,-88.445067899,0,0.0,0.0,0.0,0.0,0.0,0.0,0.0,0.0,0.0,0.0,0.0,0.0,0.0,1500,1500,0.0,0.0,40.0483041667,-88.233085,0.0,0.0,0.0,0.0,0.0,0.0,0.0,0.0,0.0,0.0,0.0,0,0.0,0.0,0.0,0.0,90.0,57.0,60.0,89.82704925540001,119.0479049683,118.9842300415,40.6039962769,15.1164646149,3.1799998282999997,0,2,25,1,224,214
95,1530630430045,2343045, RC,0,39.9586186,-88.445067899,0,0.0,0.0,0.0,0.0,0.0,0.0,0.0,0.0,0.0,0.0,0.0,0.0,0.0,1500,1500,0.0,0.0,40.0483041667,-88.233085,0.0,0.0,0.0,0.0,0.0,0.0,0.0,0.0,0.0,0.0,0.0,0,0.0,0.0,0.0,0.0,90.0,57.0,60.0,89.82704925540001,119.1115570068,118.9842300415,40.6039962769,15.1164646149,3.1799998282999997,0,2,25,1,232,216
96,1530630430096,2343096, RC,0,39.9586186,-88.445067899,0,0.0,0.0,0.0,0.0,0.0,0.0,0.0,0.0,0.0,0.0,0.0,0.0,0.0,1500,1500,0.0,0.0,40.0483041667,-88.233085,0.0,0.0,0.0,0.0,0.0,0.0,0.0,0.0,0.0,0.0,0.0,0,0.0,0.0,0.0,0.0,90.0,57.0,60.0,89.82704925540001,122.48564910889999,118.9842300415,40.6039962769,15.1164646149,3.1799998282999997,0,2,25,1,204,219
97,1530630430146,2343146, RC,0,39.9586186,-88.445067899,0,0.0,0.0,0.0,0.0,0.0,0.0,0.0,0.0,0.0,0.0,0.0,0.0,0.0,1500,1500,0.0,0.0,40.0483041667,-88.233085,0.0,0.0,0.0,0.0,0.0,0.0,0.0,0.0,0.0,0.0,0.0,0,0.0,0.0,0.0,0.0,90.0,57.0,60.0,89.82704925540001,122.5493011475,118.9842300415,40.6039962769,15.1164646149,3.1799998282999997,0,2,25,1,237,221
98,1530630430197,2343197, RC,0,39.9586186,-88.445067899,0,0.0,0.0,0.0,0.0,0.0,0.0,0.0,0.0,0.0,0.0,0.0,0.0,0.0,1500,1500,0.0,0.0,40.0483041667,-88.233085,0.0,0.0,0.0,0.0,0.0,0.0,0.0,0.0,0.0,0.0,0.0,0,0.0,0.0,0.0,0.0,90.0,54.0,60.0,89.82704925540001,122.48564910889999,118.9842300415,40.6039962769,15.1164646149,3.1799998282999997,0,2,25,1,226,224
99,1530630430247,2343247, RC,0,39.9586186,-88.445067899,0,0.0,0.0,0.0,0.0,0.0,0.0,0.0,0.0,0.0,0.0,0.0,0.0,0.0,1500,1500,0.0,0.0,40.0483041667,-88.233085,0.0,0.0,0.0,0.0,0.0,0.0,0.0,0.0,0.0,0.0,0.0,0,0.0,0.0,0.0,0.0,90.0,54.0,60.0,89.82704925540001,122.5493011475,118.9842300415,40.6039962769,15.1164646149,3.1799998282999997,0,2,25,1,233,226
100,1530630430298,2343298, RC,0,39.9586186,-88.445067899,0,0.0,0.0,0.0,0.0,0.0,0.0,0.0,0.0,0.0,0.0,0.0,0.0,0.0,1500,1500,0.0,0.0,40.0483041667,-88.233085,0.0,0.0,0.0,0.0,0.0,0.0,0.0,0.0,0.0,0.0,0.0,0,0.0,0.0,0.0,0.0,90.0,54.0,60.0,89.82704925540001,124.7774734497,118.9842300415,40.6039962769,15.1164646149,3.1799998282999997,0,2,25,1,225,229
101,1530630430349,2343349, RC,0,39.9586186,-88.445067899,0,0.0,0.0,0.0,0.0,0.0,0.0,0.0,0.0,0.0,0.0,0.0,0.0,0.0,1500,1500,0.0,0.0,40.0483041667,-88.233085,0.0,0.0,0.0,0.0,0.0,0.0,0.0,0.0,0.0,0.0,0.0,0,0.0,0.0,0.0,0.0,90.0,54.0,60.0,89.82704925540001,126.36901855469999,118.9842300415,40.6039962769,15.1164646149,3.1799998282999997,0,2,25,1,216,231
102,1530630430399,2343399, RC,0,39.9586186,-88.445067899,0,0.0,0.0,0.0,0.0,0.0,0.0,0.0,0.0,0.0,0.0,0.0,0.0,0.0,1500,1500,0.0,0.0,40.0483041667,-88.233085,0.0,0.0,0.0,0.0,0.0,0.0,0.0,0.0,0.0,0.0,0.0,0,0.0,0.0,0.0,0.0,90.0,54.0,60.0,89.82704925540001,125.73240661620001,118.9842300415,40.6039962769,15.1164646149,3.1799998282999997,0,2,25,1,238,234
103,1530630430450,2343450, RC,0,39.9586186,-88.445067899,0,0.0,0.0,0.0,0.0,0.0,0.0,0.0,0.0,0.0,0.0,0.0,0.0,0.0,1500,1500,0.0,0.0,40.0483041667,-88.233085,0.0,0.0,0.0,0.0,0.0,0.0,0.0,0.0,0.0,0.0,0.0,0,0.0,0.0,0.0,0.0,90.0,54.0,60.0,89.82704925540001,125.4140930176,118.9842300415,40.6039962769,15.1164646149,3.1799998282999997,0,2,25,1,242,236
104,1530630430500,2343500, RC,0,39.9586186,-88.445067899,0,0.0,0.0,0.0,0.0,0.0,0.0,0.0,0.0,0.0,0.0,0.0,0.0,0.0,1500,1500,0.0,0.0,40.0483041667,-88.233085,0.0,0.0,0.0,0.0,0.0,0.0,0.0,0.0,0.0,0.0,0.0,0,0.0,0.0,0.0,0.0,90.0,57.0,60.0,89.82704925540001,125.4140930176,118.9842300415,40.6039962769,15.1164646149,3.1799998282999997,0,2,25,1,217,239
105,1530630430551,2343551, RC,0,39.9586186,-88.445067899,0,0.0,0.0,0.0,0.0,0.0,0.00018393400000000002,0.0,0.0,0.0,0.0,0.0,0.0,0.0,1500,1500,0.0,0.0,40.0483041667,-88.233085,0.0,0.0,0.0,0.0,0.0,0.0,0.0,0.0,0.0,0.0,0.0,0,0.0,0.0,0.0,0.00036786800000000004,90.0,57.0,60.0,89.82704925540001,124.7138137817,118.9842300415,40.6039962769,15.1164646149,3.1799998282999997,0,2,25,1,212,241
106,1530630430601,2343601, RC,0,39.9586186,-88.445067899,0,0.0,0.0,0.0,0.0,0.0,0.0007357360000000001,0.0,0.0,0.0,0.0,0.0,0.0,0.0,1500,1500,0.0,0.0,40.0483041667,-88.233085,0.0,0.0,0.0,0.0,0.0,0.0,0.0,0.0,0.0,0.0,0.0,0,0.0,0.0,0.0,0.0014714720000000001,90.0,58.0,60.0,89.82704925540001,122.1673278809,118.9842300415,40.6039962769,15.1164646149,3.1799998282999997,0,2,25,1,232,244
107,1530630430652,2343652, RC,0,39.9586186,-88.445067899,0,0.0,0.0,0.0,0.0,0.0,0.0007357360000000001,0.0,0.0,0.0,0.0,0.0,0.0,0.0,1500,1500,0.0,0.0,40.0483041667,-88.233085,0.0,0.0,0.0,0.0,0.0,0.0,0.0,0.0,0.0,0.0,0.0,0,0.0,0.0,0.0,0.0014714720000000001,90.0,58.0,60.0,89.82704925540001,122.4219894409,118.9842300415,40.6039962769,15.1164646149,3.1799998282999997,0,2,25,1,224,246
108,1530630430702,2343702, RC,0,39.9586186,-88.445067899,0,0.0,0.0,0.0,0.0,0.0,0.000551802,0.0,0.0,0.0,0.0,0.0,0.0,0.0,1500,1500,0.0,0.0,40.0483041667,-88.233085,0.0,0.0,0.0,0.0,0.0,0.0,0.0,0.0,0.0,0.0,0.0,0,0.0,0.0,0.0,0.001103604,90.0,58.0,60.0,89.82704925540001,122.3583145142,118.9842300415,40.6039962769,15.1164646149,3.1799998282999997,0,2,25,1,229,249
109,1530630430753,2343753, RC,0,39.9586186,-88.445067899,0,0.0,0.0,0.0,0.0,0.0,0.000459835,0.0,0.0,0.0,0.0,0.0,0.0,0.0,1500,1500,0.0,0.0,40.0483041667,-88.233085,0.0,0.0,0.0,0.0,0.0,0.0,0.0,0.0,0.0,0.0,0.0,0,0.0,0.0,0.0,0.0009196699,90.0,58.0,60.0,89.82704925540001,122.29466247559999,118.9842300415,40.6039962769,15.1164646149,3.1799998282999997,0,2,25,1,235,251
110,1530630430804,2343804, RC,0,39.9586186,-88.445067899,0,0.0,0.0,0.0,0.0,0.0,0.00036786800000000004,0.0,0.0,0.0,0.0,0.0,0.0,0.0,1500,1500,0.0,0.0,40.0483041667,-88.233085,0.0,0.0,0.0,0.0,0.0,0.0,0.0,0.0,0.0,0.0,0.0,0,0.0,0.0,0.0,0.0007357360000000001,90.0,60.0,60.0,89.82704925540001,122.1673278809,118.9842300415,40.6039962769,15.1164646149,3.1799998282999997,0,2,25,1,223,254
111,1530630430854,2343854, RC,0,39.9586186,-88.445067899,0,0.0,0.0,0.0,0.0,0.0,0.000275901,0.0,0.0,0.0,0.0,0.0,0.0,0.0,1500,1500,0.0,0.0,40.0483038333,-88.2330881667,0.0,0.0,0.0,0.0,0.0,0.0,0.0,0.0,0.0,0.0,0.0,0,0.0,0.0,0.0,0.000551802,90.0,60.0,60.0,89.82704925540001,121.59437561040001,118.9842300415,40.6039962769,15.1164646149,3.1799998282999997,0,2,25,1,217,257
112,1530630430905,2343905, RC,0,39.9586186,-88.445067899,0,0.0,0.0,0.0,0.0,0.0,0.00018393400000000002,0.0,0.0,0.0,0.0,0.0,0.0,0.0,1500,1500,0.0,0.0,40.0483038333,-88.2330881667,0.0,0.0,0.0,0.0,0.0,0.0,0.0,0.0,0.0,0.0,0.0,0,0.0,0.0,0.0,0.00036786800000000004,90.0,60.0,60.0,89.82704925540001,120.13014221190001,118.9842300415,40.6039962769,15.1164646149,3.1799998282999997,0,2,25,1,223,259
113,1530630430955,2343955, RC,0,39.9586186,-88.445067899,0,0.0,0.0,0.0,0.0,0.0,0.00018393400000000002,0.0,0.0,0.0,0.0,0.0,0.0,0.0,1500,1500,0.0,0.0,40.0483038333,-88.2330881667,0.0,0.0,0.0,0.0,0.0,0.0,0.0,0.0,0.0,0.0,0.0,0,0.0,0.0,0.0,0.00036786800000000004,90.0,60.0,60.0,89.82704925540001,120.00283050540001,118.9842300415,40.6039962769,15.1164646149,3.1799998282999997,0,2,25,1,237,262
114,1530630431006,2344006, RC,0,39.9586186,-88.445067899,0,0.0,0.0,0.0,0.0,0.0,9.196700000000001e-05,0.0,0.0,0.0,0.0,0.0,0.0,0.0,1500,1500,0.0,0.0,40.0483038333,-88.2330881667,0.0,0.0,0.0,0.0,0.0,0.0,0.0,0.0,0.0,0.0,0.0,0,0.0,0.0,0.0,0.00018393400000000002,90.0,60.0,60.0,89.82704925540001,120.13014221190001,118.9842300415,40.6039962769,15.111699104300001,2.7400000094999997,0,2,25,1,249,264
115,1530630431056,2344056, RC,0,39.9586186,-88.445067899,0,0.0,0.0,0.0,0.0,0.0,9.196700000000001e-05,0.0,0.0,0.0,0.0,0.0,0.0,0.0,1500,1500,0.0,0.0,40.0483038333,-88.2330881667,0.0,0.0,0.0,0.0,0.0,0.0,0.0,0.0,0.0,0.0,0.0,0,0.0,0.0,0.0,0.00018393400000000002,90.0,60.0,60.0,89.82704925540001,120.13014221190001,118.9842300415,40.6039962769,15.111699104300001,2.7400000094999997,0,2,25,1,229,266
116,1530630431107,2344107, RC,0,39.9586186,-88.445067899,0,0.0,0.0,0.0,0.0,0.0,9.196700000000001e-05,0.0,0.0,0.0,0.0,0.0,0.0,0.0,1500,1500,0.0,0.0,40.0483038333,-88.2330881667,0.0,0.0,0.0,0.0,0.0,0.0,0.0,0.0,0.0,0.0,0.0,0,0.0,0.0,0.0,0.00018393400000000002,90.0,60.0,60.0,89.82704925540001,120.13014221190001,118.9842300415,40.6039962769,15.111699104300001,2.7400000094999997,0,2,25,1,235,269
117,1530630431158,2344158, RC,0,39.9586186,-88.445067899,0,0.0,0.0,0.0,0.0,0.0,0.0,0.0,0.0,0.0,0.0,0.0,0.0,0.0,1500,1500,0.0,0.0,40.0483038333,-88.2330881667,0.0,0.0,0.0,0.0,0.0,0.0,0.0,0.0,0.0,0.0,0.0,0,0.0,0.0,0.0,0.0,90.0,60.0,60.0,89.82704925540001,120.00283050540001,118.9842300415,40.6039962769,15.111699104300001,2.7400000094999997,0,2,25,1,225,272
118,1530630431208,2344208, RC,0,39.9586186,-88.445067899,0,0.0,0.0,0.0,0.0,0.0,0.0,0.0,0.0,0.0,0.0,0.0,0.0,0.0,1500,1500,0.0,0.0,40.0483038333,-88.2330881667,0.0,0.0,0.0,0.0,0.0,0.0,0.0,0.0,0.0,0.0,0.0,0,0.0,0.0,0.0,0.0,90.0,60.0,60.0,89.82704925540001,118.856918335,118.9842300415,40.6039962769,15.111699104300001,2.7400000094999997,0,2,25,1,234,274
119,1530630431259,2344259, RC,0,39.9586186,-88.445067899,0,0.0,0.0,0.0,0.0,0.0,0.0,0.0,0.0,0.0,0.0,0.0,0.0,0.0,1500,1500,0.0,0.0,40.0483038333,-88.2330881667,0.0,0.0,0.0,0.0,0.0,0.0,0.0,0.0,0.0,0.0,0.0,0,0.0,0.0,0.0,0.0,90.0,60.0,60.0,89.82704925540001,118.9842300415,118.9842300415,40.6039962769,15.111699104300001,2.7400000094999997,0,2,25,1,243,277
120,1530630431309,2344309, RC,0,39.9586186,-88.445067899,0,0.0,0.0,0.0,0.0,0.0,0.0,0.0,0.0,0.0,0.0,0.0,0.0,0.0,1500,1500,0.0,0.0,40.0483038333,-88.2330881667,0.0,0.0,0.0,0.0,0.0,0.0,0.0,0.0,0.0,0.0,0.0,0,0.0,0.0,0.0,0.0,90.0,60.0,60.0,89.82704925540001,119.5571899414,118.9842300415,40.6039962769,15.111699104300001,2.7400000094999997,0,2,25,1,235,279
121,1530630431360,2344360, RC,0,39.9586186,-88.445067899,0,0.0,0.0,0.0,0.0,0.0,0.0,0.0,0.0,0.0,0.0,0.0,0.0,0.0,1500,1500,0.0,0.0,40.0483038333,-88.2330881667,0.0,0.0,0.0,0.0,0.0,0.0,0.0,0.0,0.0,0.0,0.0,0,0.0,0.0,0.0,0.0,90.0,60.0,60.0,89.82704925540001,119.6845169067,118.9842300415,40.6039962769,15.111699104300001,2.7400000094999997,0,2,25,1,233,282
122,1530630431410,2344410, RC,0,39.9586186,-88.445067899,0,0.0,0.0,0.0,0.0,0.0,0.0,0.0,0.0,0.0,0.0,0.0,0.0,0.0,1500,1500,0.0,0.0,40.0483038333,-88.2330881667,0.0,0.0,0.0,0.0,0.0,0.0,0.0,0.0,0.0,0.0,0.0,0,0.0,0.0,0.0,0.0,90.0,60.0,60.0,89.82704925540001,119.6845169067,118.9842300415,40.6039962769,15.111699104300001,2.7400000094999997,0,2,25,1,240,284
123,1530630431461,2344461, RC,0,39.9586186,-88.445067899,0,0.0,0.0,0.0,0.0,0.0,0.0,0.0,0.0,0.0,0.0,0.0,0.0,0.0,1500,1500,0.0,0.0,40.0483038333,-88.2330881667,0.0,0.0,0.0,0.0,0.0,0.0,0.0,0.0,0.0,0.0,0.0,0,0.0,0.0,0.0,0.0,90.0,60.0,60.0,89.82704925540001,119.6845169067,118.9842300415,40.6039962769,15.111699104300001,2.7400000094999997,0,2,25,1,218,287
124,1530630431524,2344524, RC,0,39.9586186,-88.445067899,0,0.0,0.0,0.0,0.0,0.0,0.0,0.0,0.0,0.0,0.0,0.0,0.0,0.0,1500,1500,0.0,0.0,40.0483038333,-88.2330881667,0.0,0.0,0.0,0.0,0.0,0.0,0.0,0.0,0.0,0.0,0.0,0,0.0,0.0,0.0,0.0,90.0,60.0,60.0,89.82704925540001,119.6845169067,118.9842300415,40.6039962769,15.111699104300001,2.7400000094999997,0,2,25,1,245,290
125,1530630431574,2344574, RC,0,39.9586186,-88.445067899,0,0.0,0.0,0.0,0.0,0.0,0.0,0.0,0.0,0.0,0.0,0.0,0.0,0.0,1500,1500,0.0,0.0,40.0483038333,-88.2330881667,0.0,0.0,0.0,0.0,0.0,0.0,0.0,0.0,0.0,0.0,0.0,0,0.0,0.0,0.0,0.0,90.0,60.0,60.0,89.82704925540001,119.7481765747,118.9842300415,40.6039962769,15.111699104300001,2.7400000094999997,0,2,25,1,244,292
126,1530630431625,2344625, RC,0,39.9586186,-88.445067899,0,0.0,0.0,0.0,0.0,0.0,0.0,0.0,0.0,0.0,0.0,0.0,0.0,0.0,1500,1500,0.0,0.0,40.0483038333,-88.2330881667,0.0,0.0,0.0,0.0,0.0,0.0,0.0,0.0,0.0,0.0,0.0,0,0.0,0.0,0.0,0.0,90.0,60.0,60.0,89.82704925540001,119.7481765747,118.9842300415,40.6039962769,15.111699104300001,2.7400000094999997,0,2,25,1,213,295
127,1530630431676,2344676, RC,0,39.9586186,-88.445067899,0,0.0,0.0,0.0,0.0,0.0,0.0,0.0,0.0,0.0,0.0,0.0,0.0,0.0,1500,1500,0.0,0.0,40.0483038333,-88.2330881667,0.0,0.0,0.0,0.0,0.0,0.0,0.0,0.0,0.0,0.0,0.0,0,0.0,0.0,0.0,0.0,90.0,60.0,60.0,89.8907089233,119.7481765747,118.9842300415,40.6039962769,15.111699104300001,2.7400000094999997,0,2,25,1,262,297
128,1530630431726,2344726, RC,0,39.9586186,-88.445067899,0,0.0,0.0,0.0,0.0,0.0,0.0,0.0,0.0,0.0,0.0,0.0,0.0,0.0,1500,1500,0.0,0.0,40.0483038333,-88.2330881667,0.0,0.0,0.0,0.0,0.0,0.0,0.0,0.0,0.0,0.0,0.0,0,0.0,0.0,0.0,0.0,90.0,60.0,60.0,89.8907089233,119.7481765747,118.9842300415,40.6039962769,15.111699104300001,2.7400000094999997,0,2,25,1,244,300
129,1530630431777,2344777, RC,0,39.9586186,-88.445067899,0,0.0,0.0,0.0,0.0,0.0,0.0,0.0,0.0,0.0,0.0,0.0,0.0,0.0,1500,1500,0.0,0.0,40.0483038333,-88.2330881667,0.0,0.0,0.0,0.0,0.0,0.0,0.0,0.0,0.0,0.0,0.0,0,0.0,0.0,0.0,0.0,90.0,60.0,60.0,89.9543762207,119.7481765747,118.9842300415,40.6039962769,15.111699104300001,2.7400000094999997,0,2,25,1,232,302
130,1530630431828,2344828, RC,0,39.9586186,-88.445067899,0,0.0,0.0,0.0,0.0,0.0,0.0,0.0,0.0,0.0,0.0,0.0,0.0,0.0,1500,1500,0.0,0.0,40.0483038333,-88.2330881667,0.0,0.0,0.0,0.0,0.0,0.0,0.0,0.0,0.0,0.0,0.0,0,0.0,0.0,0.0,0.0,90.0,60.0,60.0,89.9543762207,119.81184387209998,118.9842300415,40.6039962769,15.111699104300001,2.7400000094999997,0,2,25,1,252,305
131,1530630431878,2344878, RC,0,39.9586186,-88.445067899,0,0.0,0.0,0.0,0.0,0.0,0.0,0.0,0.0,0.0,0.0,0.0,0.0,0.0,1500,1500,0.0,0.0,40.0483018333,-88.2330901667,0.0,0.0,0.0,0.0,0.0,0.0,0.0,0.0,0.0,0.0,0.0,0,0.0,0.0,0.0,0.0,90.0,60.0,60.0,89.9543762207,119.7481765747,118.9842300415,40.6039962769,15.111699104300001,2.7400000094999997,0,2,25,1,226,307
132,1530630431929,2344929, RC,0,39.9586186,-88.445067899,0,0.0,0.0,0.0,0.0,0.0,0.0,0.0,0.0,0.0,0.0,0.0,0.0,0.0,1500,1500,0.0,0.0,40.0483018333,-88.2330901667,0.0,0.0,0.0,0.0,0.0,0.0,0.0,0.0,0.0,0.0,0.0,0,0.0,0.0,0.0,0.0,90.0,60.0,60.0,89.9543762207,119.81184387209998,118.9842300415,40.6039962769,15.111699104300001,2.7400000094999997,0,2,25,1,241,310
133,1530630431979,2344979, RC,0,39.9586186,-88.445067899,0,0.0,0.0,0.0,0.0,0.0,0.0,0.0,0.0,0.0,0.0,0.0,0.0,0.0,1500,1500,0.0,0.0,40.0483018333,-88.2330901667,0.0,0.0,0.0,0.0,0.0,0.0,0.0,0.0,0.0,0.0,0.0,0,0.0,0.0,0.0,0.0,90.0,60.0,60.0,89.8907089233,119.81184387209998,118.9842300415,40.6039962769,15.111699104300001,2.7400000094999997,0,2,25,1,213,312
134,1530630432030,2345030, RC,0,39.9586186,-88.445067899,0,0.0,0.0,0.0,0.0,0.0,0.0,0.0,0.0,0.0,0.0,0.0,0.0,0.0,1500,1500,0.0,0.0,40.0483018333,-88.2330901667,0.0,0.0,0.0,0.0,0.0,0.0,0.0,0.0,0.0,0.0,0.0,0,0.0,0.0,0.0,0.0,90.0,60.0,60.0,89.9543762207,119.81184387209998,118.9842300415,40.6039962769,15.112068176300001,3.2799999713999997,0,2,25,1,229,315
135,1530630432080,2345080, RC,0,39.9586186,-88.445067899,0,0.0,0.0,0.0,0.0,0.0,0.0,0.0,0.0,0.0,0.0,0.0,0.0,0.0,1500,1500,0.0,0.0,40.0483018333,-88.2330901667,0.0,0.0,0.0,0.0,0.0,0.0,0.0,0.0,0.0,0.0,0.0,0,0.0,0.0,0.0,0.0,90.0,60.0,60.0,89.9543762207,119.81184387209998,118.9842300415,40.6039962769,15.112068176300001,3.2799999713999997,0,2,25,1,230,317
136,1530630432131,2345131, RC,0,39.9586186,-88.445067899,0,0.0,0.0,0.0,0.0,0.0,0.0,0.0,0.0,0.0,0.0,0.0,0.0,0.0,1500,1500,0.0,0.0,40.0483018333,-88.2330901667,0.0,0.0,0.0,0.0,0.0,0.0,0.0,0.0,0.0,0.0,0.0,0,0.0,0.0,0.0,0.0,90.0,60.0,60.0,89.9543762207,119.81184387209998,118.9842300415,40.6039962769,15.112068176300001,3.2799999713999997,0,2,25,1,201,320
137,1530630432182,2345182, RC,0,39.9586186,-88.445067899,0,0.0,0.0,0.0,0.0,0.0,0.0,0.0,0.0,0.0,0.0,0.0,0.0,0.0,1500,1500,0.0,0.0,40.0483018333,-88.2330901667,0.0,0.0,0.0,0.0,0.0,0.0,0.0,0.0,0.0,0.0,0.0,0,0.0,0.0,0.0,0.0,90.0,60.0,60.0,89.9543762207,119.81184387209998,118.9842300415,40.6039962769,15.112068176300001,3.2799999713999997,0,2,25,1,220,323
138,1530630432232,2345232, RC,0,39.9586186,-88.445067899,0,0.0,0.0,0.0,0.0,0.0,0.0,0.0,0.0,0.0,0.0,0.0,0.0,0.0,1500,1500,0.0,0.0,40.0483018333,-88.2330901667,0.0,0.0,0.0,0.0,0.0,0.0,0.0,0.0,0.0,0.0,0.0,0,0.0,0.0,0.0,0.0,90.0,60.0,60.0,89.9543762207,119.81184387209998,118.9842300415,40.6039962769,15.112068176300001,3.2799999713999997,0,2,25,1,227,325
139,1530630432283,2345283, RC,0,39.9586186,-88.445067899,0,0.0,0.0,0.0,0.0,0.0,0.0,0.0,0.0,0.0,0.0,0.0,0.0,0.0,1500,1500,0.0,0.0,40.0483018333,-88.2330901667,0.0,0.0,0.0,0.0,0.0,0.0,0.0,0.0,0.0,0.0,0.0,0,0.0,0.0,0.0,0.0,90.0,60.0,60.0,89.9543762207,119.81184387209998,118.9842300415,40.6039962769,15.112068176300001,3.2799999713999997,0,2,25,1,241,328
140,1530630432333,2345333, RC,0,39.9586186,-88.445067899,0,0.0,0.0,0.0,0.0,0.0,0.0,0.0,0.0,0.0,0.0,0.0,0.0,0.0,1500,1500,0.0,0.0,40.0483018333,-88.2330901667,0.0,0.0,0.0,0.0,0.0,0.0,0.0,0.0,0.0,0.0,0.0,0,0.0,0.0,0.0,0.0,90.0,60.0,60.0,89.9543762207,119.81184387209998,118.9842300415,40.6039962769,15.112068176300001,3.2799999713999997,0,2,25,1,231,330
141,1530630432384,2345384, RC,0,39.9586186,-88.445067899,0,0.0,0.0,0.0,0.0,0.0,0.0,0.0,0.0,0.0,0.0,0.0,0.0,0.0,1500,1500,0.0,0.0,40.0483018333,-88.2330901667,0.0,0.0,0.0,0.0,0.0,0.0,0.0,0.0,0.0,0.0,0.0,0,0.0,0.0,0.0,0.0,90.0,60.0,60.0,89.9543762207,119.81184387209998,118.9842300415,40.6039962769,15.112068176300001,3.2799999713999997,0,2,25,1,239,333
142,1530630432435,2345435, RC,0,39.9586186,-88.445067899,0,0.0,0.0,0.0,0.0,0.0,0.0,0.0,0.0,0.0,0.0,0.0,0.0,0.0,1500,1500,0.0,0.0,40.0483018333,-88.2330901667,0.0,0.0,0.0,0.0,0.0,0.0,0.0,0.0,0.0,0.0,0.0,0,0.0,0.0,0.0,0.0,90.0,60.0,60.0,89.9543762207,119.81184387209998,118.9842300415,40.6039962769,15.112068176300001,3.2799999713999997,0,2,25,1,233,335
143,1530630432485,2345485, RC,0,39.9586186,-88.445067899,0,0.0,0.0,0.0,0.0,0.0,0.0,0.0,0.0,0.0,0.0,0.0,0.0,0.0,1500,1500,0.0,0.0,40.0483018333,-88.2330901667,0.0,0.0,0.0,0.0,0.0,0.0,0.0,0.0,0.0,0.0,0.0,0,0.0,0.0,0.0,0.0,90.0,60.0,60.0,89.9543762207,119.81184387209998,118.9842300415,40.6039962769,15.112068176300001,3.2799999713999997,0,2,25,1,228,337
144,1530630432536,2345536, RC,0,39.9586186,-88.445067899,0,0.0,0.0,0.0,0.0,0.0,0.0,0.0,0.0,0.0,0.0,0.0,0.0,0.0,1500,1500,0.0,0.0,40.0483018333,-88.2330901667,0.0,0.0,0.0,0.0,0.0,0.0,0.0,0.0,0.0,0.0,0.0,0,0.0,0.0,0.0,0.0,90.0,60.0,60.0,89.9543762207,119.81184387209998,118.9842300415,40.6039962769,15.112068176300001,3.2799999713999997,0,2,25,1,234,340
145,1530630432586,2345586, RC,0,39.9586186,-88.445067899,0,0.0,0.0,0.0,0.0,0.0,0.0,0.0,0.0,0.0,0.0,0.0,0.0,0.0,1500,1500,0.0,0.0,40.0483018333,-88.2330901667,0.0,0.0,0.0,0.0,0.0,0.0,0.0,0.0,0.0,0.0,0.0,0,0.0,0.0,0.0,0.0,90.0,60.0,60.0,89.9543762207,119.81184387209998,118.9842300415,40.6039962769,15.112068176300001,3.2799999713999997,0,2,25,1,212,343
146,1530630432637,2345637, RC,0,39.9586186,-88.445067899,0,0.0,0.0,0.0,0.0,0.0,0.0,0.0,0.0,0.0,0.0,0.0,0.0,0.0,1500,1500,0.0,0.0,40.0483018333,-88.2330901667,0.0,0.0,0.0,0.0,0.0,0.0,0.0,0.0,0.0,0.0,0.0,0,0.0,0.0,0.0,0.0,90.0,60.0,60.0,89.9543762207,119.81184387209998,118.9842300415,40.6039962769,15.112068176300001,3.2799999713999997,0,2,25,1,227,345
147,1530630432688,2345688, RC,0,39.9586186,-88.445067899,0,0.0,0.0,0.0,0.0,0.0,0.0,0.0,0.0,0.0,0.0,0.0,0.0,0.0,1500,1500,0.0,0.0,40.0483018333,-88.2330901667,0.0,0.0,0.0,0.0,0.0,0.0,0.0,0.0,0.0,0.0,0.0,0,0.0,0.0,0.0,0.0,90.0,60.0,60.0,89.9543762207,119.81184387209998,118.9842300415,40.6039962769,15.112068176300001,3.2799999713999997,0,2,25,1,238,348
148,1530630432738,2345738, RC,0,39.9586186,-88.445067899,0,0.0,0.0,0.0,0.0,0.0,0.0,0.0,0.0,0.0,0.0,0.0,0.0,0.0,1500,1500,0.0,0.0,40.0483018333,-88.2330901667,0.0,0.0,0.0,0.0,0.0,0.0,0.0,0.0,0.0,0.0,0.0,0,0.0,0.0,0.0,0.0,90.0,60.0,60.0,89.8907089233,119.81184387209998,118.9842300415,40.6039962769,15.112068176300001,3.2799999713999997,0,2,25,1,245,350
149,1530630432789,2345789, RC,0,39.9586186,-88.445067899,0,0.0,0.0,0.0,0.0,0.0,0.0,0.0,0.0,0.0,0.0,0.0,0.0,0.0,1500,1500,0.0,0.0,40.0483018333,-88.2330901667,0.0,0.0,0.0,0.0,0.0,0.0,0.0,0.0,0.0,0.0,0.0,0,0.0,0.0,0.0,0.0,90.0,60.0,60.0,89.8907089233,119.81184387209998,118.9842300415,40.6039962769,15.112068176300001,3.2799999713999997,0,2,25,1,228,353
150,1530630432840,2345840, RC,0,39.9586186,-88.445067899,0,0.0,0.0,0.0,0.0,0.0,0.0,0.0,0.0,0.0,0.0,0.0,0.0,0.0,1500,1500,0.0,0.0,40.0483023333,-88.2330976667,0.0,0.0,0.0,0.0,0.0,0.0,0.0,0.0,0.0,0.0,0.0,0,0.0,0.0,0.0,0.0,90.0,60.0,60.0,89.8907089233,119.81184387209998,118.9842300415,40.6039962769,15.112068176300001,3.2799999713999997,0,2,25,1,240,355
151,1530630432890,2345890, RC,0,39.9586186,-88.445067899,0,0.0,0.0,0.0,0.0,0.0,0.0,0.0,0.0,0.0,0.0,0.0,0.0,0.0,1500,1500,0.0,0.0,40.0483023333,-88.2330976667,0.0,0.0,0.0,0.0,0.0,0.0,0.0,0.0,0.0,0.0,0.0,0,0.0,0.0,0.0,0.0,90.0,60.0,60.0,89.9543762207,119.81184387209998,118.9842300415,40.6039962769,15.112068176300001,3.2799999713999997,0,2,25,1,237,358
152,1530630432941,2345941, RC,0,39.9586186,-88.445067899,0,0.0,0.0,0.0,0.0,0.0,0.0,0.0,0.0,0.0,0.0,0.0,0.0,0.0,1500,1500,0.0,0.0,40.0483023333,-88.2330976667,0.0,0.0,0.0,0.0,0.0,0.0,0.0,0.0,0.0,0.0,0.0,0,0.0,0.0,0.0,0.0,90.0,60.0,60.0,89.9543762207,119.81184387209998,118.9842300415,40.6039962769,15.112068176300001,3.2799999713999997,0,2,25,1,230,360
153,1530630432991,2345991, RC,0,39.9586186,-88.445067899,0,0.0,0.0,0.0,0.0,0.0,0.0,0.0,0.0,0.0,0.0,0.0,0.0,0.0,1500,1500,0.0,0.0,40.0483023333,-88.2330976667,0.0,0.0,0.0,0.0,0.0,0.0,0.0,0.0,0.0,0.0,0.0,0,0.0,0.0,0.0,0.0,90.0,60.0,60.0,89.9543762207,119.81184387209998,118.9842300415,40.6039962769,15.112413406400002,3.1199998856,0,2,25,1,234,363
154,1530630433042,2346042, RC,0,39.9586186,-88.445067899,0,0.0,0.0,0.0,0.0,0.0,0.0,0.0,0.0,0.0,0.0,0.0,0.0,0.0,1500,1500,0.0,0.0,40.0483023333,-88.2330976667,0.0,0.0,0.0,0.0,0.0,0.0,0.0,0.0,0.0,0.0,0.0,0,0.0,0.0,0.0,0.0,90.0,60.0,60.0,89.9543762207,119.81184387209998,118.9842300415,40.6039962769,15.112413406400002,3.1199998856,0,2,25,1,245,365
155,1530630433092,2346092, RC,0,39.9586186,-88.445067899,0,0.0,0.0,0.0,0.0,0.0,0.0,0.0,0.0,0.0,0.0,0.0,0.0,0.0,1500,1500,0.0,0.0,40.0483023333,-88.2330976667,0.0,0.0,0.0,0.0,0.0,0.0,0.0,0.0,0.0,0.0,0.0,0,0.0,0.0,0.0,0.0,90.0,60.0,60.0,89.9543762207,119.81184387209998,118.9842300415,40.6039962769,15.112413406400002,3.1199998856,0,2,25,1,230,368
156,1530630433143,2346143, RC,0,39.9586186,-88.445067899,0,0.0,0.0,0.0,0.0,0.0,0.0,0.0,0.0,0.0,0.0,0.0,0.0,0.0,1500,1500,0.0,0.0,40.0483023333,-88.2330976667,0.0,0.0,0.0,0.0,0.0,0.0,0.0,0.0,0.0,0.0,0.0,0,0.0,0.0,0.0,0.0,90.0,60.0,60.0,89.9543762207,119.81184387209998,118.9842300415,40.6039962769,15.112413406400002,3.1199998856,0,2,25,1,244,370
157,1530630433194,2346194, RC,0,39.9586186,-88.445067899,0,0.0,0.0,0.0,0.0,0.0,0.0,0.0,0.0,0.0,0.0,0.0,0.0,0.0,1500,1500,0.0,0.0,40.0483023333,-88.2330976667,0.0,0.0,0.0,0.0,0.0,0.0,0.0,0.0,0.0,0.0,0.0,0,0.0,0.0,0.0,0.0,90.0,60.0,60.0,89.9543762207,119.81184387209998,118.9842300415,40.6039962769,15.112413406400002,3.1199998856,0,2,25,1,226,373
158,1530630433244,2346244, RC,0,39.9586186,-88.445067899,0,0.0,0.0,0.0,0.0,0.0,0.0,0.0,0.0,0.0,0.0,0.0,0.0,0.0,1500,1500,0.0,0.0,40.0483023333,-88.2330976667,0.0,0.0,0.0,0.0,0.0,0.0,0.0,0.0,0.0,0.0,0.0,0,0.0,0.0,0.0,0.0,90.0,60.0,60.0,89.8907089233,119.81184387209998,118.9842300415,40.6039962769,15.112413406400002,3.1199998856,0,2,25,1,234,375
159,1530630433295,2346295, RC,0,39.9586186,-88.445067899,0,0.0,0.0,0.0,0.0,0.0,0.0,0.0,0.0,0.0,0.0,0.0,0.0,0.0,1500,1524,0.0,0.0,40.0483023333,-88.2330976667,0.0,0.0,0.0,0.0,0.0,0.0,0.0,0.0,0.0,0.0,0.0,0,0.0,0.049186945,0.0,0.0,90.0,60.0,60.0,89.8907089233,119.81184387209998,118.9842300415,40.6039962769,15.112413406400002,3.1199998856,0,2,25,1,241,378
160,1530630433345,2346345, RC,0,39.9586186,-88.445067899,0,0.0,0.0,0.0,0.0,0.0,0.0063457228,0.0,0.0,0.0,0.0,0.0,0.0,0.0,1500,1524,0.0,0.0,40.0483023333,-88.2330976667,0.0,0.0,0.0,0.0,0.0,0.0,0.0,0.0,0.0,0.0,0.0,0,0.0,0.049186945,0.0053340858,0.007357359399999999,90.0,60.0,60.0,89.8907089233,119.81184387209998,118.9842300415,40.6039962769,15.112413406400002,3.1199998856,0,2,25,1,220,380
161,1530630433396,2346396, RC,0,39.9586186,-88.445067899,0,0.0,0.0,0.0,0.0,0.0,0.0243712552,0.0,0.0,0.0,0.0,0.0,0.0,0.0,1500,1550,0.0,0.0,40.0483023333,-88.2330976667,0.0,0.0,0.0,0.0,0.0,0.0,0.0,0.0,0.0,0.0,0.0,0,0.0,0.10132694240000001,0.0263025612,0.022439947400000004,90.0,60.0,60.0,89.9543762207,119.7481765747,119.1115570068,40.6039962769,15.112413406400002,3.1199998856,0,2,25,1,225,383
162,1530630433447,2346447, RC,0,39.9586186,-88.445067899,0,0.0,0.0,0.0,0.0,0.0,0.0366028622,0.0,0.0,0.0,0.0,0.0,0.0,0.0,1500,1550,0.0,0.0,40.0483023333,-88.2330976667,0.0,0.0,0.0,0.0,0.0,0.0,0.0,0.0,0.0,0.0,0.0,0,0.0,0.10132694240000001,0.0367867984,0.036418929700000005,90.0,60.0,60.0,89.8907089233,119.6845169067,119.1752166748,40.6039962769,15.112413406400002,3.1199998856,0,2,25,1,251,385
163,1530630433497,2346497, RC,0,39.9586186,-88.445067899,0,0.0,0.0,0.0,0.0,0.0,0.0580311716,0.0,0.0,0.0,0.0,0.0,0.0,0.0,1500,1562,0.0,0.0,40.0483023333,-88.2330976667,0.0,0.0,0.0,0.0,0.0,0.0,0.0,0.0,0.0,0.0,0.0,0,0.0,0.1253679991,0.061250019800000007,0.054812327,90.0,60.0,60.0,90.4636688232,119.6845169067,119.1115570068,40.6039962769,15.112413406400002,3.1199998856,0,2,25,1,218,388
164,1530630433548,2346548, RC,0,39.9586186,-88.445067899,0,0.0,0.0,0.0,0.0,0.0,0.07007884980000001,0.0,0.0,0.0,0.0,0.0,0.0,0.0,1500,1562,0.0,0.0,40.0483023333,-88.2330976667,0.0,0.0,0.0,0.0,0.0,0.0,0.0,0.0,0.0,0.0,0.0,0,0.0,0.1253679991,0.0779880136,0.0750450715,90.0,60.0,60.0,91.0366287231,119.87550354,118.856918335,40.6039962769,15.112413406400002,3.1199998856,0,2,25,1,239,390
165,1530630433625,2346625, RC,0,39.9586186,-88.445067899,0,0.0,0.0,0.0,0.0,0.0,0.0886561871,0.0,0.0,0.0,0.0,0.0,0.0,0.0,1500,1576,0.0,0.0,40.0483023333,-88.2330976667,0.0,0.0,0.0,0.0,0.0,0.0,0.0,0.0,0.0,0.0,0.0,0,0.0,0.1530799866,0.0915991217,0.085713245,90.0,60.0,60.0,89.3177566528,120.38480377200001,118.4749450684,40.0660018921,15.112413406400002,3.1199998856,0,2,25,1,212,394
166,1530630433676,2346676, RC,0,39.9586186,-88.445067899,0,0.0,0.0,0.0,0.0,0.0,0.1039227024,0.0,0.0,0.0,0.0,0.0,0.0,0.0,1500,1576,0.0,0.0,40.0483023333,-88.2330976667,0.0,0.0,0.0,0.0,0.0,0.0,0.0,0.0,0.0,0.0,0.0,0,0.0,0.1530799866,0.1092567891,0.0985886157,90.0,60.0,60.0,89.9543762207,120.76677703860001,118.0293045044,40.0660018921,15.112413406400002,3.1199998856,0,2,25,1,203,397
