,(0)linux time (ms),    (1)uptime  (ms),      (2)drive mode,(3)mpc step counter,(4)mpc origin latitude  (deg),(5)mpc origin longitude  (deg),(6)closest trajectory point index to robot,(7)mpc error x (W;E)  (m),(8)mpc error y (W;E)  (m),(9)abs mpc error (m),(10)input [x] for mhe (m),(11)input [y] for mhe (m),(12)input [speed] for mhe (m/s),(13)input [vyaw] for mhe (rad/s),(14)mhe output x  (m),(15)mhe output y  (m),(16)mhe output speed  (m/s),(17)mhe output yaw  (rad),(18)mpc reference heading (rad),(19)mpc turn rate command (rad/s),(20)turn rate command as PWM,(21)throttle command as PWM,(22)primary gps latitude (deg),(23)primary gps longitude (deg),(24)secondary gps latitude  (deg),(25)secondary gps longitude (deg),(26)accelerometer x (m/s^2),(27)accelerometer y (m/s^2),(28)accelerometer z (m/s^2),(29)gyro yaw rate (rad/s),(30)gyro pitch rate   (rad/s),(31)gyro roll rate (rad/s),      (32)yaw (rad),  (33)pitch   (rad),     (34)roll (rad),(35)sonar1 measurement (m),(36)ultrasonic sensor measurement (m),(37)primary gps time (s),(38)normalized turn rate command,(39)normalized throttle command,(40)speed calculation from encoder left (m/s),(41)speed calculation from encoder right (m/s),(42)front gimbal target angle (degrees from straight down),(43)left gimbal target angle  (degrees from straight down),(44)right gimbal target angle  (degrees from straight down),(45)front gimbal measured angle  (degrees from straight down),(46)left gimbal measured angle    (degrees from straight down),(47)right gimbal measured angle  (degrees from straight down),(48)internal temperature (C),(49)battery voltage (V),(50)primary gps type,(51)secondary gps type,    (52)MPC R value, (53)MPC Q[0] value,Unnamed: 54,weed_num,start
0,1530636065061,754061, RC,0,39.9586186,-88.445067899,0,0.0,0.0,0.0,0.0,0.0,0.028969604500000003,0.0,0.0,0.0,0.0,0.0,0.0,0.0,1500,1500,0.0,0.0,40.0484808333,-88.2329961667,0.0,0.0,0.0,0.0,0.0,0.0,0.0,0.0,0.0,0.0,0.0,0,0.0,0.0,0.0301651731,0.0277740341,90.0,60.0,60.0,90.6546554565,119.939163208,120.8940887451,50.2870025635,15.542590141300002,61.5299987793,0,2,25,1,41,5618
1,1530636065112,754112, RC,0,39.9586186,-88.445067899,0,0.0,0.0,0.0,0.0,0.0,0.0235435516,0.0,0.0,0.0,0.0,0.0,0.0,0.0,1500,1500,0.0,0.0,40.0484808333,-88.2329961667,0.0,0.0,0.0,0.0,0.0,0.0,0.0,0.0,0.0,0.0,0.0,0,0.0,0.0,0.024463221400000002,0.0226238817,90.0,60.0,60.0,90.6546554565,119.939163208,120.83042907709999,50.8259963989,15.542590141300002,61.5299987793,0,2,25,1,46,5619
2,1530636065162,754162, RC,0,39.9586186,-88.445067899,0,0.0,0.0,0.0,0.0,0.0,0.0178415962,0.0,0.0,0.0,0.0,0.0,0.0,0.0,1500,1500,0.0,0.0,40.0484808333,-88.2329961667,0.0,0.0,0.0,0.0,0.0,0.0,0.0,0.0,0.0,0.0,0.0,0,0.0,0.0,0.0185773335,0.0171058606,90.0,60.0,60.0,90.6546554565,119.939163208,119.939163208,50.8259963989,15.542590141300002,61.5299987793,0,2,25,1,55,5621
3,1530636065213,754213, RC,0,39.9586186,-88.445067899,0,0.0,0.0,0.0,0.0,0.0,0.0147147197,0.0,0.0,0.0,0.0,0.0,0.0,0.0,1500,1500,0.0,0.0,40.0484808333,-88.2329961667,0.0,0.0,0.0,0.0,0.0,0.0,0.0,0.0,0.0,0.0,0.0,0,0.0,0.0,0.0152665218,0.0141629167,90.0,60.0,60.0,90.6546554565,119.939163208,120.00283050540001,50.8259963989,15.542590141300002,61.5299987793,0,2,25,1,65,5622
4,1530636065263,754263, RC,0,39.9586186,-88.445067899,0,0.0,0.0,0.0,0.0,0.0,0.0110360393,0.0,0.0,0.0,0.0,0.0,0.0,0.0,1500,1500,0.0,0.0,40.0484788333,-88.2330028333,0.0,0.0,0.0,0.0,0.0,0.0,0.0,0.0,0.0,0.0,0.0,0,0.0,0.0,0.0114039071,0.0106681716,90.0,60.0,60.0,90.6546554565,119.939163208,120.0664901733,50.8259963989,15.542590141300002,61.5299987793,0,2,25,1,46,5624
5,1530636065313,754313, RC,0,39.9586186,-88.445067899,0,0.0,0.0,0.0,0.0,0.0,0.0091966996,0.0,0.0,0.0,0.0,0.0,0.0,0.0,1500,1500,0.0,0.0,40.0484788333,-88.2330028333,0.0,0.0,0.0,0.0,0.0,0.0,0.0,0.0,0.0,0.0,0.0,0,0.0,0.0,0.0095645674,0.0088288318,90.0,60.0,60.0,90.6546554565,120.00283050540001,120.13014221190001,50.8259963989,15.542590141300002,61.5299987793,0,2,25,1,36,5625
6,1530636065364,754364, RC,0,39.9586186,-88.445067899,0,0.0,0.0,0.0,0.0,0.0,0.0068975249,0.0,0.0,0.0,0.0,0.0,0.0,0.0,1500,1500,0.0,0.0,40.0484788333,-88.2330028333,0.0,0.0,0.0,0.0,0.0,0.0,0.0,0.0,0.0,0.0,0.0,0,0.0,0.0,0.007173426,0.006621623399999999,90.0,60.0,60.0,90.6546554565,120.00283050540001,120.19381713870001,50.8259963989,15.542590141300002,61.5299987793,0,2,25,1,43,5627
7,1530636065414,754414, RC,0,39.9586186,-88.445067899,0,0.0,0.0,0.0,0.0,0.0,0.0057019535,0.0,0.0,0.0,0.0,0.0,0.0,0.0,1500,1500,0.0,0.0,40.0484788333,-88.2330028333,0.0,0.0,0.0,0.0,0.0,0.0,0.0,0.0,0.0,0.0,0.0,0,0.0,0.0,0.0058858879,0.0055180197,90.0,60.0,60.0,90.6546554565,120.00283050540001,120.2574768066,50.8259963989,15.542590141300002,61.5299987793,0,2,25,1,51,5629
8,1530636065464,754464, RC,0,39.9586186,-88.445067899,0,0.0,0.0,0.0,0.0,0.0,0.0042304816,0.0,0.0,0.0,0.0,0.0,0.0,0.0,1500,1500,0.0,0.0,40.0484788333,-88.2330028333,0.0,0.0,0.0,0.0,0.0,0.0,0.0,0.0,0.0,0.0,0.0,0,0.0,0.0,0.0044144159,0.0040465477,90.0,60.0,60.0,90.6546554565,120.00283050540001,120.32112884520001,50.8259963989,15.542590141300002,61.5299987793,0,2,25,1,44,5631
9,1530636065515,754515, RC,0,39.9586186,-88.445067899,0,0.0,0.0,0.0,0.0,0.0,0.0034947456,0.0,0.0,0.0,0.0,0.0,0.0,0.0,1500,1500,0.0,0.0,40.0484788333,-88.2330028333,0.0,0.0,0.0,0.0,0.0,0.0,0.0,0.0,0.0,0.0,0.0,0,0.0,0.0,0.0036786796999999996,0.0033108116999999997,90.0,60.0,60.0,90.6546554565,120.00283050540001,120.32112884520001,50.8259963989,15.542590141300002,61.5299987793,0,2,25,1,39,5632
10,1530636065565,754565, RC,0,39.9586186,-88.445067899,0,0.0,0.0,0.0,0.0,0.0,0.0029429439000000003,0.0,0.0,0.0,0.0,0.0,0.0,0.0,1500,1500,0.0,0.0,40.0484788333,-88.2330028333,0.0,0.0,0.0,0.0,0.0,0.0,0.0,0.0,0.0,0.0,0.0,0,0.0,0.0,0.0031268778000000004,0.0027590097999999996,90.0,60.0,60.0,90.6546554565,120.00283050540001,120.38480377200001,50.8259963989,15.542590141300002,61.5299987793,0,2,25,1,48,5634
11,1530636065615,754615, RC,0,39.9586186,-88.445067899,0,0.0,0.0,0.0,0.0,0.0,0.0021152408,0.0,0.0,0.0,0.0,0.0,0.0,0.0,1500,1500,0.0,0.0,40.0484788333,-88.2330028333,0.0,0.0,0.0,0.0,0.0,0.0,0.0,0.0,0.0,0.0,0.0,0,0.0,0.0,0.002207208,0.0020232738,90.0,60.0,60.0,90.6546554565,120.00283050540001,120.38480377200001,50.8259963989,15.549095153800002,3.5099999905000003,0,2,25,1,49,5635
12,1530636065666,754666, RC,0,39.9586186,-88.445067899,0,0.0,0.0,0.0,0.0,0.0,0.0015634389000000002,0.0,0.0,0.0,0.0,0.0,0.0,0.0,1500,1500,0.0,0.0,40.0484788333,-88.2330028333,0.0,0.0,0.0,0.0,0.0,0.0,0.0,0.0,0.0,0.0,0.0,0,0.0,0.0,0.0016554058999999999,0.0014714720000000001,90.0,60.0,60.0,90.6546554565,120.00283050540001,120.4484634399,50.8259963989,15.549095153800002,3.5099999905000003,0,2,25,1,46,5637
13,1530636065716,754716, RC,0,39.9586186,-88.445067899,0,0.0,0.0,0.0,0.0,0.0,0.001287538,0.0,0.0,0.0,0.0,0.0,0.0,0.0,1500,1500,0.0,0.0,40.0484788333,-88.2330028333,0.0,0.0,0.0,0.0,0.0,0.0,0.0,0.0,0.0,0.0,0.0,0,0.0,0.0,0.001287538,0.001287538,90.0,60.0,60.0,90.6546554565,120.00283050540001,120.51211547850001,50.8259963989,15.549095153800002,3.5099999905000003,0,2,25,1,45,5639
14,1530636065766,754766, RC,0,39.9586186,-88.445067899,0,0.0,0.0,0.0,0.0,0.0,0.0010116369,0.0,0.0,0.0,0.0,0.0,0.0,0.0,1500,1500,0.0,0.0,40.0484788333,-88.2330028333,0.0,0.0,0.0,0.0,0.0,0.0,0.0,0.0,0.0,0.0,0.0,0,0.0,0.0,0.001103604,0.0009196699,90.0,60.0,60.0,90.6546554565,120.00283050540001,120.51211547850001,50.8259963989,15.549095153800002,3.5099999905000003,0,2,25,1,43,5641
15,1530636065817,754817, RC,0,39.9586186,-88.445067899,0,0.0,0.0,0.0,0.0,0.0,0.0008277028999999999,0.0,0.0,0.0,0.0,0.0,0.0,0.0,1500,1500,0.0,0.0,40.0484788333,-88.2330028333,0.0,0.0,0.0,0.0,0.0,0.0,0.0,0.0,0.0,0.0,0.0,0,0.0,0.0,0.0009196699,0.0007357360000000001,90.0,60.0,60.0,90.6546554565,120.00283050540001,120.51211547850001,50.8259963989,15.549095153800002,3.5099999905000003,0,2,25,1,40,5642
16,1530636065867,754867, RC,0,39.9586186,-88.445067899,0,0.0,0.0,0.0,0.0,0.0,0.000551802,0.0,0.0,0.0,0.0,0.0,0.0,0.0,1500,1500,0.0,0.0,40.0484788333,-88.2330028333,0.0,0.0,0.0,0.0,0.0,0.0,0.0,0.0,0.0,0.0,0.0,0,0.0,0.0,0.000551802,0.000551802,90.0,60.0,60.0,90.6546554565,120.0664901733,120.57579040530001,50.8259963989,15.549095153800002,3.5099999905000003,0,2,25,1,55,5644
17,1530636065917,754917, RC,0,39.9586186,-88.445067899,0,0.0,0.0,0.0,0.0,0.0,0.000459835,0.0,0.0,0.0,0.0,0.0,0.0,0.0,1500,1500,0.0,0.0,40.0484788333,-88.2330028333,0.0,0.0,0.0,0.0,0.0,0.0,0.0,0.0,0.0,0.0,0.0,0,0.0,0.0,0.000551802,0.00036786800000000004,90.0,60.0,60.0,90.6546554565,120.0664901733,120.57579040530001,50.8259963989,15.549095153800002,3.5099999905000003,0,2,25,1,45,5646
18,1530636065968,754968, RC,0,39.9586186,-88.445067899,0,0.0,0.0,0.0,0.0,0.0,0.00036786800000000004,0.0,0.0,0.0,0.0,0.0,0.0,0.0,1500,1500,0.0,0.0,40.0484788333,-88.2330028333,0.0,0.0,0.0,0.0,0.0,0.0,0.0,0.0,0.0,0.0,0.0,0,0.0,0.0,0.00036786800000000004,0.00036786800000000004,90.0,60.0,60.0,90.6546554565,120.0664901733,120.6394424438,50.8259963989,15.549095153800002,3.5099999905000003,0,2,25,1,34,5647
19,1530636066018,755018, RC,0,39.9586186,-88.445067899,0,0.0,0.0,0.0,0.0,0.0,0.00018393400000000002,0.0,0.0,0.0,0.0,0.0,0.0,0.0,1500,1500,0.0,0.0,40.0484788333,-88.2330028333,0.0,0.0,0.0,0.0,0.0,0.0,0.0,0.0,0.0,0.0,0.0,0,0.0,0.0,0.00018393400000000002,0.00018393400000000002,90.0,60.0,60.0,90.6546554565,120.0664901733,120.6394424438,50.8259963989,15.549095153800002,3.5099999905000003,0,2,25,1,32,5649
20,1530636066069,755069, RC,0,39.9586186,-88.445067899,0,0.0,0.0,0.0,0.0,0.0,0.00018393400000000002,0.0,0.0,0.0,0.0,0.0,0.0,0.0,1500,1500,0.0,0.0,40.0484788333,-88.2330028333,0.0,0.0,0.0,0.0,0.0,0.0,0.0,0.0,0.0,0.0,0.0,0,0.0,0.0,0.00018393400000000002,0.00018393400000000002,90.0,60.0,60.0,90.6546554565,120.0664901733,120.6394424438,50.8259963989,15.549095153800002,3.5099999905000003,0,2,25,1,40,5651
21,1530636066119,755119, RC,0,39.9586186,-88.445067899,0,0.0,0.0,0.0,0.0,0.0,0.00018393400000000002,0.0,0.0,0.0,0.0,0.0,0.0,0.0,1500,1500,0.0,0.0,40.0484788333,-88.2330028333,0.0,0.0,0.0,0.0,0.0,0.0,0.0,0.0,0.0,0.0,0.0,0,0.0,0.0,0.00018393400000000002,0.00018393400000000002,90.0,60.0,60.0,90.6546554565,120.0664901733,120.7031021118,50.8259963989,15.549095153800002,3.5099999905000003,0,2,25,1,52,5653
22,1530636066169,755169, RC,0,39.9586186,-88.445067899,0,0.0,0.0,0.0,0.0,0.0,0.00018393400000000002,0.0,0.0,0.0,0.0,0.0,0.0,0.0,1500,1500,0.0,0.0,40.0484788333,-88.2330028333,0.0,0.0,0.0,0.0,0.0,0.0,0.0,0.0,0.0,0.0,0.0,0,0.0,0.0,0.00018393400000000002,0.00018393400000000002,90.0,60.0,60.0,90.6546554565,120.0664901733,120.7031021118,50.8259963989,15.549095153800002,3.5099999905000003,0,2,25,1,45,5654
23,1530636066220,755220, RC,0,39.9586186,-88.445067899,0,0.0,0.0,0.0,0.0,0.0,9.196700000000001e-05,0.0,0.0,0.0,0.0,0.0,0.0,0.0,1500,1500,0.0,0.0,40.0484788333,-88.2330028333,0.0,0.0,0.0,0.0,0.0,0.0,0.0,0.0,0.0,0.0,0.0,0,0.0,0.0,0.00018393400000000002,0.0,90.0,60.0,60.0,90.6546554565,120.0664901733,120.7031021118,50.8259963989,15.549095153800002,3.5099999905000003,0,2,25,1,48,5656
24,1530636066270,755270, RC,0,39.9586186,-88.445067899,0,0.0,0.0,0.0,0.0,0.0,0.0,0.0,0.0,0.0,0.0,0.0,0.0,0.0,1500,1500,0.0,0.0,40.0484721667,-88.2330035,0.0,0.0,0.0,0.0,0.0,0.0,0.0,0.0,0.0,0.0,0.0,0,0.0,0.0,0.0,0.0,90.0,60.0,60.0,90.6546554565,120.0664901733,120.76677703860001,50.8259963989,15.549095153800002,3.5099999905000003,0,2,25,1,51,5658
25,1530636066320,755320, RC,0,39.9586186,-88.445067899,0,0.0,0.0,0.0,0.0,0.0,0.0,0.0,0.0,0.0,0.0,0.0,0.0,0.0,1500,1500,0.0,0.0,40.0484721667,-88.2330035,0.0,0.0,0.0,0.0,0.0,0.0,0.0,0.0,0.0,0.0,0.0,0,0.0,0.0,0.0,0.0,90.0,60.0,60.0,90.6546554565,120.0664901733,120.76677703860001,50.8259963989,15.549095153800002,3.5099999905000003,0,2,25,1,48,5659
26,1530636066371,755371, RC,0,39.9586186,-88.445067899,0,0.0,0.0,0.0,0.0,0.0,0.0,0.0,0.0,0.0,0.0,0.0,0.0,0.0,1500,1500,0.0,0.0,40.0484721667,-88.2330035,0.0,0.0,0.0,0.0,0.0,0.0,0.0,0.0,0.0,0.0,0.0,0,0.0,0.0,0.0,0.0,90.0,60.0,60.0,90.6546554565,120.0664901733,120.76677703860001,50.8259963989,15.549095153800002,3.5099999905000003,0,2,25,1,52,5661
27,1530636066421,755421, RC,0,39.9586186,-88.445067899,0,0.0,0.0,0.0,0.0,0.0,0.0,0.0,0.0,0.0,0.0,0.0,0.0,0.0,1500,1500,0.0,0.0,40.0484721667,-88.2330035,0.0,0.0,0.0,0.0,0.0,0.0,0.0,0.0,0.0,0.0,0.0,0,0.0,0.0,0.0,0.0,90.0,60.0,60.0,90.6546554565,120.0664901733,120.76677703860001,50.8259963989,15.549095153800002,3.5099999905000003,0,2,25,1,42,5662
28,1530636066471,755471, RC,0,39.9586186,-88.445067899,0,0.0,0.0,0.0,0.0,0.0,0.0,0.0,0.0,0.0,0.0,0.0,0.0,0.0,1500,1500,0.0,0.0,40.0484721667,-88.2330035,0.0,0.0,0.0,0.0,0.0,0.0,0.0,0.0,0.0,0.0,0.0,0,0.0,0.0,0.0,0.0,90.0,60.0,60.0,90.6546554565,120.0664901733,120.83042907709999,50.8259963989,15.549095153800002,3.5099999905000003,0,2,25,1,43,5664
29,1530636066522,755522, RC,0,39.9586186,-88.445067899,0,0.0,0.0,0.0,0.0,0.0,0.0,0.0,0.0,0.0,0.0,0.0,0.0,0.0,1500,1500,0.0,0.0,40.0484721667,-88.2330035,0.0,0.0,0.0,0.0,0.0,0.0,0.0,0.0,0.0,0.0,0.0,0,0.0,0.0,0.0,0.0,90.0,60.0,60.0,90.6546554565,120.0664901733,120.83042907709999,50.8259963989,15.549095153800002,3.5099999905000003,0,2,25,1,33,5666
30,1530636066572,755572, RC,0,39.9586186,-88.445067899,0,0.0,0.0,0.0,0.0,0.0,0.0,0.0,0.0,0.0,0.0,0.0,0.0,0.0,1500,1500,0.0,0.0,40.0484721667,-88.2330035,0.0,0.0,0.0,0.0,0.0,0.0,0.0,0.0,0.0,0.0,0.0,0,0.0,0.0,0.0,0.0,90.0,60.0,60.0,90.6546554565,120.0664901733,119.0479049683,50.8259963989,15.549095153800002,3.5099999905000003,0,2,25,1,46,5668
31,1530636066622,755622, RC,0,39.9586186,-88.445067899,0,0.0,0.0,0.0,0.0,0.0,0.0,0.0,0.0,0.0,0.0,0.0,0.0,0.0,1500,1500,0.0,0.0,40.0484721667,-88.2330035,0.0,0.0,0.0,0.0,0.0,0.0,0.0,0.0,0.0,0.0,0.0,0,0.0,0.0,0.0,0.0,90.0,60.0,60.0,90.6546554565,120.0664901733,118.2839584351,50.8259963989,15.5521221161,3.6800000668,0,2,25,1,59,5669
32,1530636066673,755673, RC,0,39.9586186,-88.445067899,0,0.0,0.0,0.0,0.0,0.0,0.0,0.0,0.0,0.0,0.0,0.0,0.0,0.0,1500,1500,0.0,0.0,40.0484721667,-88.2330035,0.0,0.0,0.0,0.0,0.0,0.0,0.0,0.0,0.0,0.0,0.0,0,0.0,0.0,0.0,0.0,90.0,60.0,60.0,90.6546554565,120.0664901733,118.34761810299999,50.8259963989,15.5521221161,3.6800000668,0,2,25,1,36,5671
33,1530636066723,755723, RC,0,39.9586186,-88.445067899,0,0.0,0.0,0.0,0.0,0.0,0.0,0.0,0.0,0.0,0.0,0.0,0.0,0.0,1500,1500,0.0,0.0,40.0484721667,-88.2330035,0.0,0.0,0.0,0.0,0.0,0.0,0.0,0.0,0.0,0.0,0.0,0,0.0,0.0,0.0,0.0,90.0,60.0,60.0,90.6546554565,120.0664901733,118.4749450684,50.8259963989,15.5521221161,3.6800000668,0,2,25,1,46,5673
34,1530636066774,755774, RC,0,39.9586186,-88.445067899,0,0.0,0.0,0.0,0.0,0.0,0.0,0.0,0.0,0.0,0.0,0.0,0.0,0.0,1500,1500,0.0,0.0,40.0484721667,-88.2330035,0.0,0.0,0.0,0.0,0.0,0.0,0.0,0.0,0.0,0.0,0.0,0,0.0,0.0,0.0,0.0,90.0,60.0,60.0,90.6546554565,120.0664901733,118.53860473629999,50.8259963989,15.5521221161,3.6800000668,0,2,25,1,41,5674
35,1530636066824,755824, RC,0,39.9586186,-88.445067899,0,0.0,0.0,0.0,0.0,0.0,0.0,0.0,0.0,0.0,0.0,0.0,0.0,0.0,1500,1500,0.0,0.0,40.0484721667,-88.2330035,0.0,0.0,0.0,0.0,0.0,0.0,0.0,0.0,0.0,0.0,0.0,0,0.0,0.0,0.0,0.0,90.0,60.0,60.0,90.6546554565,120.0664901733,118.53860473629999,50.8259963989,15.5521221161,3.6800000668,0,2,25,1,41,5676
36,1530636066874,755874, RC,0,39.9586186,-88.445067899,0,0.0,0.0,0.0,0.0,0.0,0.0,0.0,0.0,0.0,0.0,0.0,0.0,0.0,1500,1500,0.0,0.0,40.0484721667,-88.2330035,0.0,0.0,0.0,0.0,0.0,0.0,0.0,0.0,0.0,0.0,0.0,0,0.0,0.0,0.0,0.0,90.0,60.0,60.0,90.6546554565,120.0664901733,118.6022567749,50.8259963989,15.5521221161,3.6800000668,0,2,25,1,54,5678
37,1530636066925,755925, RC,0,39.9586186,-88.445067899,0,0.0,0.0,0.0,0.0,0.0,0.0,0.0,0.0,0.0,0.0,0.0,0.0,0.0,1500,1500,0.0,0.0,40.0484721667,-88.2330035,0.0,0.0,0.0,0.0,0.0,0.0,0.0,0.0,0.0,0.0,0.0,0,0.0,0.0,0.0,0.0,90.0,60.0,60.0,90.6546554565,120.0664901733,118.6022567749,50.8259963989,15.5521221161,3.6800000668,0,2,25,1,48,5679
38,1530636066975,755975, RC,0,39.9586186,-88.445067899,0,0.0,0.0,0.0,0.0,0.0,0.0,0.0,0.0,0.0,0.0,0.0,0.0,0.0,1500,1500,0.0,0.0,40.0484721667,-88.2330035,0.0,0.0,0.0,0.0,0.0,0.0,0.0,0.0,0.0,0.0,0.0,0,0.0,0.0,0.0,0.0,90.0,60.0,60.0,90.6546554565,120.0664901733,118.6659317017,50.8259963989,15.5521221161,3.6800000668,0,2,25,1,52,5681
39,1530636067025,756025, RC,0,39.9586186,-88.445067899,0,0.0,0.0,0.0,0.0,0.0,0.0,0.0,0.0,0.0,0.0,0.0,0.0,0.0,1500,1500,0.0,0.0,40.0484721667,-88.2330035,0.0,0.0,0.0,0.0,0.0,0.0,0.0,0.0,0.0,0.0,0.0,0,0.0,0.0,0.0,0.0,90.0,60.0,60.0,90.6546554565,120.0664901733,118.9842300415,50.8259963989,15.5521221161,3.6800000668,0,2,25,1,52,5683
40,1530636067076,756076, RC,0,39.9586186,-88.445067899,0,0.0,0.0,0.0,0.0,0.0,0.0,0.0,0.0,0.0,0.0,0.0,0.0,0.0,1500,1500,0.0,0.0,40.0484721667,-88.2330035,0.0,0.0,0.0,0.0,0.0,0.0,0.0,0.0,0.0,0.0,0.0,0,0.0,0.0,0.0,0.0,90.0,60.0,60.0,90.6546554565,120.0664901733,119.2388916016,50.8259963989,15.5521221161,3.6800000668,0,2,25,1,45,5685
41,1530636067126,756126, RC,0,39.9586186,-88.445067899,0,0.0,0.0,0.0,0.0,0.0,0.0,0.0,0.0,0.0,0.0,0.0,0.0,0.0,1500,1500,0.0,0.0,40.0484721667,-88.2330035,0.0,0.0,0.0,0.0,0.0,0.0,0.0,0.0,0.0,0.0,0.0,0,0.0,0.0,0.0,0.0,90.0,60.0,60.0,90.6546554565,120.0664901733,119.2388916016,50.8259963989,15.5521221161,3.6800000668,0,2,25,1,52,5686
42,1530636067177,756177, RC,0,39.9586186,-88.445067899,0,0.0,0.0,0.0,0.0,0.0,0.0,0.0,0.0,0.0,0.0,0.0,0.0,0.0,1500,1500,0.0,0.0,40.0484721667,-88.2330035,0.0,0.0,0.0,0.0,0.0,0.0,0.0,0.0,0.0,0.0,0.0,0,0.0,0.0,0.0,0.0,90.0,60.0,60.0,90.6546554565,120.0664901733,119.2388916016,50.8259963989,15.5521221161,3.6800000668,0,2,25,1,45,5688
43,1530636067227,756227, RC,0,39.9586186,-88.445067899,0,0.0,0.0,0.0,0.0,0.0,0.0,0.0,0.0,0.0,0.0,0.0,0.0,0.0,1500,1500,0.0,0.0,40.0484721667,-88.2330035,0.0,0.0,0.0,0.0,0.0,0.0,0.0,0.0,0.0,0.0,0.0,0,0.0,0.0,0.0,0.0,90.0,60.0,60.0,90.6546554565,120.0664901733,119.2388916016,50.8259963989,15.5521221161,3.6800000668,0,2,25,1,46,5690
44,1530636067277,756277, RC,0,39.9586186,-88.445067899,0,0.0,0.0,0.0,0.0,0.0,0.0,0.0,0.0,0.0,0.0,0.0,0.0,0.0,1500,1500,0.0,0.0,40.0484676667,-88.232995,0.0,0.0,0.0,0.0,0.0,0.0,0.0,0.0,0.0,0.0,0.0,0,0.0,0.0,0.0,0.0,90.0,60.0,60.0,90.6546554565,120.0664901733,119.2388916016,50.8259963989,15.5521221161,3.6800000668,0,2,25,1,44,5691
45,1530636067328,756328, RC,0,39.9586186,-88.445067899,0,0.0,0.0,0.0,0.0,0.0,0.0,0.0,0.0,0.0,0.0,0.0,0.0,0.0,1500,1500,0.0,0.0,40.0484676667,-88.232995,0.0,0.0,0.0,0.0,0.0,0.0,0.0,0.0,0.0,0.0,0.0,0,0.0,0.0,0.0,0.0,90.0,60.0,60.0,90.6546554565,120.0664901733,119.2388916016,50.8259963989,15.5521221161,3.6800000668,0,2,25,1,50,5693
46,1530636067378,756378, RC,0,39.9586186,-88.445067899,0,0.0,0.0,0.0,0.0,0.0,0.0,0.0,0.0,0.0,0.0,0.0,0.0,0.0,1500,1500,0.0,0.0,40.0484676667,-88.232995,0.0,0.0,0.0,0.0,0.0,0.0,0.0,0.0,0.0,0.0,0.0,0,0.0,0.0,0.0,0.0,90.0,60.0,60.0,90.6546554565,120.0664901733,119.2388916016,50.8259963989,15.5521221161,3.6800000668,0,2,25,1,56,5695
47,1530636067428,756428, RC,0,39.9586186,-88.445067899,0,0.0,0.0,0.0,0.0,0.0,0.0,0.0,0.0,0.0,0.0,0.0,0.0,0.0,1500,1500,0.0,0.0,40.0484676667,-88.232995,0.0,0.0,0.0,0.0,0.0,0.0,0.0,0.0,0.0,0.0,0.0,0,0.0,0.0,0.0,0.0,90.0,60.0,60.0,90.6546554565,120.0664901733,119.2388916016,50.8259963989,15.5521221161,3.6800000668,0,2,25,1,45,5696
48,1530636067479,756479, RC,0,39.9586186,-88.445067899,0,0.0,0.0,0.0,0.0,0.0,0.0,0.0,0.0,0.0,0.0,0.0,0.0,0.0,1500,1500,0.0,0.0,40.0484676667,-88.232995,0.0,0.0,0.0,0.0,0.0,0.0,0.0,0.0,0.0,0.0,0.0,0,0.0,0.0,0.0,0.0,90.0,60.0,60.0,90.6546554565,120.0664901733,119.2388916016,50.8259963989,15.5521221161,3.6800000668,0,2,25,1,57,5698
49,1530636067529,756529, RC,0,39.9586186,-88.445067899,0,0.0,0.0,0.0,0.0,0.0,0.0,0.0,0.0,0.0,0.0,0.0,0.0,0.0,1500,1500,0.0,0.0,40.0484676667,-88.232995,0.0,0.0,0.0,0.0,0.0,0.0,0.0,0.0,0.0,0.0,0.0,0,0.0,0.0,0.0,0.0,90.0,60.0,60.0,90.6546554565,120.0664901733,119.2388916016,50.8259963989,15.5521221161,3.6800000668,0,2,25,1,43,5700
50,1530636067579,756579, RC,0,39.9586186,-88.445067899,0,0.0,0.0,0.0,0.0,0.0,0.0,0.0,0.0,0.0,0.0,0.0,0.0,0.0,1500,1500,0.0,0.0,40.0484676667,-88.232995,0.0,0.0,0.0,0.0,0.0,0.0,0.0,0.0,0.0,0.0,0.0,0,0.0,0.0,0.0,0.0,90.0,60.0,60.0,90.6546554565,120.0664901733,119.2388916016,50.8259963989,15.5521221161,3.6800000668,0,2,25,1,46,5701
51,1530636067630,756630, RC,0,39.9586186,-88.445067899,0,0.0,0.0,0.0,0.0,0.0,0.0,0.0,0.0,0.0,0.0,0.0,0.0,0.0,1500,1500,0.0,0.0,40.0484676667,-88.232995,0.0,0.0,0.0,0.0,0.0,0.0,0.0,0.0,0.0,0.0,0.0,0,0.0,0.0,0.0,0.0,90.0,60.0,60.0,90.6546554565,120.0664901733,119.2388916016,50.8259963989,15.5568408966,3.4500000476999997,0,2,25,1,48,5703
52,1530636067680,756680, RC,0,39.9586186,-88.445067899,0,0.0,0.0,0.0,0.0,0.0,0.0,0.0,0.0,0.0,0.0,0.0,0.0,0.0,1500,1500,0.0,0.0,40.0484676667,-88.232995,0.0,0.0,0.0,0.0,0.0,0.0,0.0,0.0,0.0,0.0,0.0,0,0.0,0.0,0.0,0.0,90.0,60.0,60.0,90.7183227539,120.0664901733,119.2388916016,50.8259963989,15.5568408966,3.4500000476999997,0,2,25,1,44,5705
53,1530636067730,756730, RC,0,39.9586186,-88.445067899,0,0.0,0.0,0.0,0.0,0.0,0.0,0.0,0.0,0.0,0.0,0.0,0.0,0.0,1500,1500,0.0,0.0,40.0484676667,-88.232995,0.0,0.0,0.0,0.0,0.0,0.0,0.0,0.0,0.0,0.0,0.0,0,0.0,0.0,0.0,0.0,90.0,60.0,60.0,90.7183227539,120.0664901733,119.2388916016,50.8259963989,15.5568408966,3.4500000476999997,0,2,25,1,44,5707
54,1530636067781,756781, RC,0,39.9586186,-88.445067899,0,0.0,0.0,0.0,0.0,0.0,0.0,0.0,0.0,0.0,0.0,0.0,0.0,0.0,1500,1500,0.0,0.0,40.0484676667,-88.232995,0.0,0.0,0.0,0.0,0.0,0.0,0.0,0.0,0.0,0.0,0.0,0,0.0,0.0,0.0,0.0,90.0,60.0,60.0,90.7183227539,120.0664901733,119.2388916016,50.8259963989,15.5568408966,3.4500000476999997,0,2,25,1,51,5708
55,1530636067831,756831, RC,0,39.9586186,-88.445067899,0,0.0,0.0,0.0,0.0,0.0,0.0,0.0,0.0,0.0,0.0,0.0,0.0,0.0,1500,1500,0.0,0.0,40.0484676667,-88.232995,0.0,0.0,0.0,0.0,0.0,0.0,0.0,0.0,0.0,0.0,0.0,0,0.0,0.0,0.0,0.0,90.0,60.0,60.0,90.6546554565,120.0664901733,119.2388916016,50.8259963989,15.5568408966,3.4500000476999997,0,2,25,1,53,5710
56,1530636067881,756881, RC,0,39.9586186,-88.445067899,0,0.0,0.0,0.0,0.0,0.0,0.0,0.0,0.0,0.0,0.0,0.0,0.0,0.0,1500,1500,0.0,0.0,40.0484676667,-88.232995,0.0,0.0,0.0,0.0,0.0,0.0,0.0,0.0,0.0,0.0,0.0,0,0.0,0.0,0.0,0.0,90.0,60.0,60.0,90.6546554565,120.0664901733,119.2388916016,50.8259963989,15.5568408966,3.4500000476999997,0,2,25,1,55,5711
57,1530636067932,756932, RC,0,39.9586186,-88.445067899,0,0.0,0.0,0.0,0.0,0.0,0.0,0.0,0.0,0.0,0.0,0.0,0.0,0.0,1500,1500,0.0,0.0,40.0484676667,-88.232995,0.0,0.0,0.0,0.0,0.0,0.0,0.0,0.0,0.0,0.0,0.0,0,0.0,0.0,0.0,0.0,90.0,60.0,60.0,90.6546554565,120.0664901733,119.2388916016,50.8259963989,15.5568408966,3.4500000476999997,0,2,25,1,31,5713
58,1530636067982,756982, RC,0,39.9586186,-88.445067899,0,0.0,0.0,0.0,0.0,0.0,0.0,0.0,0.0,0.0,0.0,0.0,0.0,0.0,1500,1500,0.0,0.0,40.0484676667,-88.232995,0.0,0.0,0.0,0.0,0.0,0.0,0.0,0.0,0.0,0.0,0.0,0,0.0,0.0,0.0,0.0,90.0,60.0,60.0,90.6546554565,120.0664901733,119.2388916016,50.8259963989,15.5568408966,3.4500000476999997,0,2,25,1,41,5715
59,1530636068033,757033, RC,0,39.9586186,-88.445067899,0,0.0,0.0,0.0,0.0,0.0,0.0,0.0,0.0,0.0,0.0,0.0,0.0,0.0,1500,1500,0.0,0.0,40.0484676667,-88.232995,0.0,0.0,0.0,0.0,0.0,0.0,0.0,0.0,0.0,0.0,0.0,0,0.0,0.0,0.0,0.0,90.0,60.0,60.0,90.6546554565,120.0664901733,119.2388916016,50.8259963989,15.5568408966,3.4500000476999997,0,2,25,1,65,5717
60,1530636068083,757083, RC,0,39.9586186,-88.445067899,0,0.0,0.0,0.0,0.0,0.0,0.0,0.0,0.0,0.0,0.0,0.0,0.0,0.0,1500,1500,0.0,0.0,40.0484676667,-88.232995,0.0,0.0,0.0,0.0,0.0,0.0,0.0,0.0,0.0,0.0,0.0,0,0.0,0.0,0.0,0.0,90.0,60.0,60.0,90.7183227539,120.00283050540001,119.3025436401,50.8259963989,15.5568408966,3.4500000476999997,0,2,25,1,59,5719
61,1530636068133,757133, RC,0,39.9586186,-88.445067899,0,0.0,0.0,0.0,0.0,0.0,0.0,0.0,0.0,0.0,0.0,0.0,0.0,0.0,1500,1500,0.0,0.0,40.0484676667,-88.232995,0.0,0.0,0.0,0.0,0.0,0.0,0.0,0.0,0.0,0.0,0.0,0,0.0,0.0,0.0,0.0,90.0,60.0,60.0,90.6546554565,120.00283050540001,119.3025436401,50.8259963989,15.5568408966,3.4500000476999997,0,2,25,1,75,5720
62,1530636068184,757184, RC,0,39.9586186,-88.445067899,0,0.0,0.0,0.0,0.0,0.0,0.0,0.0,0.0,0.0,0.0,0.0,0.0,0.0,1500,1500,0.0,0.0,40.0484676667,-88.232995,0.0,0.0,0.0,0.0,0.0,0.0,0.0,0.0,0.0,0.0,0.0,0,0.0,0.0,0.0,0.0,90.0,60.0,60.0,90.7183227539,120.00283050540001,119.3025436401,50.8259963989,15.5568408966,3.4500000476999997,0,2,25,1,69,5722
63,1530636068234,757234, RC,0,39.9586186,-88.445067899,0,0.0,0.0,0.0,0.0,0.0,0.0,0.0,0.0,0.0,0.0,0.0,0.0,0.0,1500,1500,0.0,0.0,40.0484676667,-88.232995,0.0,0.0,0.0,0.0,0.0,0.0,0.0,0.0,0.0,0.0,0.0,0,0.0,0.0,0.0,0.0,90.0,60.0,60.0,90.7183227539,120.00283050540001,119.3025436401,50.8259963989,15.5568408966,3.4500000476999997,0,2,25,1,161,5724
64,1530636068284,757284, RC,0,39.9586186,-88.445067899,0,0.0,0.0,0.0,0.0,0.0,0.0,0.0,0.0,0.0,0.0,0.0,0.0,0.0,1500,1500,0.0,0.0,40.0484688333,-88.23299,0.0,0.0,0.0,0.0,0.0,0.0,0.0,0.0,0.0,0.0,0.0,0,0.0,0.0,0.0,0.0,90.0,60.0,60.0,90.7183227539,120.00283050540001,119.3025436401,50.8259963989,15.5568408966,3.4500000476999997,0,2,25,1,119,5725
65,1530636068335,757335, RC,0,39.9586186,-88.445067899,0,0.0,0.0,0.0,0.0,0.0,0.0,0.0,0.0,0.0,0.0,0.0,0.0,0.0,1500,1500,0.0,0.0,40.0484688333,-88.23299,0.0,0.0,0.0,0.0,0.0,0.0,0.0,0.0,0.0,0.0,0.0,0,0.0,0.0,0.0,0.0,90.0,60.0,60.0,90.7183227539,120.00283050540001,119.3025436401,50.8259963989,15.5568408966,3.4500000476999997,0,2,25,1,96,5727
66,1530636068385,757385, RC,0,39.9586186,-88.445067899,0,0.0,0.0,0.0,0.0,0.0,0.0,0.0,0.0,0.0,0.0,0.0,0.0,0.0,1500,1500,0.0,0.0,40.0484688333,-88.23299,0.0,0.0,0.0,0.0,0.0,0.0,0.0,0.0,0.0,0.0,0.0,0,0.0,0.0,0.0,0.0,90.0,60.0,60.0,90.7183227539,120.00283050540001,119.3025436401,50.8259963989,15.5568408966,3.4500000476999997,0,2,25,1,116,5729
67,1530636068435,757435, RC,0,39.9586186,-88.445067899,0,0.0,0.0,0.0,0.0,0.0,0.0,0.0,0.0,0.0,0.0,0.0,0.0,0.0,1500,1500,0.0,0.0,40.0484688333,-88.23299,0.0,0.0,0.0,0.0,0.0,0.0,0.0,0.0,0.0,0.0,0.0,0,0.0,0.0,0.0,0.0,90.0,60.0,60.0,90.7183227539,120.00283050540001,119.3662033081,50.8259963989,15.5568408966,3.4500000476999997,0,2,25,1,100,5730
68,1530636068486,757486, RC,0,39.9586186,-88.445067899,0,0.0,0.0,0.0,0.0,0.0,0.0,0.0,0.0,0.0,0.0,0.0,0.0,0.0,1500,1500,0.0,0.0,40.0484688333,-88.23299,0.0,0.0,0.0,0.0,0.0,0.0,0.0,0.0,0.0,0.0,0.0,0,0.0,0.0,0.0,0.0,90.0,60.0,60.0,90.7183227539,120.00283050540001,119.3662033081,50.8259963989,15.5568408966,3.4500000476999997,0,2,25,1,76,5732
69,1530636068536,757536, RC,0,39.9586186,-88.445067899,0,0.0,0.0,0.0,0.0,0.0,0.0,0.0,0.0,0.0,0.0,0.0,0.0,0.0,1500,1500,0.0,0.0,40.0484688333,-88.23299,0.0,0.0,0.0,0.0,0.0,0.0,0.0,0.0,0.0,0.0,0.0,0,0.0,0.0,0.0,0.0,90.0,60.0,60.0,90.7183227539,120.00283050540001,119.3662033081,50.8259963989,15.5568408966,3.4500000476999997,0,2,25,1,96,5734
70,1530636068586,757586, RC,0,39.9586186,-88.445067899,0,0.0,0.0,0.0,0.0,0.0,0.0,0.0,0.0,0.0,0.0,0.0,0.0,0.0,1500,1500,0.0,0.0,40.0484688333,-88.23299,0.0,0.0,0.0,0.0,0.0,0.0,0.0,0.0,0.0,0.0,0.0,0,0.0,0.0,0.0,0.0,90.0,60.0,60.0,90.7183227539,120.00283050540001,119.3662033081,50.8259963989,15.5568408966,3.4500000476999997,0,2,25,1,73,5736
71,1530636068637,757637, RC,0,39.9586186,-88.445067899,0,0.0,0.0,0.0,0.0,0.0,0.0,0.0,0.0,0.0,0.0,0.0,0.0,0.0,1500,1500,0.0,0.0,40.0484688333,-88.23299,0.0,0.0,0.0,0.0,0.0,0.0,0.0,0.0,0.0,0.0,0.0,0,0.0,0.0,0.0,0.0,90.0,60.0,60.0,90.7183227539,120.00283050540001,119.3662033081,50.8259963989,15.5721845627,3.0799999237,0,2,25,1,131,5738
72,1530636068687,757687, RC,0,39.9586186,-88.445067899,0,0.0,0.0,0.0,0.0,0.0,9.196700000000001e-05,0.0,0.0,0.0,0.0,0.0,0.0,0.0,1500,1500,0.0,0.0,40.0484688333,-88.23299,0.0,0.0,0.0,0.0,0.0,0.0,0.0,0.0,0.0,0.0,0.0,0,0.0,0.0,0.0,0.00018393400000000002,90.0,60.0,60.0,90.7819747925,120.2574768066,119.3025436401,50.8259963989,15.5721845627,3.0799999237,0,2,25,1,125,5739
73,1530636068737,757737, RC,0,39.9586186,-88.445067899,0,0.0,0.0,0.0,0.0,0.0,0.002207208,0.0,0.0,0.0,0.0,0.0,0.0,0.0,1500,1500,0.0,0.0,40.0484688333,-88.23299,0.0,0.0,0.0,0.0,0.0,0.0,0.0,0.0,0.0,0.0,0.0,0,0.0,0.0,0.0,0.0044144159,90.0,60.0,60.0,90.7819747925,120.9577560425,118.6022567749,50.8259963989,15.5721845627,3.0799999237,0,2,25,1,102,5741
74,1530636068788,757788, RC,0,39.9586186,-88.445067899,0,0.0,0.0,0.0,0.0,0.0,0.0041385144,0.0,0.0,0.0,0.0,0.0,0.0,0.0,1500,1500,0.0,0.0,40.0484688333,-88.23299,0.0,0.0,0.0,0.0,0.0,0.0,0.0,0.0,0.0,0.0,0.0,0,0.0,0.0,0.0007357360000000001,0.0075412933,90.0,60.0,60.0,90.6546554565,121.91268920899999,117.58367156979999,50.8259963989,15.5721845627,3.0799999237,0,2,25,1,124,5743
75,1530636068839,757839, RC,0,39.9586186,-88.445067899,0,0.0,0.0,0.0,0.0,0.0,0.005426053,0.0,0.0,0.0,0.0,0.0,0.0,0.0,1500,1500,0.0,0.0,40.0484688333,-88.23299,0.0,0.0,0.0,0.0,0.0,0.0,0.0,0.0,0.0,0.0,0.0,0,0.0,0.0,0.0031268778000000004,0.0077252276000000005,90.0,60.0,60.0,91.29127502440001,119.7481765747,120.2574768066,50.8259963989,15.5721845627,3.0799999237,0,2,25,1,170,5745
76,1530636068890,757890, RC,0,39.9586186,-88.445067899,0,0.0,0.0,0.0,0.0,0.0,0.0045983498,0.0,0.0,0.0,0.0,0.0,0.0,0.0,1500,1500,0.0,0.0,40.0484688333,-88.23299,0.0,0.0,0.0,0.0,0.0,0.0,0.0,0.0,0.0,0.0,0.0,0,0.0,0.0,0.0029429439000000003,0.0062537556999999995,90.0,60.0,60.0,91.73690795899999,119.4935302734,121.2760620117,50.8259963989,15.5721845627,3.0799999237,0,2,25,1,119,5746
77,1530636068941,757941, RC,0,39.9586186,-88.445067899,0,0.0,0.0,0.0,0.0,0.0,0.0036786799,0.0,0.0,0.0,0.0,0.0,0.0,0.0,1500,1500,0.0,0.0,40.0484688333,-88.23299,0.0,0.0,0.0,0.0,0.0,0.0,0.0,0.0,0.0,0.0,0.0,0,0.0,0.0,0.002575076,0.0047822837,90.0,60.0,60.0,93.1374740601,118.15663146969999,123.0586013794,50.8259963989,15.5721845627,3.0799999237,0,2,25,1,88,5748
78,1530636068992,757992, RC,0,39.9586186,-88.445067899,0,0.0,0.0,0.0,0.0,0.0,0.0028509768,0.0,0.0,0.0,0.0,0.0,0.0,0.0,1500,1500,0.0,0.0,40.0484688333,-88.23299,0.0,0.0,0.0,0.0,0.0,0.0,0.0,0.0,0.0,0.0,0.0,0,0.0,0.0,0.0018393398,0.0038626138000000003,90.0,60.0,60.0,93.2648010254,117.96564483639999,124.26817321780001,50.8259963989,15.5721845627,3.0799999237,0,2,25,1,96,5750
79,1530636069043,758043, RC,0,39.9586186,-88.445067899,0,0.0,0.0,0.0,0.0,0.0,0.002115241,0.0,0.0,0.0,0.0,0.0,0.0,0.0,1500,1500,0.0,0.0,40.0484688333,-88.23299,0.0,0.0,0.0,0.0,0.0,0.0,0.0,0.0,0.0,0.0,0.0,0,0.0,0.0,0.001287538,0.0029429439000000003,90.0,60.0,60.0,89.5724029541,119.1115570068,125.2867736816,50.8259963989,15.5721845627,3.0799999237,0,2,25,1,94,5751
80,1530636069094,758094, RC,0,39.9586186,-88.445067899,0,0.0,0.0,0.0,0.0,0.0,0.0017473729000000002,0.0,0.0,0.0,0.0,0.0,0.0,0.0,1500,1500,0.0,0.0,40.0484688333,-88.23299,0.0,0.0,0.0,0.0,0.0,0.0,0.0,0.0,0.0,0.0,0.0,0,0.0,0.0,0.001103604,0.0023911418,90.0,60.0,60.0,87.7262039185,118.9842300415,124.7774734497,50.8259963989,15.5721845627,3.0799999237,0,2,25,1,96,5753
81,1530636069144,758144, RC,0,39.9586186,-88.445067899,0,0.0,0.0,0.0,0.0,0.0,0.0014714720000000001,0.0,0.0,0.0,0.0,0.0,0.0,0.0,1500,1500,0.0,0.0,40.0484688333,-88.23299,0.0,0.0,0.0,0.0,0.0,0.0,0.0,0.0,0.0,0.0,0.0,0,0.0,0.0,0.0007357360000000001,0.002207208,90.0,60.0,60.0,89.82704925540001,120.2574768066,121.7217025757,50.8259963989,15.5721845627,3.0799999237,0,2,25,1,123,5755
82,1530636069195,758195, RC,0,39.9586186,-88.445067899,0,0.0,0.0,0.0,0.0,0.0,0.0013795048999999998,0.0,0.0,0.0,0.0,0.0,0.0,0.0,1500,1500,0.0,0.0,40.0484688333,-88.23299,0.0,0.0,0.0,0.0,0.0,0.0,0.0,0.0,0.0,0.0,0.0,0,0.0,0.0,0.0007357360000000001,0.0020232738,90.0,60.0,60.0,90.2726821899,121.1487426758,119.4935302734,50.8259963989,15.5721845627,3.0799999237,0,2,25,1,133,5756
83,1530636069246,758246, RC,0,39.9586186,-88.445067899,0,0.0,0.0,0.0,0.0,0.0,0.001103604,0.0,0.0,0.0,0.0,0.0,0.0,0.0,1500,1500,0.0,0.0,40.0484733333,-88.232991,0.0,0.0,0.0,0.0,0.0,0.0,0.0,0.0,0.0,0.0,0.0,0,0.0,0.0,0.000551802,0.0016554058999999999,90.0,60.0,60.0,89.6997299194,122.4219894409,117.6473312378,50.8259963989,15.5721845627,3.0799999237,0,2,25,1,137,5758
84,1530636069296,758296, RC,0,39.9586186,-88.445067899,0,0.0,0.0,0.0,0.0,0.0,0.000827703,0.0,0.0,0.0,0.0,0.0,0.0,0.0,1500,1500,0.0,0.0,40.0484733333,-88.232991,0.0,0.0,0.0,0.0,0.0,0.0,0.0,0.0,0.0,0.0,0.0,0,0.0,0.0,0.00036786800000000004,0.001287538,90.0,60.0,60.0,90.0816955566,122.2310028076,116.1831054688,50.8259963989,15.5721845627,3.0799999237,0,2,25,1,133,5760
85,1530636069347,758347, RC,0,39.9586186,-88.445067899,0,0.0,0.0,0.0,0.0,0.0,0.0006437689,0.0,0.0,0.0,0.0,0.0,0.0,0.0,1500,1500,0.0,0.0,40.0484733333,-88.232991,0.0,0.0,0.0,0.0,0.0,0.0,0.0,0.0,0.0,0.0,0.0,0,0.0,0.0,0.00036786800000000004,0.0009196699,90.0,60.0,60.0,90.8456420898,121.976348877,114.7188873291,50.8259963989,15.5721845627,3.0799999237,0,2,25,1,143,5761
86,1530636069397,758397, RC,0,39.9586186,-88.445067899,0,0.0,0.0,0.0,0.0,0.0,0.000459835,0.0,0.0,0.0,0.0,0.0,0.0,0.0,1500,1500,0.0,0.0,40.0484733333,-88.232991,0.0,0.0,0.0,0.0,0.0,0.0,0.0,0.0,0.0,0.0,0.0,0,0.0,0.0,0.00018393400000000002,0.0007357360000000001,90.0,60.0,60.0,91.73690795899999,121.2760620117,113.89128112790002,50.8259963989,15.5721845627,3.0799999237,0,2,25,1,134,5762
87,1530636069448,758448, RC,0,39.9586186,-88.445067899,0,0.0,0.0,0.0,0.0,0.0,0.00036786800000000004,0.0,0.0,0.0,0.0,0.0,0.0,0.0,1500,1500,0.0,0.0,40.0484733333,-88.232991,0.0,0.0,0.0,0.0,0.0,0.0,0.0,0.0,0.0,0.0,0.0,0,0.0,0.0,0.00018393400000000002,0.000551802,90.0,60.0,60.0,91.73690795899999,121.7853622437,112.93634796139999,50.8259963989,15.5721845627,3.0799999237,0,2,25,1,106,5764
88,1530636069499,758499, RC,0,39.9586186,-88.445067899,0,0.0,0.0,0.0,0.0,0.0,0.000275901,0.0,0.0,0.0,0.0,0.0,0.0,0.0,1500,1500,0.0,0.0,40.0484733333,-88.232991,0.0,0.0,0.0,0.0,0.0,0.0,0.0,0.0,0.0,0.0,0.0,0,0.0,0.0,0.00018393400000000002,0.00036786800000000004,90.0,60.0,60.0,90.7819747925,122.1673278809,117.3290328979,50.8259963989,15.5721845627,3.0799999237,0,2,25,1,146,5766
89,1530636069549,758549, RC,0,39.9586186,-88.445067899,0,0.0,0.0,0.0,0.0,0.0,0.000275901,0.0,0.0,0.0,0.0,0.0,0.0,0.0,1500,1500,0.0,0.0,40.0484733333,-88.232991,0.0,0.0,0.0,0.0,0.0,0.0,0.0,0.0,0.0,0.0,0.0,0,0.0,0.0,0.00018393400000000002,0.00036786800000000004,90.0,60.0,60.0,90.3363494873,123.0586013794,119.4935302734,50.8259963989,15.5721845627,3.0799999237,0,2,25,1,155,5767
90,1530636069600,758600, RC,0,39.9586186,-88.445067899,0,0.0,0.0,0.0,0.0,0.0,9.196700000000001e-05,0.0,0.0,0.0,0.0,0.0,0.0,0.0,1500,1500,0.0,0.0,40.0484733333,-88.232991,0.0,0.0,0.0,0.0,0.0,0.0,0.0,0.0,0.0,0.0,0.0,0,0.0,0.0,0.0,0.00018393400000000002,90.0,60.0,60.0,89.9543762207,121.84902954100001,117.9019851685,50.8259963989,15.5860671997,2.8600001335000003,0,2,25,1,162,5769
91,1530636069651,758651, RC,0,39.9586186,-88.445067899,0,0.0,0.0,0.0,0.0,0.0,9.196700000000001e-05,0.0,0.0,0.0,0.0,0.0,0.0,0.0,1500,1500,0.0,0.0,40.0484733333,-88.232991,0.0,0.0,0.0,0.0,0.0,0.0,0.0,0.0,0.0,0.0,0.0,0,0.0,0.0,0.0,0.00018393400000000002,90.0,60.0,60.0,90.0816955566,121.0850753784,117.2653579712,50.8259963989,15.5860671997,2.8600001335000003,0,2,25,1,131,5770
92,1530636069701,758701, RC,0,39.9586186,-88.445067899,0,0.0,0.0,0.0,0.0,0.0,9.196700000000001e-05,0.0,0.0,0.0,0.0,0.0,0.0,0.0,1500,1500,0.0,0.0,40.0484733333,-88.232991,0.0,0.0,0.0,0.0,0.0,0.0,0.0,0.0,0.0,0.0,0.0,0,0.0,0.0,0.0,0.00018393400000000002,90.0,60.0,60.0,90.5909881592,122.9312744141,118.6659317017,50.8259963989,15.5860671997,2.8600001335000003,0,2,25,1,127,5772
93,1530636069752,758752, RC,0,39.9586186,-88.445067899,0,0.0,0.0,0.0,0.0,0.0,9.196700000000001e-05,0.0,0.0,0.0,0.0,0.0,0.0,0.0,1500,1500,0.0,0.0,40.0484733333,-88.232991,0.0,0.0,0.0,0.0,0.0,0.0,0.0,0.0,0.0,0.0,0.0,0,0.0,0.0,0.0,0.00018393400000000002,90.0,60.0,60.0,91.29127502440001,123.0586013794,118.0293045044,50.8259963989,15.5860671997,2.8600001335000003,0,2,25,1,304,5774
94,1530636069802,758802, RC,0,39.9586186,-88.445067899,0,0.0,0.0,0.0,0.0,0.0,0.0,0.0,0.0,0.0,0.0,0.0,0.0,0.0,1500,1500,0.0,0.0,40.0484733333,-88.232991,0.0,0.0,0.0,0.0,0.0,0.0,0.0,0.0,0.0,0.0,0.0,0,0.0,0.0,0.0,0.0,90.0,60.0,60.0,92.9464874268,121.2124023438,117.6473312378,50.8259963989,15.5860671997,2.8600001335000003,0,2,25,1,343,5775
95,1530636069853,758853, RC,0,39.9586186,-88.445067899,0,0.0,0.0,0.0,0.0,0.0,0.0,0.0,0.0,0.0,0.0,0.0,0.0,0.0,1500,1500,0.0,0.0,40.0484733333,-88.232991,0.0,0.0,0.0,0.0,0.0,0.0,0.0,0.0,0.0,0.0,0.0,0,0.0,0.0,0.0,0.0,90.0,60.0,60.0,93.6467666626,121.2760620117,119.4935302734,50.8259963989,15.5860671997,2.8600001335000003,0,2,25,1,319,5777
96,1530636069904,758904, RC,0,39.9586186,-88.445067899,0,0.0,0.0,0.0,0.0,0.0,0.0,0.0,0.0,0.0,0.0,0.0,0.0,0.0,1500,1500,0.0,0.0,40.0484733333,-88.232991,0.0,0.0,0.0,0.0,0.0,0.0,0.0,0.0,0.0,0.0,0.0,0,0.0,0.0,0.0,0.0,90.0,60.0,60.0,91.5459213257,121.84902954100001,117.8383178711,50.8259963989,15.5860671997,2.8600001335000003,0,2,25,1,331,5778
97,1530636069954,758954, RC,0,39.9586186,-88.445067899,0,0.0,0.0,0.0,0.0,0.0,0.0,0.0,0.0,0.0,0.0,0.0,0.0,0.0,1500,1500,0.0,0.0,40.0484733333,-88.232991,0.0,0.0,0.0,0.0,0.0,0.0,0.0,0.0,0.0,0.0,0.0,0,0.0,0.0,0.0,0.0,90.0,60.0,60.0,91.5459213257,122.4219894409,116.7560577393,50.8259963989,15.5860671997,2.8600001335000003,0,2,25,1,336,5779
98,1530636070005,759005, RC,0,39.9586186,-88.445067899,0,0.0,0.0,0.0,0.0,0.0,0.0,0.0,0.0,0.0,0.0,0.0,0.0,0.0,1500,1500,0.0,0.0,40.0484733333,-88.232991,0.0,0.0,0.0,0.0,0.0,0.0,0.0,0.0,0.0,0.0,0.0,0,0.0,0.0,0.0,0.0,90.0,60.0,60.0,92.7555007935,121.976348877,117.7109985352,50.8259963989,15.5860671997,2.8600001335000003,0,2,25,1,197,5781
99,1530636070056,759056, RC,0,39.9586186,-88.445067899,0,0.0,0.0,0.0,0.0,0.0,0.0,0.0,0.0,0.0,0.0,0.0,0.0,0.0,1500,1500,0.0,0.0,40.0484733333,-88.232991,0.0,0.0,0.0,0.0,0.0,0.0,0.0,0.0,0.0,0.0,0.0,0,0.0,0.0,0.0,0.0,90.0,60.0,60.0,93.20113372799999,122.48564910889999,118.0293045044,50.8259963989,15.5860671997,2.8600001335000003,0,2,25,1,220,5782
100,1530636070106,759106, RC,0,39.9586186,-88.445067899,0,0.0,0.0,0.0,0.0,0.0,0.0,0.0,0.0,0.0,0.0,0.0,0.0,0.0,1500,1500,0.0,0.0,40.0484733333,-88.232991,0.0,0.0,0.0,0.0,0.0,0.0,0.0,0.0,0.0,0.0,0.0,0,0.0,0.0,0.0,0.0,90.0,60.0,60.0,94.2197265625,122.48564910889999,116.7560577393,50.8259963989,15.5860671997,2.8600001335000003,0,2,25,1,272,5784
101,1530636070157,759157, RC,0,39.9586186,-88.445067899,0,0.0,0.0,0.0,0.0,0.0,0.0,0.0,0.0,0.0,0.0,0.0,0.0,0.0,1500,1500,0.0,0.0,40.0484733333,-88.232991,0.0,0.0,0.0,0.0,0.0,0.0,0.0,0.0,0.0,0.0,0.0,0,0.0,0.0,0.0,0.0,90.0,60.0,60.0,95.174659729,122.10367584229999,117.3290328979,50.8259963989,15.5860671997,2.8600001335000003,0,2,25,1,309,5785
102,1530636070208,759208, RC,0,39.9586186,-88.445067899,0,0.0,0.0,0.0,0.0,0.0,0.0,0.0,0.0,0.0,0.0,0.0,0.0,0.0,1500,1500,0.0,0.0,40.0484733333,-88.232991,0.0,0.0,0.0,0.0,0.0,0.0,0.0,0.0,0.0,0.0,0.0,0,0.0,0.0,0.0,0.0,90.0,60.0,60.0,93.58310699459999,121.2760620117,120.38480377200001,50.8259963989,15.5860671997,2.8600001335000003,0,2,25,1,176,5787
103,1530636070259,759259, RC,0,39.9586186,-88.445067899,0,0.0,0.0,0.0,0.0,0.0,0.0,0.0,0.0,0.0,0.0,0.0,0.0,0.0,1500,1500,0.0,0.0,40.0484801667,-88.2329953333,0.0,0.0,0.0,0.0,0.0,0.0,0.0,0.0,0.0,0.0,0.0,0,0.0,0.0,0.0,0.0,90.0,60.0,60.0,94.729019165,120.83042907709999,120.51211547850001,50.8259963989,15.5860671997,2.8600001335000003,0,2,25,1,118,5788
104,1530636070309,759309, RC,0,39.9586186,-88.445067899,0,0.0,0.0,0.0,0.0,0.0,0.0,0.0,0.0,0.0,0.0,0.0,0.0,0.0,1500,1500,0.0,0.0,40.0484801667,-88.2329953333,0.0,0.0,0.0,0.0,0.0,0.0,0.0,0.0,0.0,0.0,0.0,0,0.0,0.0,0.0,0.0,90.0,60.0,60.0,94.28338623049999,120.00283050540001,119.3025436401,50.8259963989,15.5860671997,2.8600001335000003,0,2,25,1,225,5790
105,1530636070360,759360, RC,0,39.9586186,-88.445067899,0,0.0,0.0,0.0,0.0,0.0,0.0,0.0,0.0,0.0,0.0,0.0,0.0,0.0,1500,1500,0.0,0.0,40.0484801667,-88.2329953333,0.0,0.0,0.0,0.0,0.0,0.0,0.0,0.0,0.0,0.0,0.0,0,0.0,0.0,0.0,0.0,90.0,60.0,60.0,93.39212036129999,120.38480377200001,118.4749450684,50.8259963989,15.5860671997,2.8600001335000003,0,2,25,1,218,5791
106,1530636070411,759411, RC,0,39.9586186,-88.445067899,0,0.0,0.0,0.0,0.0,0.0,0.0,0.0,0.0,0.0,0.0,0.0,0.0,0.0,1500,1500,0.0,0.0,40.0484801667,-88.2329953333,0.0,0.0,0.0,0.0,0.0,0.0,0.0,0.0,0.0,0.0,0.0,0,0.0,0.0,0.0,0.0,90.0,60.0,60.0,93.328453064,119.81184387209998,119.42987060549999,50.8259963989,15.5860671997,2.8600001335000003,0,2,25,1,228,5793
107,1530636070462,759462, RC,0,39.9586186,-88.445067899,0,0.0,0.0,0.0,0.0,0.0,0.0,0.0,0.0,0.0,0.0,0.0,0.0,0.0,1500,1500,0.0,0.0,40.0484801667,-88.2329953333,0.0,0.0,0.0,0.0,0.0,0.0,0.0,0.0,0.0,0.0,0.0,0,0.0,0.0,0.0,0.0,90.0,60.0,60.0,94.0287399292,118.2202911377,121.467048645,50.8259963989,15.5860671997,2.8600001335000003,0,2,25,1,175,5795
108,1530636070513,759513, RC,0,39.9586186,-88.445067899,0,0.0,0.0,0.0,0.0,0.0,0.0,0.0,0.0,0.0,0.0,0.0,0.0,0.0,1500,1500,0.0,0.0,40.0484801667,-88.2329953333,0.0,0.0,0.0,0.0,0.0,0.0,0.0,0.0,0.0,0.0,0.0,0,0.0,0.0,0.0,0.0,90.0,60.0,60.0,93.96508026120001,119.3025436401,121.1487426758,50.8259963989,15.5860671997,2.8600001335000003,0,2,25,1,179,5796
109,1530636070563,759563, RC,0,39.9586186,-88.445067899,0,0.0,0.0,0.0,0.0,0.0,0.0,0.0,0.0,0.0,0.0,0.0,0.0,0.0,1500,1500,0.0,0.0,40.0484801667,-88.2329953333,0.0,0.0,0.0,0.0,0.0,0.0,0.0,0.0,0.0,0.0,0.0,0,0.0,0.0,0.0,0.0,90.0,60.0,60.0,93.328453064,119.939163208,120.51211547850001,50.8259963989,15.5860671997,2.8600001335000003,0,2,25,1,175,5798
110,1530636070614,759614, RC,0,39.9586186,-88.445067899,0,0.0,0.0,0.0,0.0,0.0,0.0,0.0,0.0,0.0,0.0,0.0,0.0,0.0,1500,1500,0.0,0.0,40.0484801667,-88.2329953333,0.0,0.0,0.0,0.0,0.0,0.0,0.0,0.0,0.0,0.0,0.0,0,0.0,0.0,0.0,0.0,90.0,60.0,60.0,94.15606689450001,119.7481765747,119.87550354,50.8259963989,15.5968294144,2.9000000954000003,0,2,25,1,145,5799
111,1530636070665,759665, RC,0,39.9586186,-88.445067899,0,0.0,0.0,0.0,0.0,0.0,0.0,0.0,0.0,0.0,0.0,0.0,0.0,0.0,1500,1500,0.0,0.0,40.0484801667,-88.2329953333,0.0,0.0,0.0,0.0,0.0,0.0,0.0,0.0,0.0,0.0,0.0,0,0.0,0.0,0.0,0.0,90.0,60.0,60.0,93.4557876587,119.62085723879999,119.3025436401,50.8259963989,15.5968294144,2.9000000954000003,0,2,25,1,94,5801
112,1530636070715,759715, RC,0,39.9586186,-88.445067899,0,0.0,0.0,0.0,0.0,0.0,0.0,0.0,0.0,0.0,0.0,0.0,0.0,0.0,1500,1500,0.0,0.0,40.0484801667,-88.2329953333,0.0,0.0,0.0,0.0,0.0,0.0,0.0,0.0,0.0,0.0,0.0,0,0.0,0.0,0.0,0.0,90.0,60.0,60.0,94.28338623049999,120.9577560425,118.4749450684,50.8259963989,15.5968294144,2.9000000954000003,0,2,25,1,90,5802
113,1530636070766,759766, RC,0,39.9586186,-88.445067899,0,0.0,0.0,0.0,0.0,0.0,0.0,0.0,0.0,0.0,0.0,0.0,0.0,0.0,1500,1500,0.0,0.0,40.0484801667,-88.2329953333,0.0,0.0,0.0,0.0,0.0,0.0,0.0,0.0,0.0,0.0,0.0,0,0.0,0.0,0.0,0.0,90.0,60.0,60.0,95.23831939700001,122.6129760742,117.4563446045,50.8259963989,15.5968294144,2.9000000954000003,0,2,25,1,126,5804
114,1530636070817,759817, RC,0,39.9586186,-88.445067899,0,0.0,0.0,0.0,0.0,0.0,0.0,0.0,0.0,0.0,0.0,0.0,0.0,0.0,1500,1500,0.0,0.0,40.0484801667,-88.2329953333,0.0,0.0,0.0,0.0,0.0,0.0,0.0,0.0,0.0,0.0,0.0,0,0.0,0.0,0.0,0.0,90.0,60.0,60.0,95.42930603030001,124.904800415,117.6473312378,50.8259963989,15.5968294144,2.9000000954000003,0,2,25,1,132,5806
115,1530636070867,759867, RC,0,39.9586186,-88.445067899,0,0.0,0.0,0.0,0.0,0.0,0.0,0.0,0.0,0.0,0.0,0.0,0.0,0.0,1500,1500,0.0,0.0,40.0484801667,-88.2329953333,0.0,0.0,0.0,0.0,0.0,0.0,0.0,0.0,0.0,0.0,0.0,0,0.0,0.0,0.0,0.0,90.0,60.0,60.0,96.44789123540001,123.56790161129999,115.16451263430001,50.8259963989,15.5968294144,2.9000000954000003,0,2,25,1,117,5807
116,1530636070918,759918, RC,0,39.9586186,-88.445067899,0,0.0,0.0,0.0,0.0,0.0,0.0,0.0,0.0,0.0,0.0,0.0,0.0,0.0,1500,1500,0.0,0.0,40.0484801667,-88.2329953333,0.0,0.0,0.0,0.0,0.0,0.0,0.0,0.0,0.0,0.0,0.0,0,0.0,0.0,0.0,0.0,90.0,60.0,60.0,96.70254516600001,122.6129760742,116.1831054688,50.8259963989,15.5968294144,2.9000000954000003,0,2,25,1,64,5809
117,1530636070969,759969, RC,0,39.9586186,-88.445067899,0,0.0,0.0,0.0,0.0,0.0,0.0,0.0,0.0,0.0,0.0,0.0,0.0,0.0,1500,1500,0.0,0.0,40.0484801667,-88.2329953333,0.0,0.0,0.0,0.0,0.0,0.0,0.0,0.0,0.0,0.0,0.0,0,0.0,0.0,0.0,0.0,90.0,60.0,60.0,93.6467666626,123.1222610474,118.53860473629999,50.8259963989,15.5968294144,2.9000000954000003,0,2,25,1,37,5810
118,1530636071020,760020, RC,0,39.9586186,-88.445067899,0,0.0,0.0,0.0,0.0,0.0,0.0,0.0,0.0,0.0,0.0,0.0,0.0,0.0,1500,1500,0.0,0.0,40.0484801667,-88.2329953333,0.0,0.0,0.0,0.0,0.0,0.0,0.0,0.0,0.0,0.0,0.0,0,0.0,0.0,0.0,0.0,90.0,60.0,60.0,95.4929656982,123.0586013794,118.53860473629999,50.8259963989,15.5968294144,2.9000000954000003,0,2,25,1,113,5812
119,1530636071071,760071, RC,0,39.9586186,-88.445067899,0,0.0,0.0,0.0,0.0,0.0,0.0,0.0,0.0,0.0,0.0,0.0,0.0,0.0,1500,1500,0.0,0.0,40.0484801667,-88.2329953333,0.0,0.0,0.0,0.0,0.0,0.0,0.0,0.0,0.0,0.0,0.0,0,0.0,0.0,0.0,0.0,90.0,60.0,60.0,96.32057189940001,123.0586013794,115.5464859009,50.8259963989,15.5968294144,2.9000000954000003,0,2,25,1,57,5814
120,1530636071121,760121, RC,0,39.9586186,-88.445067899,0,0.0,0.0,0.0,0.0,0.0,0.0,0.0,0.0,0.0,0.0,0.0,0.0,0.0,1500,1500,0.0,0.0,40.0484801667,-88.2329953333,0.0,0.0,0.0,0.0,0.0,0.0,0.0,0.0,0.0,0.0,0.0,0,0.0,0.0,0.0,0.0,90.0,60.0,60.0,96.44789123540001,123.37691497799999,115.67381286620001,50.8259963989,15.5968294144,2.9000000954000003,0,2,25,1,29,5815
121,1530636071172,760172, RC,0,39.9586186,-88.445067899,0,0.0,0.0,0.0,0.0,0.0,0.0,0.0,0.0,0.0,0.0,0.0,0.0,0.0,1500,1500,0.0,0.0,40.0484801667,-88.2329953333,0.0,0.0,0.0,0.0,0.0,0.0,0.0,0.0,0.0,0.0,0.0,0,0.0,0.0,0.0,0.0,90.0,60.0,60.0,96.51155853270001,125.9233856201,116.62874603270001,50.8259963989,15.5968294144,2.9000000954000003,0,2,25,1,19,5817
122,1530636071223,760223, RC,0,39.9586186,-88.445067899,0,0.0,0.0,0.0,0.0,0.0,0.0,0.0,0.0,0.0,0.0,0.0,0.0,0.0,1500,1500,0.0,0.0,40.0484801667,-88.2329953333,0.0,0.0,0.0,0.0,0.0,0.0,0.0,0.0,0.0,0.0,0.0,0,0.0,0.0,0.0,0.0,90.0,60.0,60.0,96.19325256350001,123.440574646,114.08226776120001,50.8259963989,15.5968294144,2.9000000954000003,0,2,25,1,154,5819
123,1530636071274,760274, RC,0,39.9586186,-88.445067899,0,0.0,0.0,0.0,0.0,0.0,0.0,0.0,0.0,0.0,0.0,0.0,0.0,0.0,1500,1500,0.0,0.0,40.048473,-88.2330083333,0.0,0.0,0.0,0.0,0.0,0.0,0.0,0.0,0.0,0.0,0.0,0,0.0,0.0,0.0,0.0,90.0,60.0,60.0,96.76620483399999,124.5864868164,115.0371856689,50.8259963989,15.5968294144,2.9000000954000003,0,2,25,1,284,5821
124,1530636071325,760325, RC,0,39.9586186,-88.445067899,0,0.0,0.0,0.0,0.0,0.0,0.0,0.0,0.0,0.0,0.0,0.0,0.0,0.0,1500,1500,0.0,0.0,40.048473,-88.2330083333,0.0,0.0,0.0,0.0,0.0,0.0,0.0,0.0,0.0,0.0,0.0,0,0.0,0.0,0.0,0.0,90.0,60.0,60.0,97.53015136719999,127.13297271729999,114.1459197998,50.8259963989,15.5968294144,2.9000000954000003,0,2,25,1,195,5823
125,1530636071375,760375, RC,0,39.9586186,-88.445067899,0,0.0,0.0,0.0,0.0,0.0,0.0,0.0,0.0,0.0,0.0,0.0,0.0,0.0,1500,1500,0.0,0.0,40.048473,-88.2330083333,0.0,0.0,0.0,0.0,0.0,0.0,0.0,0.0,0.0,0.0,0.0,0,0.0,0.0,0.0,0.0,90.0,60.0,60.0,96.5752182007,122.10367584229999,118.0293045044,50.8259963989,15.5968294144,2.9000000954000003,0,2,25,1,226,5824
126,1530636071426,760426, RC,0,39.9586186,-88.445067899,0,0.0,0.0,0.0,0.0,0.0,0.0,0.0,0.0,0.0,0.0,0.0,0.0,0.0,1500,1500,0.0,0.0,40.048473,-88.2330083333,0.0,0.0,0.0,0.0,0.0,0.0,0.0,0.0,0.0,0.0,0.0,0,0.0,0.0,0.0,0.0,90.0,60.0,60.0,94.729019165,119.0479049683,121.6580352783,50.8259963989,15.5968294144,2.9000000954000003,0,2,25,1,270,5826
127,1530636071477,760477, RC,0,39.9586186,-88.445067899,0,0.0,0.0,0.0,0.0,0.0,0.0,0.0,0.0,0.0,0.0,0.0,0.0,0.0,1500,1500,0.0,0.0,40.048473,-88.2330083333,0.0,0.0,0.0,0.0,0.0,0.0,0.0,0.0,0.0,0.0,0.0,0,0.0,0.0,0.0,0.0,90.0,60.0,60.0,95.36563873290001,119.0479049683,121.91268920899999,50.8259963989,15.5968294144,2.9000000954000003,0,2,25,1,24,5828
128,1530636071527,760527, RC,0,39.9586186,-88.445067899,0,0.0,0.0,0.0,0.0,0.0,0.0,0.0,0.0,0.0,0.0,0.0,0.0,0.0,1500,1500,0.0,0.0,40.048473,-88.2330083333,0.0,0.0,0.0,0.0,0.0,0.0,0.0,0.0,0.0,0.0,0.0,0,0.0,0.0,0.0,0.0,90.0,60.0,60.0,100.96789550780001,118.856918335,120.19381713870001,50.8259963989,15.5968294144,2.9000000954000003,0,2,25,1,11,5830
129,1530636071578,760578, RC,0,39.9586186,-88.445067899,0,0.0,0.0,0.0,0.0,0.0,0.0,0.0,0.0,0.0,0.0,0.0,0.0,0.0,1500,1500,0.0,0.0,40.048473,-88.2330083333,0.0,0.0,0.0,0.0,0.0,0.0,0.0,0.0,0.0,0.0,0.0,0,0.0,0.0,0.0,0.0,90.0,60.0,60.0,115.16451263430001,119.42987060549999,119.6845169067,50.8259963989,15.5968294144,2.9000000954000003,0,2,25,1,102,5831
130,1530636071628,760628, RC,0,39.9586186,-88.445067899,0,0.0,0.0,0.0,0.0,0.0,0.0,0.0,0.0,0.0,0.0,0.0,0.0,0.0,1500,1500,0.0,0.0,40.048473,-88.2330083333,0.0,0.0,0.0,0.0,0.0,0.0,0.0,0.0,0.0,0.0,0.0,0,0.0,0.0,0.0,0.0,90.0,60.0,60.0,93.96508026120001,121.5307159424,118.53860473629999,50.8259963989,15.5961761475,2.7400000094999997,0,2,25,1,245,5833
131,1530636071679,760679, RC,0,39.9586186,-88.445067899,0,0.0,0.0,0.0,0.0,0.0,0.0,0.0,0.0,0.0,0.0,0.0,0.0,0.0,1500,1500,0.0,0.0,40.048473,-88.2330083333,0.0,0.0,0.0,0.0,0.0,0.0,0.0,0.0,0.0,0.0,0.0,0,0.0,0.0,0.0,0.0,90.0,60.0,60.0,94.85634613040001,123.0586013794,117.5200195312,50.8259963989,15.5961761475,2.7400000094999997,0,2,25,1,157,5835
132,1530636071730,760730, RC,0,39.9586186,-88.445067899,0,0.0,0.0,0.0,0.0,0.0,0.0,0.0,0.0,0.0,0.0,0.0,0.0,0.0,1500,1500,0.0,0.0,40.048473,-88.2330083333,0.0,0.0,0.0,0.0,0.0,0.0,0.0,0.0,0.0,0.0,0.0,0,0.0,0.0,0.0,0.0,90.0,60.0,60.0,96.32057189940001,124.84113311770001,115.2281723022,50.8259963989,15.5961761475,2.7400000094999997,0,2,25,1,134,5837
133,1530636071780,760780, RC,0,39.9586186,-88.445067899,0,0.0,0.0,0.0,0.0,0.0,0.0,0.0,0.0,0.0,0.0,0.0,0.0,0.0,1500,1500,0.0,0.0,40.048473,-88.2330083333,0.0,0.0,0.0,0.0,0.0,0.0,0.0,0.0,0.0,0.0,0.0,0,0.0,0.0,0.0,0.0,90.0,60.0,60.0,100.5222625732,127.1966323853,114.1459197998,50.8259963989,15.5961761475,2.7400000094999997,0,2,25,1,131,5838
134,1530636071831,760831, RC,0,39.9586186,-88.445067899,0,0.0,0.0,0.0,0.0,0.0,0.0,0.0,0.0,0.0,0.0,0.0,0.0,0.0,1500,1500,0.0,0.0,40.048473,-88.2330083333,0.0,0.0,0.0,0.0,0.0,0.0,0.0,0.0,0.0,0.0,0.0,0,0.0,0.0,0.0,0.0,90.0,60.0,60.0,121.0214157104,122.5493011475,116.7560577393,50.8259963989,15.5961761475,2.7400000094999997,0,2,25,1,26,5840
135,1530636071882,760882, RC,0,39.9586186,-88.445067899,0,0.0,0.0,0.0,0.0,0.0,0.0,0.0,0.0,0.0,0.0,0.0,0.0,0.0,1500,1500,0.0,0.0,40.048473,-88.2330083333,0.0,0.0,0.0,0.0,0.0,0.0,0.0,0.0,0.0,0.0,0.0,0,0.0,0.0,0.0,0.0,90.0,60.0,60.0,102.9414138794,119.0479049683,120.9577560425,50.8259963989,15.5961761475,2.7400000094999997,0,2,25,1,188,5842
136,1530636071932,760932, RC,0,39.9586186,-88.445067899,0,0.0,0.0,0.0,0.0,0.0,0.0,0.0,0.0,0.0,0.0,0.0,0.0,0.0,1500,1500,0.0,0.0,40.048473,-88.2330083333,0.0,0.0,0.0,0.0,0.0,0.0,0.0,0.0,0.0,0.0,0.0,0,0.0,0.0,0.0,0.0,90.0,60.0,60.0,99.3763504028,118.2202911377,121.4033889771,50.8259963989,15.5961761475,2.7400000094999997,0,2,25,1,289,5843
137,1530636071983,760983, RC,0,39.9586186,-88.445067899,0,0.0,0.0,0.0,0.0,0.0,0.0,0.0,0.0,0.0,0.0,0.0,0.0,0.0,1500,1500,0.0,0.0,40.048473,-88.2330083333,0.0,0.0,0.0,0.0,0.0,0.0,0.0,0.0,0.0,0.0,0.0,0,0.0,0.0,0.0,0.0,90.0,60.0,60.0,98.42141723629999,117.39268493649999,122.29466247559999,50.8259963989,15.5961761475,2.7400000094999997,0,2,25,1,100,5845
138,1530636072034,761034, RC,0,39.9586186,-88.445067899,0,0.0,0.0,0.0,0.0,0.0,0.0,0.0,0.0,0.0,0.0,0.0,0.0,0.0,1500,1500,0.0,0.0,40.048473,-88.2330083333,0.0,0.0,0.0,0.0,0.0,0.0,0.0,0.0,0.0,0.0,0.0,0,0.0,0.0,0.0,0.0,90.0,60.0,60.0,105.9335327148,118.411277771,122.5493011475,50.8259963989,15.5961761475,2.7400000094999997,0,2,25,1,216,5847
139,1530636072084,761084, RC,0,39.9586186,-88.445067899,0,0.0,0.0,0.0,0.0,0.0,0.0,0.0,0.0,0.0,0.0,0.0,0.0,0.0,1500,1500,0.0,0.0,40.048473,-88.2330083333,0.0,0.0,0.0,0.0,0.0,0.0,0.0,0.0,0.0,0.0,0.0,0,0.0,0.0,0.0,0.0,90.0,60.0,60.0,105.10591888430001,119.87550354,121.1487426758,50.8259963989,15.5961761475,2.7400000094999997,0,2,25,1,293,5849
140,1530636072135,761135, RC,0,39.9586186,-88.445067899,0,0.0,0.0,0.0,0.0,0.0,9.196700000000001e-05,0.0,0.0,0.0,0.0,0.0,0.0,0.0,1500,1500,0.0,0.0,40.048473,-88.2330083333,0.0,0.0,0.0,0.0,0.0,0.0,0.0,0.0,0.0,0.0,0.0,0,0.0,0.0,0.00018393400000000002,0.0,90.0,60.0,60.0,96.76620483399999,118.856918335,121.0850753784,50.8259963989,15.5961761475,2.7400000094999997,0,2,25,1,401,5850
141,1530636072185,761185, RC,0,39.9586186,-88.445067899,0,0.0,0.0,0.0,0.0,0.0,9.196700000000001e-05,0.0,0.0,0.0,0.0,0.0,0.0,0.0,1500,1500,0.0,0.0,40.048473,-88.2330083333,0.0,0.0,0.0,0.0,0.0,0.0,0.0,0.0,0.0,0.0,0.0,0,0.0,0.0,0.00018393400000000002,0.0,90.0,60.0,60.0,97.53015136719999,120.19381713870001,120.2574768066,50.8259963989,15.5961761475,2.7400000094999997,0,2,25,1,303,5852
142,1530636072236,761236, RC,0,39.9586186,-88.445067899,0,0.0,0.0,0.0,0.0,0.0,0.0,0.0,0.0,0.0,0.0,0.0,0.0,0.0,1500,1500,0.0,0.0,40.048473,-88.2330083333,0.0,0.0,0.0,0.0,0.0,0.0,0.0,0.0,0.0,0.0,0.0,0,0.0,0.0,0.0,0.0,90.0,60.0,60.0,100.7132492065,121.4033889771,118.0929718018,50.8259963989,15.5961761475,2.7400000094999997,0,2,25,1,156,5853
143,1530636072287,761287, RC,0,39.9586186,-88.445067899,0,0.0,0.0,0.0,0.0,0.0,0.0,0.0,0.0,0.0,0.0,0.0,0.0,0.0,1500,1500,0.0,0.0,40.0484645,-88.2330186667,0.0,0.0,0.0,0.0,0.0,0.0,0.0,0.0,0.0,0.0,0.0,0,0.0,0.0,0.0,0.0,90.0,60.0,60.0,125.1594467163,119.2388916016,120.6394424438,50.8259963989,15.5961761475,2.7400000094999997,0,2,25,1,37,5855
144,1530636072337,761337, RC,0,39.9586186,-88.445067899,0,0.0,0.0,0.0,0.0,0.0,0.0,0.0,0.0,0.0,0.0,0.0,0.0,0.0,1500,1500,0.0,0.0,40.0484645,-88.2330186667,0.0,0.0,0.0,0.0,0.0,0.0,0.0,0.0,0.0,0.0,0.0,0,0.0,0.0,0.0,0.0,90.0,60.0,60.0,93.9014129639,114.0186004639,126.7510070801,50.8259963989,15.5961761475,2.7400000094999997,0,2,25,1,130,5857
145,1530636072388,761388, RC,0,39.9586186,-88.445067899,0,0.0,0.0,0.0,0.0,0.0,0.0,0.0,0.0,0.0,0.0,0.0,0.0,0.0,1500,1500,0.0,0.0,40.0484645,-88.2330186667,0.0,0.0,0.0,0.0,0.0,0.0,0.0,0.0,0.0,0.0,0.0,0,0.0,0.0,0.0,0.0,90.0,60.0,60.0,93.328453064,113.2546615601,127.1966323853,50.8259963989,15.5961761475,2.7400000094999997,0,2,25,1,119,5859
146,1530636072439,761439, RC,0,39.9586186,-88.445067899,0,0.0,0.0,0.0,0.0,0.0,0.0,0.0,0.0,0.0,0.0,0.0,0.0,0.0,1500,1500,0.0,0.0,40.0484645,-88.2330186667,0.0,0.0,0.0,0.0,0.0,0.0,0.0,0.0,0.0,0.0,0.0,0,0.0,0.0,0.0,0.0,90.0,60.0,60.0,96.76620483399999,117.58367156979999,126.56002044680001,50.8259963989,15.5961761475,2.7400000094999997,0,2,25,1,171,5861
147,1530636072489,761489, RC,0,39.9586186,-88.445067899,0,0.0,0.0,0.0,0.0,0.0,0.0,0.0,0.0,0.0,0.0,0.0,0.0,0.0,1500,1500,0.0,0.0,40.0484645,-88.2330186667,0.0,0.0,0.0,0.0,0.0,0.0,0.0,0.0,0.0,0.0,0.0,0,0.0,0.0,0.0,0.0,90.0,60.0,60.0,118.53860473629999,119.87550354,120.8940887451,50.8259963989,15.5961761475,2.7400000094999997,0,2,25,1,12,5862
148,1530636072540,761540, RC,0,39.9586186,-88.445067899,0,0.0,0.0,0.0,0.0,0.0,0.0,0.0,0.0,0.0,0.0,0.0,0.0,0.0,1500,1500,0.0,0.0,40.0484645,-88.2330186667,0.0,0.0,0.0,0.0,0.0,0.0,0.0,0.0,0.0,0.0,0.0,0,0.0,0.0,0.0,0.0,90.0,60.0,60.0,89.1904296875,120.76677703860001,116.62874603270001,50.8259963989,15.5961761475,2.7400000094999997,0,2,25,1,10,5864
149,1530636072591,761591, RC,0,39.9586186,-88.445067899,0,0.0,0.0,0.0,0.0,0.0,0.0,0.0,0.0,0.0,0.0,0.0,0.0,0.0,1500,1500,0.0,0.0,40.0484645,-88.2330186667,0.0,0.0,0.0,0.0,0.0,0.0,0.0,0.0,0.0,0.0,0.0,0,0.0,0.0,0.0,0.0,90.0,60.0,60.0,91.29127502440001,123.75888824459999,114.40057373049999,50.8259963989,15.5961761475,2.7400000094999997,0,2,25,1,152,5866
150,1530636072641,761641, RC,0,39.9586186,-88.445067899,0,0.0,0.0,0.0,0.0,0.0,0.0,0.0,0.0,0.0,0.0,0.0,0.0,0.0,1500,1500,0.0,0.0,40.0484645,-88.2330186667,0.0,0.0,0.0,0.0,0.0,0.0,0.0,0.0,0.0,0.0,0.0,0,0.0,0.0,0.0,0.0,90.0,60.0,60.0,94.4107131958,128.1515655518,110.0078964233,50.8259963989,15.6041917801,2.3000001907,0,2,25,1,124,5867
151,1530636072692,761692, RC,0,39.9586186,-88.445067899,0,0.0,0.0,0.0,0.0,0.0,0.0,0.0,0.0,0.0,0.0,0.0,0.0,0.0,1500,1500,0.0,0.0,40.0484645,-88.2330186667,0.0,0.0,0.0,0.0,0.0,0.0,0.0,0.0,0.0,0.0,0.0,0,0.0,0.0,0.0,0.0,90.0,60.0,60.0,98.03944396969999,124.07718658450001,113.70029449459999,50.8259963989,15.6041917801,2.3000001907,0,2,25,1,209,5869
152,1530636072743,761743, RC,0,39.9586186,-88.445067899,0,0.0,0.0,0.0,0.0,0.0,0.0,0.0,0.0,0.0,0.0,0.0,0.0,0.0,1500,1500,0.0,0.0,40.0484645,-88.2330186667,0.0,0.0,0.0,0.0,0.0,0.0,0.0,0.0,0.0,0.0,0.0,0,0.0,0.0,0.0,0.0,90.0,60.0,60.0,124.5228347778,117.7109985352,122.3583145142,50.8259963989,15.6041917801,2.3000001907,0,2,25,1,299,5871
153,1530636072793,761793, RC,0,39.9586186,-88.445067899,0,0.0,0.0,0.0,0.0,0.0,0.0,0.0,0.0,0.0,0.0,0.0,0.0,0.0,1500,1500,0.0,0.0,40.0484645,-88.2330186667,0.0,0.0,0.0,0.0,0.0,0.0,0.0,0.0,0.0,0.0,0.0,0,0.0,0.0,0.0,0.0,90.0,60.0,60.0,100.07662963870001,114.59156036379999,125.60507202149999,50.8259963989,15.6041917801,2.3000001907,0,2,25,1,224,5872
154,1530636072844,761844, RC,0,39.9586186,-88.445067899,0,0.0,0.0,0.0,0.0,0.0,0.0,0.0,0.0,0.0,0.0,0.0,0.0,0.0,1500,1500,0.0,0.0,40.0484645,-88.2330186667,0.0,0.0,0.0,0.0,0.0,0.0,0.0,0.0,0.0,0.0,0.0,0,0.0,0.0,0.0,0.0,90.0,60.0,60.0,92.50085449219999,115.6101455688,123.18592834469999,50.8259963989,15.6041917801,2.3000001907,0,2,25,1,283,5874
155,1530636072895,761895, RC,0,39.9586186,-88.445067899,0,0.0,0.0,0.0,0.0,0.0,0.0,0.0,0.0,0.0,0.0,0.0,0.0,0.0,1500,1500,0.0,0.0,40.0484645,-88.2330186667,0.0,0.0,0.0,0.0,0.0,0.0,0.0,0.0,0.0,0.0,0.0,0,0.0,0.0,0.0,0.0,90.0,60.0,60.0,91.4186019897,117.2017059326,122.6129760742,50.8259963989,15.6041917801,2.3000001907,0,2,25,1,428,5876
156,1530636072945,761945, RC,0,39.9586186,-88.445067899,0,0.0,0.0,0.0,0.0,0.0,0.0,0.0,0.0,0.0,0.0,0.0,0.0,0.0,1500,1500,0.0,0.0,40.0484645,-88.2330186667,0.0,0.0,0.0,0.0,0.0,0.0,0.0,0.0,0.0,0.0,0.0,0,0.0,0.0,0.0,0.0,90.0,60.0,60.0,91.10028839110001,121.0850753784,122.9312744141,50.8259963989,15.6041917801,2.3000001907,0,2,25,1,304,5877
157,1530636072996,761996, RC,0,39.9586186,-88.445067899,0,0.0,0.0,0.0,0.0,0.0,0.0,0.0,0.0,0.0,0.0,0.0,0.0,0.0,1500,1500,0.0,0.0,40.0484645,-88.2330186667,0.0,0.0,0.0,0.0,0.0,0.0,0.0,0.0,0.0,0.0,0.0,0,0.0,0.0,0.0,0.0,90.0,60.0,60.0,92.50085449219999,122.2310028076,120.57579040530001,50.8259963989,15.6041917801,2.3000001907,0,2,25,1,428,5879
158,1530636073047,762047, RC,0,39.9586186,-88.445067899,0,0.0,0.0,0.0,0.0,0.0,0.0,0.0,0.0,0.0,0.0,0.0,0.0,0.0,1500,1500,0.0,0.0,40.0484645,-88.2330186667,0.0,0.0,0.0,0.0,0.0,0.0,0.0,0.0,0.0,0.0,0.0,0,0.0,0.0,0.0,0.0,90.0,60.0,60.0,95.55662536620001,125.4140930176,114.7188873291,50.8259963989,15.6041917801,2.3000001907,0,2,25,1,294,5881
159,1530636073097,762097, RC,0,39.9586186,-88.445067899,0,0.0,0.0,0.0,0.0,0.0,0.0,0.0,0.0,0.0,0.0,0.0,0.0,0.0,1500,1500,0.0,0.0,40.0484645,-88.2330186667,0.0,0.0,0.0,0.0,0.0,0.0,0.0,0.0,0.0,0.0,0.0,0,0.0,0.0,0.0,0.0,90.0,60.0,60.0,98.6123962402,128.851852417,109.6895904541,50.8259963989,15.6041917801,2.3000001907,0,2,25,1,24,5883
160,1530636073148,762148, RC,0,39.9586186,-88.445067899,0,0.0,0.0,0.0,0.0,0.0,0.0,0.0,0.0,0.0,0.0,0.0,0.0,0.0,1500,1500,0.0,0.0,40.0484645,-88.2330186667,0.0,0.0,0.0,0.0,0.0,0.0,0.0,0.0,0.0,0.0,0.0,0,0.0,0.0,0.0,0.0,90.0,60.0,60.0,108.2253570557,123.6952209473,117.7109985352,50.8259963989,15.6041917801,2.3000001907,0,2,25,1,22,5884
161,1530636073200,762200, RC,0,39.9586186,-88.445067899,0,0.0,0.0,0.0,0.0,0.0,0.0,0.0,0.0,0.0,0.0,0.0,0.0,0.0,1500,1500,0.0,0.0,40.0484645,-88.2330186667,0.0,0.0,0.0,0.0,0.0,0.0,0.0,0.0,0.0,0.0,0.0,0,0.0,0.0,0.0,0.0,90.0,60.0,60.0,107.20677185059999,113.5729675293,124.5864868164,50.8259963989,15.6041917801,2.3000001907,0,2,25,1,2,5886
162,1530636073250,762250, RC,0,39.9586186,-88.445067899,0,0.0,0.0,0.0,0.0,0.0,0.0,0.0,0.0,0.0,0.0,0.0,0.0,0.0,1500,1500,0.0,0.0,40.0484551667,-88.233024,0.0,0.0,0.0,0.0,0.0,0.0,0.0,0.0,0.0,0.0,0.0,0,0.0,0.0,0.0,0.0,90.0,60.0,60.0,96.19325256350001,115.1008605957,125.54141998290001,50.8259963989,15.6041917801,2.3000001907,0,2,25,1,74,5888
163,1530636073301,762301, RC,0,39.9586186,-88.445067899,0,0.0,0.0,0.0,0.0,0.0,0.0,0.0,0.0,0.0,0.0,0.0,0.0,0.0,1500,1500,0.0,0.0,40.0484551667,-88.233024,0.0,0.0,0.0,0.0,0.0,0.0,0.0,0.0,0.0,0.0,0.0,0,0.0,0.0,0.0,0.0,90.0,60.0,60.0,93.77409362790002,120.6394424438,123.0586013794,50.8259963989,15.6041917801,2.3000001907,0,2,25,1,136,5890
164,1530636073352,762352, RC,0,39.9586186,-88.445067899,0,0.0,0.0,0.0,0.0,0.0,0.0,0.0,0.0,0.0,0.0,0.0,0.0,0.0,1500,1500,0.0,0.0,40.0484551667,-88.233024,0.0,0.0,0.0,0.0,0.0,0.0,0.0,0.0,0.0,0.0,0.0,0,0.0,0.0,0.0,0.0,90.0,60.0,60.0,93.8377532959,118.6022567749,124.0135345459,50.8259963989,15.6041917801,2.3000001907,0,2,25,1,137,5891
