,(0)linux time (ms),    (1)uptime  (ms),      (2)drive mode,(3)mpc step counter,(4)mpc origin latitude  (deg),(5)mpc origin longitude  (deg),(6)closest trajectory point index to robot,(7)mpc error x (W;E)  (m),(8)mpc error y (W;E)  (m),(9)abs mpc error (m),(10)input [x] for mhe (m),(11)input [y] for mhe (m),(12)input [speed] for mhe (m/s),(13)input [vyaw] for mhe (rad/s),(14)mhe output x  (m),(15)mhe output y  (m),(16)mhe output speed  (m/s),(17)mhe output yaw  (rad),(18)mpc reference heading (rad),(19)mpc turn rate command (rad/s),(20)turn rate command as PWM,(21)throttle command as PWM,(22)primary gps latitude (deg),(23)primary gps longitude (deg),(24)secondary gps latitude  (deg),(25)secondary gps longitude (deg),(26)accelerometer x (m/s^2),(27)accelerometer y (m/s^2),(28)accelerometer z (m/s^2),(29)gyro yaw rate (rad/s),(30)gyro pitch rate   (rad/s),(31)gyro roll rate (rad/s),      (32)yaw (rad),  (33)pitch   (rad),     (34)roll (rad),(35)sonar1 measurement (m),(36)ultrasonic sensor measurement (m),(37)primary gps time (s),(38)normalized turn rate command,(39)normalized throttle command,(40)speed calculation from encoder left (m/s),(41)speed calculation from encoder right (m/s),(42)front gimbal target angle (degrees from straight down),(43)left gimbal target angle  (degrees from straight down),(44)right gimbal target angle  (degrees from straight down),(45)front gimbal measured angle  (degrees from straight down),(46)left gimbal measured angle    (degrees from straight down),(47)right gimbal measured angle  (degrees from straight down),(48)internal temperature (C),(49)battery voltage (V),(50)primary gps type,(51)secondary gps type,    (52)MPC R value, (53)MPC Q[0] value,Unnamed: 54,weed_num,start
0,1530630233978,2146978, RC,0,39.9586186,-88.445067899,0,0.0,0.0,0.0,0.0,0.0,0.0,0.0,0.0,0.0,0.0,0.0,0.0,0.0,1500,1500,0.0,0.0,40.048358666700004,-88.2326768333,0.0,0.0,0.0,0.0,0.0,0.0,0.0,0.0,0.0,0.0,0.0,0,0.0,0.0,0.0,0.0,90.0,90.0,84.0,90.0816955566,89.5724029541,90.0816955566,38.450996398899996,15.1999359131,3.5099999905000003,0,2,25,1,80,6
1,1530630234029,2147029, RC,0,39.9586186,-88.445067899,0,0.0,0.0,0.0,0.0,0.0,0.0,0.0,0.0,0.0,0.0,0.0,0.0,0.0,1500,1500,0.0,0.0,40.0483563333,-88.2326758333,0.0,0.0,0.0,0.0,0.0,0.0,0.0,0.0,0.0,0.0,0.0,0,0.0,0.0,0.0,0.0,90.0,90.0,84.0,90.0816955566,89.5724029541,91.9915542603,38.450996398899996,15.1999359131,3.5099999905000003,0,2,25,1,90,8
2,1530630234079,2147079, RC,0,39.9586186,-88.445067899,0,0.0,0.0,0.0,0.0,0.0,0.0,0.0,0.0,0.0,0.0,0.0,0.0,0.0,1500,1500,0.0,0.0,40.0483563333,-88.2326758333,0.0,0.0,0.0,0.0,0.0,0.0,0.0,0.0,0.0,0.0,0.0,0,0.0,0.0,0.0,0.0,90.0,90.0,81.0,90.0816955566,89.5724029541,97.02085876459999,38.450996398899996,15.1999359131,3.5099999905000003,0,2,25,1,106,10
3,1530630234130,2147130, RC,0,39.9586186,-88.445067899,0,0.0,0.0,0.0,0.0,0.0,0.0,0.0,0.0,0.0,0.0,0.0,0.0,0.0,1500,1500,0.0,0.0,40.0483563333,-88.2326758333,0.0,0.0,0.0,0.0,0.0,0.0,0.0,0.0,0.0,0.0,0.0,0,0.0,0.0,0.0,0.0,90.0,90.0,81.0,90.0816955566,89.5724029541,97.91212463379999,38.450996398899996,15.1999359131,3.5099999905000003,0,2,25,1,82,12
4,1530630234181,2147181, RC,0,39.9586186,-88.445067899,0,0.0,0.0,0.0,0.0,0.0,0.0,0.0,0.0,0.0,0.0,0.0,0.0,0.0,1500,1500,0.0,0.0,40.0483563333,-88.2326758333,0.0,0.0,0.0,0.0,0.0,0.0,0.0,0.0,0.0,0.0,0.0,0,0.0,0.0,0.0,0.0,90.0,90.0,81.0,90.0816955566,89.5724029541,98.1031036377,38.450996398899996,15.1999359131,3.5099999905000003,0,2,25,1,71,14
5,1530630234231,2147231, RC,0,39.9586186,-88.445067899,0,0.0,0.0,0.0,0.0,0.0,0.0,0.0,0.0,0.0,0.0,0.0,0.0,0.0,1500,1500,0.0,0.0,40.0483563333,-88.2326758333,0.0,0.0,0.0,0.0,0.0,0.0,0.0,0.0,0.0,0.0,0.0,0,0.0,0.0,0.0,0.0,90.0,90.0,73.0,90.0816955566,89.5724029541,98.1031036377,38.450996398899996,15.1999359131,3.5099999905000003,0,2,25,1,68,16
6,1530630234282,2147282, RC,0,39.9586186,-88.445067899,0,0.0,0.0,0.0,0.0,0.0,0.0,0.0,0.0,0.0,0.0,0.0,0.0,0.0,1500,1500,0.0,0.0,40.0483563333,-88.2326758333,0.0,0.0,0.0,0.0,0.0,0.0,0.0,0.0,0.0,0.0,0.0,0,0.0,0.0,0.0,0.0,90.0,90.0,73.0,90.0816955566,89.5087432861,98.1031036377,38.450996398899996,15.1999359131,3.5099999905000003,0,2,25,1,61,18
7,1530630234332,2147332, RC,0,39.9586186,-88.445067899,0,0.0,0.0,0.0,0.0,0.0,0.0,0.0,0.0,0.0,0.0,0.0,0.0,0.0,1500,1500,0.0,0.0,40.0483563333,-88.2326758333,0.0,0.0,0.0,0.0,0.0,0.0,0.0,0.0,0.0,0.0,0.0,0,0.0,0.0,0.0,0.0,90.0,90.0,73.0,90.0816955566,89.5087432861,103.387046814,38.450996398899996,15.1999359131,3.5099999905000003,0,2,25,1,61,20
8,1530630234383,2147383, RC,0,39.9586186,-88.445067899,0,0.0,0.0,0.0,0.0,0.0,0.0,0.0,0.0,0.0,0.0,0.0,0.0,0.0,1500,1500,0.0,0.0,40.0483563333,-88.2326758333,0.0,0.0,0.0,0.0,0.0,0.0,0.0,0.0,0.0,0.0,0.0,0,0.0,0.0,0.0,0.0,90.0,90.0,73.0,90.0816955566,89.5724029541,107.0794448853,38.450996398899996,15.1999359131,3.5099999905000003,0,2,25,1,62,22
9,1530630234433,2147433, RC,0,39.9586186,-88.445067899,0,0.0,0.0,0.0,0.0,0.0,0.0,0.0,0.0,0.0,0.0,0.0,0.0,0.0,1500,1500,0.0,0.0,40.0483563333,-88.2326758333,0.0,0.0,0.0,0.0,0.0,0.0,0.0,0.0,0.0,0.0,0.0,0,0.0,0.0,0.0,0.0,90.0,90.0,72.0,90.0816955566,89.5087432861,107.0794448853,38.450996398899996,15.1999359131,3.5099999905000003,0,2,25,1,59,24
10,1530630234484,2147484, RC,0,39.9586186,-88.445067899,0,0.0,0.0,0.0,0.0,0.0,0.0,0.0,0.0,0.0,0.0,0.0,0.0,0.0,1500,1500,0.0,0.0,40.0483563333,-88.2326758333,0.0,0.0,0.0,0.0,0.0,0.0,0.0,0.0,0.0,0.0,0.0,0,0.0,0.0,0.0,0.0,90.0,90.0,72.0,90.0816955566,89.5087432861,107.01578521729999,38.450996398899996,15.1999359131,3.5099999905000003,0,2,25,1,53,26
11,1530630234534,2147534, RC,0,39.9586186,-88.445067899,0,0.0,0.0,0.0,0.0,0.0,0.0,0.0,0.0,0.0,0.0,0.0,0.0,0.0,1500,1500,0.0,0.0,40.0483563333,-88.2326758333,0.0,0.0,0.0,0.0,0.0,0.0,0.0,0.0,0.0,0.0,0.0,0,0.0,0.0,0.0,0.0,90.0,90.0,70.0,90.0816955566,89.5087432861,107.01578521729999,38.450996398899996,15.1999359131,3.5099999905000003,0,2,25,1,54,28
12,1530630234585,2147585, RC,0,39.9586186,-88.445067899,0,0.0,0.0,0.0,0.0,0.0,0.0,0.0,0.0,0.0,0.0,0.0,0.0,0.0,1500,1500,0.0,0.0,40.0483563333,-88.2326758333,0.0,0.0,0.0,0.0,0.0,0.0,0.0,0.0,0.0,0.0,0.0,0,0.0,0.0,0.0,0.0,90.0,90.0,70.0,90.0816955566,89.5087432861,107.01578521729999,38.450996398899996,15.1999359131,3.5099999905000003,0,2,25,1,59,30
13,1530630234635,2147635, RC,0,39.9586186,-88.445067899,0,0.0,0.0,0.0,0.0,0.0,0.0,0.0,0.0,0.0,0.0,0.0,0.0,0.0,1500,1500,0.0,0.0,40.0483563333,-88.2326758333,0.0,0.0,0.0,0.0,0.0,0.0,0.0,0.0,0.0,0.0,0.0,0,0.0,0.0,0.0,0.0,90.0,90.0,69.0,90.0816955566,89.5087432861,107.01578521729999,38.450996398899996,15.1999359131,3.5099999905000003,0,2,25,1,55,32
14,1530630234686,2147686, RC,0,39.9586186,-88.445067899,0,0.0,0.0,0.0,0.0,0.0,0.0,0.0,0.0,0.0,0.0,0.0,0.0,0.0,1500,1500,0.0,0.0,40.0483563333,-88.2326758333,0.0,0.0,0.0,0.0,0.0,0.0,0.0,0.0,0.0,0.0,0.0,0,0.0,0.0,0.0,0.0,90.0,90.0,69.0,90.0816955566,89.5087432861,107.0794448853,38.450996398899996,15.1999359131,3.5099999905000003,0,2,25,1,58,34
15,1530630234737,2147737, RC,0,39.9586186,-88.445067899,0,0.0,0.0,0.0,0.0,0.0,0.0,0.0,0.0,0.0,0.0,0.0,0.0,0.0,1500,1500,0.0,0.0,40.0483563333,-88.2326758333,0.0,0.0,0.0,0.0,0.0,0.0,0.0,0.0,0.0,0.0,0.0,0,0.0,0.0,0.0,0.0,90.0,90.0,67.0,90.0816955566,89.5087432861,110.1988830566,38.450996398899996,15.1999359131,3.5099999905000003,0,2,25,1,55,37
16,1530630234787,2147787, RC,0,39.9586186,-88.445067899,0,0.0,0.0,0.0,0.0,0.0,0.0,0.0,0.0,0.0,0.0,0.0,0.0,0.0,1500,1500,0.0,0.0,40.0483563333,-88.2326758333,0.0,0.0,0.0,0.0,0.0,0.0,0.0,0.0,0.0,0.0,0.0,0,0.0,0.0,0.0,0.0,90.0,90.0,67.0,90.0816955566,89.5087432861,111.4721221924,38.450996398899996,15.1999359131,3.5099999905000003,0,2,25,1,58,39
17,1530630234838,2147838, RC,0,39.9586186,-88.445067899,0,0.0,0.0,0.0,0.0,0.0,0.0,0.0,0.0,0.0,0.0,0.0,0.0,0.0,1500,1500,0.0,0.0,40.0483563333,-88.2326758333,0.0,0.0,0.0,0.0,0.0,0.0,0.0,0.0,0.0,0.0,0.0,0,0.0,0.0,0.0,0.0,90.0,90.0,66.0,90.0816955566,89.5087432861,111.726776123,38.450996398899996,15.1999359131,3.5099999905000003,0,2,25,1,47,41
18,1530630234888,2147888, RC,0,39.9586186,-88.445067899,0,0.0,0.0,0.0,0.0,0.0,0.0,0.0,0.0,0.0,0.0,0.0,0.0,0.0,1500,1500,0.0,0.0,40.0483563333,-88.2326758333,0.0,0.0,0.0,0.0,0.0,0.0,0.0,0.0,0.0,0.0,0.0,0,0.0,0.0,0.0,0.0,90.0,90.0,66.0,90.0816955566,89.5087432861,111.726776123,38.450996398899996,15.1999359131,3.5099999905000003,0,2,25,1,50,43
19,1530630234939,2147939, RC,0,39.9586186,-88.445067899,0,0.0,0.0,0.0,0.0,0.0,0.0,0.0,0.0,0.0,0.0,0.0,0.0,0.0,1500,1500,0.0,0.0,40.0483563333,-88.2326758333,0.0,0.0,0.0,0.0,0.0,0.0,0.0,0.0,0.0,0.0,0.0,0,0.0,0.0,0.0,0.0,90.0,90.0,64.0,90.0816955566,89.5087432861,111.726776123,38.450996398899996,15.195142745999998,2.8499999045999997,0,2,25,1,55,45
20,1530630234989,2147989, RC,0,39.9586186,-88.445067899,0,0.0,0.0,0.0,0.0,0.0,0.0,0.0,0.0,0.0,0.0,0.0,0.0,0.0,1500,1500,0.0,0.0,40.0483565,-88.2326753333,0.0,0.0,0.0,0.0,0.0,0.0,0.0,0.0,0.0,0.0,0.0,0,0.0,0.0,0.0,0.0,90.0,90.0,64.0,90.0816955566,89.5087432861,113.8276138306,38.450996398899996,15.195142745999998,2.8499999045999997,0,2,25,1,57,47
21,1530630235040,2148040, RC,0,39.9586186,-88.445067899,0,0.0,0.0,0.0,0.0,0.0,0.0,0.0,0.0,0.0,0.0,0.0,0.0,0.0,1500,1500,0.0,0.0,40.0483565,-88.2326753333,0.0,0.0,0.0,0.0,0.0,0.0,0.0,0.0,0.0,0.0,0.0,0,0.0,0.0,0.0,0.0,90.0,90.0,64.0,90.0816955566,89.5087432861,114.8461990356,38.450996398899996,15.195142745999998,2.8499999045999997,0,2,25,1,53,49
22,1530630235091,2148091, RC,0,39.9586186,-88.445067899,0,0.0,0.0,0.0,0.0,0.0,0.0,0.0,0.0,0.0,0.0,0.0,0.0,0.0,1500,1500,0.0,0.0,40.0483565,-88.2326753333,0.0,0.0,0.0,0.0,0.0,0.0,0.0,0.0,0.0,0.0,0.0,0,0.0,0.0,0.0,0.0,90.0,90.0,64.0,90.0816955566,89.5087432861,114.8461990356,38.450996398899996,15.195142745999998,2.8499999045999997,0,2,25,1,44,51
23,1530630235141,2148141, RC,0,39.9586186,-88.445067899,0,0.0,0.0,0.0,0.0,0.0,0.0,0.0,0.0,0.0,0.0,0.0,0.0,0.0,1500,1500,0.0,0.0,40.0483565,-88.2326753333,0.0,0.0,0.0,0.0,0.0,0.0,0.0,0.0,0.0,0.0,0.0,0,0.0,0.0,0.0,0.0,90.0,90.0,64.0,90.0816955566,89.5087432861,114.8461990356,38.450996398899996,15.195142745999998,2.8499999045999997,0,2,25,1,49,53
24,1530630235192,2148192, RC,0,39.9586186,-88.445067899,0,0.0,0.0,0.0,0.0,0.0,0.0,0.0,0.0,0.0,0.0,0.0,0.0,0.0,1500,1500,0.0,0.0,40.0483565,-88.2326753333,0.0,0.0,0.0,0.0,0.0,0.0,0.0,0.0,0.0,0.0,0.0,0,0.0,0.0,0.0,0.0,90.0,90.0,64.0,90.0816955566,89.5087432861,114.8461990356,38.450996398899996,15.195142745999998,2.8499999045999997,0,2,25,1,57,55
25,1530630235242,2148242, RC,0,39.9586186,-88.445067899,0,0.0,0.0,0.0,0.0,0.0,0.0,0.0,0.0,0.0,0.0,0.0,0.0,0.0,1500,1500,0.0,0.0,40.0483565,-88.2326753333,0.0,0.0,0.0,0.0,0.0,0.0,0.0,0.0,0.0,0.0,0.0,0,0.0,0.0,0.0,0.0,90.0,90.0,60.0,90.0816955566,89.5087432861,114.8461990356,38.450996398899996,15.195142745999998,2.8499999045999997,0,2,25,1,55,57
26,1530630235293,2148293, RC,0,39.9586186,-88.445067899,0,0.0,0.0,0.0,0.0,0.0,0.0,0.0,0.0,0.0,0.0,0.0,0.0,0.0,1500,1500,0.0,0.0,40.0483565,-88.2326753333,0.0,0.0,0.0,0.0,0.0,0.0,0.0,0.0,0.0,0.0,0.0,0,0.0,0.0,0.0,0.0,90.0,90.0,60.0,90.0816955566,89.5087432861,114.8461990356,38.450996398899996,15.195142745999998,2.8499999045999997,0,2,25,1,54,59
27,1530630235343,2148343, RC,0,39.9586186,-88.445067899,0,0.0,0.0,0.0,0.0,0.0,0.0,0.0,0.0,0.0,0.0,0.0,0.0,0.0,1500,1500,0.0,0.0,40.0483565,-88.2326753333,0.0,0.0,0.0,0.0,0.0,0.0,0.0,0.0,0.0,0.0,0.0,0,0.0,0.0,0.0,0.0,90.0,90.0,60.0,90.0816955566,89.5087432861,117.39268493649999,38.450996398899996,15.195142745999998,2.8499999045999997,0,2,25,1,51,61
28,1530630235394,2148394, RC,0,39.9586186,-88.445067899,0,0.0,0.0,0.0,0.0,0.0,0.0,0.0,0.0,0.0,0.0,0.0,0.0,0.0,1500,1500,0.0,0.0,40.0483565,-88.2326753333,0.0,0.0,0.0,0.0,0.0,0.0,0.0,0.0,0.0,0.0,0.0,0,0.0,0.0,0.0,0.0,90.0,90.0,60.0,90.0816955566,89.5087432861,119.3025436401,38.450996398899996,15.195142745999998,2.8499999045999997,0,2,25,1,48,64
29,1530630235444,2148444, RC,0,39.9586186,-88.445067899,0,0.0,0.0,0.0,0.0,0.0,0.0,0.0,0.0,0.0,0.0,0.0,0.0,0.0,1500,1500,0.0,0.0,40.0483565,-88.2326753333,0.0,0.0,0.0,0.0,0.0,0.0,0.0,0.0,0.0,0.0,0.0,0,0.0,0.0,0.0,0.0,90.0,90.0,58.0,90.0816955566,89.5087432861,119.3025436401,38.450996398899996,15.195142745999998,2.8499999045999997,0,2,25,1,45,66
30,1530630235515,2148515, RC,0,39.9586186,-88.445067899,0,0.0,0.0,0.0,0.0,0.0,0.0,0.0,0.0,0.0,0.0,0.0,0.0,0.0,1500,1500,0.0,0.0,40.0483565,-88.2326753333,0.0,0.0,0.0,0.0,0.0,0.0,0.0,0.0,0.0,0.0,0.0,0,0.0,0.0,0.0,0.0,90.0,90.0,58.0,90.0816955566,89.5087432861,119.42987060549999,38.9899978638,15.195142745999998,2.8499999045999997,0,2,25,1,54,69
31,1530630235565,2148565, RC,0,39.9586186,-88.445067899,0,0.0,0.0,0.0,0.0,0.0,0.0,0.0,0.0,0.0,0.0,0.0,0.0,0.0,1500,1500,0.0,0.0,40.0483565,-88.2326753333,0.0,0.0,0.0,0.0,0.0,0.0,0.0,0.0,0.0,0.0,0.0,0,0.0,0.0,0.0,0.0,90.0,90.0,58.0,90.0816955566,89.5087432861,121.7217025757,38.9899978638,15.195142745999998,2.8499999045999997,0,2,25,1,44,71
32,1530630235616,2148616, RC,0,39.9586186,-88.445067899,0,0.0,0.0,0.0,0.0,0.0,0.0,0.0,0.0,0.0,0.0,0.0,0.0,0.0,1500,1500,0.0,0.0,40.0483565,-88.2326753333,0.0,0.0,0.0,0.0,0.0,0.0,0.0,0.0,0.0,0.0,0.0,0,0.0,0.0,0.0,0.0,90.0,90.0,58.0,90.0816955566,89.5087432861,122.8676147461,38.9899978638,15.195142745999998,2.8499999045999997,0,2,25,1,45,73
33,1530630235666,2148666, RC,0,39.9586186,-88.445067899,0,0.0,0.0,0.0,0.0,0.0,0.0,0.0,0.0,0.0,0.0,0.0,0.0,0.0,1500,1500,0.0,0.0,40.0483565,-88.2326753333,0.0,0.0,0.0,0.0,0.0,0.0,0.0,0.0,0.0,0.0,0.0,0,0.0,0.0,0.0,0.0,90.0,90.0,58.0,90.0816955566,89.5087432861,122.8676147461,38.9899978638,15.195142745999998,2.8499999045999997,0,2,25,1,53,75
34,1530630235716,2148716, RC,0,39.9586186,-88.445067899,0,0.0,0.0,0.0,0.0,0.0,0.0,0.0,0.0,0.0,0.0,0.0,0.0,0.0,1500,1500,0.0,0.0,40.0483565,-88.2326753333,0.0,0.0,0.0,0.0,0.0,0.0,0.0,0.0,0.0,0.0,0.0,0,0.0,0.0,0.0,0.0,90.0,90.0,58.0,90.0816955566,89.5087432861,122.8039627075,38.9899978638,15.195142745999998,2.8499999045999997,0,2,25,1,77,77
35,1530630235767,2148767, RC,0,39.9586186,-88.445067899,0,0.0,0.0,0.0,0.0,0.0,0.0,0.0,0.0,0.0,0.0,0.0,0.0,0.0,1500,1500,0.0,0.0,40.0483565,-88.2326753333,0.0,0.0,0.0,0.0,0.0,0.0,0.0,0.0,0.0,0.0,0.0,0,0.0,0.0,0.0,0.0,90.0,90.0,58.0,90.0816955566,89.5087432861,122.8039627075,38.9899978638,15.195142745999998,2.8499999045999997,0,2,25,1,84,79
36,1530630235817,2148817, RC,0,39.9586186,-88.445067899,0,0.0,0.0,0.0,0.0,0.0,0.0,0.0,0.0,0.0,0.0,0.0,0.0,0.0,1500,1500,0.0,0.0,40.0483565,-88.2326753333,0.0,0.0,0.0,0.0,0.0,0.0,0.0,0.0,0.0,0.0,0.0,0,0.0,0.0,0.0,0.0,90.0,90.0,58.0,90.0816955566,89.5087432861,122.1673278809,38.9899978638,15.195142745999998,2.8499999045999997,0,2,25,1,50,81
37,1530630235867,2148867, RC,0,39.9586186,-88.445067899,0,0.0,0.0,0.0,0.0,0.0,0.0,0.0,0.0,0.0,0.0,0.0,0.0,0.0,1500,1500,0.0,0.0,40.0483565,-88.2326753333,0.0,0.0,0.0,0.0,0.0,0.0,0.0,0.0,0.0,0.0,0.0,0,0.0,0.0,0.0,0.0,90.0,90.0,60.0,90.0816955566,89.5087432861,121.84902954100001,38.9899978638,15.195142745999998,2.8499999045999997,0,2,25,1,54,83
38,1530630235918,2148918, RC,0,39.9586186,-88.445067899,0,0.0,0.0,0.0,0.0,0.0,0.0,0.0,0.0,0.0,0.0,0.0,0.0,0.0,1500,1500,0.0,0.0,40.0483565,-88.2326753333,0.0,0.0,0.0,0.0,0.0,0.0,0.0,0.0,0.0,0.0,0.0,0,0.0,0.0,0.0,0.0,90.0,90.0,60.0,90.0816955566,89.5087432861,120.51211547850001,38.9899978638,15.195142745999998,2.8499999045999997,0,2,25,1,50,85
39,1530630235968,2148968, RC,0,39.9586186,-88.445067899,0,0.0,0.0,0.0,0.0,0.0,0.0,0.0,0.0,0.0,0.0,0.0,0.0,0.0,1500,1500,0.0,0.0,40.0483565,-88.2326753333,0.0,0.0,0.0,0.0,0.0,0.0,0.0,0.0,0.0,0.0,0.0,0,0.0,0.0,0.0,0.0,90.0,90.0,60.0,90.0816955566,89.5087432861,120.0664901733,38.9899978638,15.190417289700001,2.9600000381,0,2,25,1,55,87
40,1530630236018,2149018, RC,0,39.9586186,-88.445067899,0,0.0,0.0,0.0,0.0,0.0,0.0,0.0,0.0,0.0,0.0,0.0,0.0,0.0,1500,1500,0.0,0.0,40.0483623333,-88.2326751667,0.0,0.0,0.0,0.0,0.0,0.0,0.0,0.0,0.0,0.0,0.0,0,0.0,0.0,0.0,0.0,90.0,90.0,60.0,90.0816955566,89.5087432861,119.81184387209998,38.9899978638,15.190417289700001,2.9600000381,0,2,25,1,53,89
41,1530630236069,2149069, RC,0,39.9586186,-88.445067899,0,0.0,0.0,0.0,0.0,0.0,0.0,0.0,0.0,0.0,0.0,0.0,0.0,0.0,1500,1500,0.0,0.0,40.0483623333,-88.2326751667,0.0,0.0,0.0,0.0,0.0,0.0,0.0,0.0,0.0,0.0,0.0,0,0.0,0.0,0.0,0.0,90.0,90.0,64.0,90.0816955566,89.5087432861,119.62085723879999,38.9899978638,15.190417289700001,2.9600000381,0,2,25,1,49,91
42,1530630236119,2149119, RC,0,39.9586186,-88.445067899,0,0.0,0.0,0.0,0.0,0.0,0.0,0.0,0.0,0.0,0.0,0.0,0.0,0.0,1500,1500,0.0,0.0,40.0483623333,-88.2326751667,0.0,0.0,0.0,0.0,0.0,0.0,0.0,0.0,0.0,0.0,0.0,0,0.0,0.0,0.0,0.0,90.0,90.0,64.0,90.0816955566,89.5087432861,118.9205703735,38.9899978638,15.190417289700001,2.9600000381,0,2,25,1,48,93
43,1530630236169,2149169, RC,0,39.9586186,-88.445067899,0,0.0,0.0,0.0,0.0,0.0,0.0,0.0,0.0,0.0,0.0,0.0,0.0,0.0,1500,1500,0.0,0.0,40.0483623333,-88.2326751667,0.0,0.0,0.0,0.0,0.0,0.0,0.0,0.0,0.0,0.0,0.0,0,0.0,0.0,0.0,0.0,90.0,90.0,64.0,90.0816955566,89.5087432861,115.3554992676,38.9899978638,15.190417289700001,2.9600000381,0,2,25,1,52,95
44,1530630236220,2149220, RC,0,39.9586186,-88.445067899,0,0.0,0.0,0.0,0.0,0.0,0.0,0.0,0.0,0.0,0.0,0.0,0.0,0.0,1500,1500,0.0,0.0,40.0483623333,-88.2326751667,0.0,0.0,0.0,0.0,0.0,0.0,0.0,0.0,0.0,0.0,0.0,0,0.0,0.0,0.0,0.0,90.0,90.0,64.0,90.0816955566,89.5087432861,115.291847229,38.9899978638,15.190417289700001,2.9600000381,0,2,25,1,57,97
45,1530630236270,2149270, RC,0,39.9586186,-88.445067899,0,0.0,0.0,0.0,0.0,0.0,0.0,0.0,0.0,0.0,0.0,0.0,0.0,0.0,1500,1500,0.0,0.0,40.0483623333,-88.2326751667,0.0,0.0,0.0,0.0,0.0,0.0,0.0,0.0,0.0,0.0,0.0,0,0.0,0.0,0.0,0.0,90.0,90.0,64.0,90.01803588870001,89.44507598879999,115.2281723022,38.9899978638,15.190417289700001,2.9600000381,0,2,25,1,53,99
46,1530630236320,2149320, RC,0,39.9586186,-88.445067899,0,0.0,0.0,0.0,0.0,0.0,0.0,0.0,0.0,0.0,0.0,0.0,0.0,0.0,1500,1500,0.0,0.0,40.0483623333,-88.2326751667,0.0,0.0,0.0,0.0,0.0,0.0,0.0,0.0,0.0,0.0,0.0,0,0.0,0.0,0.0,0.0,90.0,90.0,64.0,89.8907089233,89.44507598879999,115.2281723022,38.9899978638,15.190417289700001,2.9600000381,0,2,25,1,60,101
47,1530630236371,2149371, RC,0,39.9586186,-88.445067899,0,0.0,0.0,0.0,0.0,0.0,0.0,0.0,0.0,0.0,0.0,0.0,0.0,0.0,1500,1500,0.0,0.0,40.0483623333,-88.2326751667,0.0,0.0,0.0,0.0,0.0,0.0,0.0,0.0,0.0,0.0,0.0,0,0.0,0.0,0.0,0.0,90.0,90.0,64.0,89.8907089233,89.44507598879999,115.2281723022,38.9899978638,15.190417289700001,2.9600000381,0,2,25,1,59,103
48,1530630236421,2149421, RC,0,39.9586186,-88.445067899,0,0.0,0.0,0.0,0.0,0.0,0.0,0.0,0.0,0.0,0.0,0.0,0.0,0.0,1500,1500,0.0,0.0,40.0483623333,-88.2326751667,0.0,0.0,0.0,0.0,0.0,0.0,0.0,0.0,0.0,0.0,0.0,0,0.0,0.0,0.0,0.0,90.0,90.0,64.0,89.8907089233,89.44507598879999,115.2281723022,38.9899978638,15.190417289700001,2.9600000381,0,2,25,1,63,105
49,1530630236471,2149471, RC,0,39.9586186,-88.445067899,0,0.0,0.0,0.0,0.0,0.0,0.0,0.0,0.0,0.0,0.0,0.0,0.0,0.0,1500,1500,0.0,0.0,40.0483623333,-88.2326751667,0.0,0.0,0.0,0.0,0.0,0.0,0.0,0.0,0.0,0.0,0.0,0,0.0,0.0,0.0,0.0,90.0,90.0,64.0,89.8907089233,89.44507598879999,115.2281723022,38.9899978638,15.190417289700001,2.9600000381,0,2,25,1,51,107
50,1530630236522,2149522, RC,0,39.9586186,-88.445067899,0,0.0,0.0,0.0,0.0,0.0,0.0,0.0,0.0,0.0,0.0,0.0,0.0,0.0,1500,1500,0.0,0.0,40.0483623333,-88.2326751667,0.0,0.0,0.0,0.0,0.0,0.0,0.0,0.0,0.0,0.0,0.0,0,0.0,0.0,0.0,0.0,90.0,90.0,64.0,89.8907089233,89.44507598879999,115.2281723022,38.9899978638,15.190417289700001,2.9600000381,0,2,25,1,56,109
51,1530630236572,2149572, RC,0,39.9586186,-88.445067899,0,0.0,0.0,0.0,0.0,0.0,0.0,0.0,0.0,0.0,0.0,0.0,0.0,0.0,1500,1500,0.0,0.0,40.0483623333,-88.2326751667,0.0,0.0,0.0,0.0,0.0,0.0,0.0,0.0,0.0,0.0,0.0,0,0.0,0.0,0.0,0.0,90.0,90.0,64.0,89.8907089233,89.44507598879999,115.2281723022,38.9899978638,15.190417289700001,2.9600000381,0,2,25,1,52,112
52,1530630236622,2149622, RC,0,39.9586186,-88.445067899,0,0.0,0.0,0.0,0.0,0.0,0.0,0.0,0.0,0.0,0.0,0.0,0.0,0.0,1500,1500,0.0,0.0,40.0483623333,-88.2326751667,0.0,0.0,0.0,0.0,0.0,0.0,0.0,0.0,0.0,0.0,0.0,0,0.0,0.0,0.0,0.0,90.0,90.0,64.0,89.8907089233,89.44507598879999,115.16451263430001,38.9899978638,15.190417289700001,2.9600000381,0,2,25,1,53,114
53,1530630236673,2149673, RC,0,39.9586186,-88.445067899,0,0.0,0.0,0.0,0.0,0.0,0.0,0.0,0.0,0.0,0.0,0.0,0.0,0.0,1500,1500,0.0,0.0,40.0483623333,-88.2326751667,0.0,0.0,0.0,0.0,0.0,0.0,0.0,0.0,0.0,0.0,0.0,0,0.0,0.0,0.0,0.0,90.0,90.0,64.0,89.8907089233,89.44507598879999,115.16451263430001,38.9899978638,15.190417289700001,2.9600000381,0,2,25,1,59,116
54,1530630236723,2149723, RC,0,39.9586186,-88.445067899,0,0.0,0.0,0.0,0.0,0.0,0.0,0.0,0.0,0.0,0.0,0.0,0.0,0.0,1500,1500,0.0,0.0,40.0483623333,-88.2326751667,0.0,0.0,0.0,0.0,0.0,0.0,0.0,0.0,0.0,0.0,0.0,0,0.0,0.0,0.0,0.0,90.0,90.0,64.0,89.8907089233,89.44507598879999,115.16451263430001,38.9899978638,15.190417289700001,2.9600000381,0,2,25,1,57,118
55,1530630236773,2149773, RC,0,39.9586186,-88.445067899,0,0.0,0.0,0.0,0.0,0.0,0.0,0.0,0.0,0.0,0.0,0.0,0.0,0.0,1500,1500,0.0,0.0,40.0483623333,-88.2326751667,0.0,0.0,0.0,0.0,0.0,0.0,0.0,0.0,0.0,0.0,0.0,0,0.0,0.0,0.0,0.0,90.0,90.0,64.0,89.8907089233,89.44507598879999,115.16451263430001,38.9899978638,15.190417289700001,2.9600000381,0,2,25,1,62,120
56,1530630236824,2149824, RC,0,39.9586186,-88.445067899,0,0.0,0.0,0.0,0.0,0.0,0.0,0.0,0.0,0.0,0.0,0.0,0.0,0.0,1500,1500,0.0,0.0,40.0483623333,-88.2326751667,0.0,0.0,0.0,0.0,0.0,0.0,0.0,0.0,0.0,0.0,0.0,0,0.0,0.0,0.0,0.0,90.0,90.0,64.0,89.8907089233,89.44507598879999,115.16451263430001,38.9899978638,15.190417289700001,2.9600000381,0,2,25,1,59,122
57,1530630236874,2149874, RC,0,39.9586186,-88.445067899,0,0.0,0.0,0.0,0.0,0.0,0.0,0.0,0.0,0.0,0.0,0.0,0.0,0.0,1500,1500,0.0,0.0,40.0483623333,-88.2326751667,0.0,0.0,0.0,0.0,0.0,0.0,0.0,0.0,0.0,0.0,0.0,0,0.0,0.0,0.0,0.0,90.0,90.0,64.0,89.8907089233,89.44507598879999,115.16451263430001,38.9899978638,15.190417289700001,2.9600000381,0,2,25,1,60,124
58,1530630236924,2149924, RC,0,39.9586186,-88.445067899,0,0.0,0.0,0.0,0.0,0.0,0.0,0.0,0.0,0.0,0.0,0.0,0.0,0.0,1500,1500,0.0,0.0,40.0483623333,-88.2326751667,0.0,0.0,0.0,0.0,0.0,0.0,0.0,0.0,0.0,0.0,0.0,0,0.0,0.0,0.0,0.0,90.0,90.0,64.0,89.8907089233,89.44507598879999,115.16451263430001,38.9899978638,15.190417289700001,2.9600000381,0,2,25,1,57,126
59,1530630236974,2149974, RC,0,39.9586186,-88.445067899,0,0.0,0.0,0.0,0.0,0.0,0.0,0.0,0.0,0.0,0.0,0.0,0.0,0.0,1500,1500,0.0,0.0,40.0483623333,-88.2326751667,0.0,0.0,0.0,0.0,0.0,0.0,0.0,0.0,0.0,0.0,0.0,0,0.0,0.0,0.0,0.0,90.0,90.0,61.0,89.8907089233,89.44507598879999,115.16451263430001,38.9899978638,15.1908168793,3.2400000094999997,0,2,25,1,58,128
60,1530630237025,2150025, RC,0,39.9586186,-88.445067899,0,0.0,0.0,0.0,0.0,0.0,0.0,0.0,0.0,0.0,0.0,0.0,0.0,0.0,1500,1500,0.0,0.0,40.0483653333,-88.2326765,0.0,0.0,0.0,0.0,0.0,0.0,0.0,0.0,0.0,0.0,0.0,0,0.0,0.0,0.0,0.0,90.0,90.0,61.0,89.8907089233,89.44507598879999,115.16451263430001,38.9899978638,15.1908168793,3.2400000094999997,0,2,25,1,58,130
61,1530630237075,2150075, RC,0,39.9586186,-88.445067899,0,0.0,0.0,0.0,0.0,0.0,0.0,0.0,0.0,0.0,0.0,0.0,0.0,0.0,1500,1500,0.0,0.0,40.0483653333,-88.2326765,0.0,0.0,0.0,0.0,0.0,0.0,0.0,0.0,0.0,0.0,0.0,0,0.0,0.0,0.0,0.0,90.0,90.0,60.0,89.8907089233,89.44507598879999,115.16451263430001,38.9899978638,15.1908168793,3.2400000094999997,0,2,25,1,55,132
62,1530630237125,2150125, RC,0,39.9586186,-88.445067899,0,0.0,0.0,0.0,0.0,0.0,0.0,0.0,0.0,0.0,0.0,0.0,0.0,0.0,1500,1500,0.0,0.0,40.0483653333,-88.2326765,0.0,0.0,0.0,0.0,0.0,0.0,0.0,0.0,0.0,0.0,0.0,0,0.0,0.0,0.0,0.0,90.0,90.0,60.0,89.8907089233,89.44507598879999,115.3554992676,38.9899978638,15.1908168793,3.2400000094999997,0,2,25,1,56,134
63,1530630237176,2150176, RC,0,39.9586186,-88.445067899,0,0.0,0.0,0.0,0.0,0.0,0.0,0.0,0.0,0.0,0.0,0.0,0.0,0.0,1500,1500,0.0,0.0,40.0483653333,-88.2326765,0.0,0.0,0.0,0.0,0.0,0.0,0.0,0.0,0.0,0.0,0.0,0,0.0,0.0,0.0,0.0,90.0,90.0,58.0,89.8907089233,89.44507598879999,118.6659317017,38.9899978638,15.1908168793,3.2400000094999997,0,2,25,1,58,136
64,1530630237226,2150226, RC,0,39.9586186,-88.445067899,0,0.0,0.0,0.0,0.0,0.0,0.0,0.0,0.0,0.0,0.0,0.0,0.0,0.0,1500,1500,0.0,0.0,40.0483653333,-88.2326765,0.0,0.0,0.0,0.0,0.0,0.0,0.0,0.0,0.0,0.0,0.0,0,0.0,0.0,0.0,0.0,90.0,90.0,58.0,89.8907089233,89.44507598879999,120.8940887451,38.9899978638,15.1908168793,3.2400000094999997,0,2,25,1,50,138
65,1530630237276,2150276, RC,0,39.9586186,-88.445067899,0,0.0,0.0,0.0,0.0,0.0,0.0,0.0,0.0,0.0,0.0,0.0,0.0,0.0,1500,1500,0.0,0.0,40.0483653333,-88.2326765,0.0,0.0,0.0,0.0,0.0,0.0,0.0,0.0,0.0,0.0,0.0,0,0.0,0.0,0.0,0.0,90.0,90.0,57.0,89.8907089233,89.44507598879999,122.0400161743,38.9899978638,15.1908168793,3.2400000094999997,0,2,25,1,48,140
66,1530630237327,2150327, RC,0,39.9586186,-88.445067899,0,0.0,0.0,0.0,0.0,0.0,0.0,0.0,0.0,0.0,0.0,0.0,0.0,0.0,1500,1500,0.0,0.0,40.0483653333,-88.2326765,0.0,0.0,0.0,0.0,0.0,0.0,0.0,0.0,0.0,0.0,0.0,0,0.0,0.0,0.0,0.0,90.0,90.0,57.0,89.8907089233,89.44507598879999,122.10367584229999,38.9899978638,15.1908168793,3.2400000094999997,0,2,25,1,45,142
67,1530630237377,2150377, RC,0,39.9586186,-88.445067899,0,0.0,0.0,0.0,0.0,0.0,0.0,0.0,0.0,0.0,0.0,0.0,0.0,0.0,1500,1500,0.0,0.0,40.0483653333,-88.2326765,0.0,0.0,0.0,0.0,0.0,0.0,0.0,0.0,0.0,0.0,0.0,0,0.0,0.0,0.0,0.0,90.0,90.0,57.0,89.8907089233,89.44507598879999,122.10367584229999,38.9899978638,15.1908168793,3.2400000094999997,0,2,25,1,49,144
68,1530630237427,2150427, RC,0,39.9586186,-88.445067899,0,0.0,0.0,0.0,0.0,0.0,0.0,0.0,0.0,0.0,0.0,0.0,0.0,0.0,1500,1500,0.0,0.0,40.0483653333,-88.2326765,0.0,0.0,0.0,0.0,0.0,0.0,0.0,0.0,0.0,0.0,0.0,0,0.0,0.0,0.0,0.0,90.0,90.0,57.0,89.8907089233,89.44507598879999,122.10367584229999,38.9899978638,15.1908168793,3.2400000094999997,0,2,25,1,46,146
69,1530630237478,2150478, RC,0,39.9586186,-88.445067899,0,0.0,0.0,0.0,0.0,0.0,0.0,0.0,0.0,0.0,0.0,0.0,0.0,0.0,1500,1500,0.0,0.0,40.0483653333,-88.2326765,0.0,0.0,0.0,0.0,0.0,0.0,0.0,0.0,0.0,0.0,0.0,0,0.0,0.0,0.0,0.0,90.0,90.0,57.0,89.8907089233,89.44507598879999,122.10367584229999,38.9899978638,15.1908168793,3.2400000094999997,0,2,25,1,48,148
70,1530630237528,2150528, RC,0,39.9586186,-88.445067899,0,0.0,0.0,0.0,0.0,0.0,0.0,0.0,0.0,0.0,0.0,0.0,0.0,0.0,1500,1500,0.0,0.0,40.0483653333,-88.2326765,0.0,0.0,0.0,0.0,0.0,0.0,0.0,0.0,0.0,0.0,0.0,0,0.0,0.0,0.0,0.0,90.0,90.0,57.0,89.8907089233,89.44507598879999,122.10367584229999,38.9899978638,15.1908168793,3.2400000094999997,0,2,25,1,50,150
71,1530630237578,2150578, RC,0,39.9586186,-88.445067899,0,0.0,0.0,0.0,0.0,0.0,0.0,0.0,0.0,0.0,0.0,0.0,0.0,0.0,1500,1500,0.0,0.0,40.0483653333,-88.2326765,0.0,0.0,0.0,0.0,0.0,0.0,0.0,0.0,0.0,0.0,0.0,0,0.0,0.0,0.0,0.0,90.0,90.0,57.0,89.8907089233,89.44507598879999,122.10367584229999,38.9899978638,15.1908168793,3.2400000094999997,0,2,25,1,51,152
72,1530630237629,2150629, RC,0,39.9586186,-88.445067899,0,0.0,0.0,0.0,0.0,0.0,0.0,0.0,0.0,0.0,0.0,0.0,0.0,0.0,1500,1500,0.0,0.0,40.0483653333,-88.2326765,0.0,0.0,0.0,0.0,0.0,0.0,0.0,0.0,0.0,0.0,0.0,0,0.0,0.0,0.0,0.0,90.0,90.0,57.0,89.8907089233,89.44507598879999,122.10367584229999,38.9899978638,15.1908168793,3.2400000094999997,0,2,25,1,49,154
73,1530630237679,2150679, RC,0,39.9586186,-88.445067899,0,0.0,0.0,0.0,0.0,0.0,0.0,0.0,0.0,0.0,0.0,0.0,0.0,0.0,1500,1500,0.0,0.0,40.0483653333,-88.2326765,0.0,0.0,0.0,0.0,0.0,0.0,0.0,0.0,0.0,0.0,0.0,0,0.0,0.0,0.0,0.0,90.0,90.0,57.0,89.8907089233,89.44507598879999,122.10367584229999,38.9899978638,15.1908168793,3.2400000094999997,0,2,25,1,48,156
74,1530630237729,2150729, RC,0,39.9586186,-88.445067899,0,0.0,0.0,0.0,0.0,0.0,0.0,0.0,0.0,0.0,0.0,0.0,0.0,0.0,1500,1500,0.0,0.0,40.0483653333,-88.2326765,0.0,0.0,0.0,0.0,0.0,0.0,0.0,0.0,0.0,0.0,0.0,0,0.0,0.0,0.0,0.0,90.0,90.0,57.0,89.8907089233,89.44507598879999,122.10367584229999,38.9899978638,15.1908168793,3.2400000094999997,0,2,25,1,53,158
75,1530630237780,2150780, RC,0,39.9586186,-88.445067899,0,0.0,0.0,0.0,0.0,0.0,0.0,0.0,0.0,0.0,0.0,0.0,0.0,0.0,1500,1500,0.0,0.0,40.0483653333,-88.2326765,0.0,0.0,0.0,0.0,0.0,0.0,0.0,0.0,0.0,0.0,0.0,0,0.0,0.0,0.0,0.0,90.0,90.0,58.0,89.8907089233,89.44507598879999,122.10367584229999,38.9899978638,15.1908168793,3.2400000094999997,0,2,25,1,53,160
76,1530630237830,2150830, RC,0,39.9586186,-88.445067899,0,0.0,0.0,0.0,0.0,0.0,0.0,0.0,0.0,0.0,0.0,0.0,0.0,0.0,1500,1500,0.0,0.0,40.0483653333,-88.2326765,0.0,0.0,0.0,0.0,0.0,0.0,0.0,0.0,0.0,0.0,0.0,0,0.0,0.0,0.0,0.0,90.0,90.0,58.0,89.8907089233,89.3814163208,122.10367584229999,38.9899978638,15.1908168793,3.2400000094999997,0,2,25,1,57,162
77,1530630237880,2150880, RC,0,39.9586186,-88.445067899,0,0.0,0.0,0.0,0.0,0.0,0.0,0.0,0.0,0.0,0.0,0.0,0.0,0.0,1500,1500,0.0,0.0,40.0483653333,-88.2326765,0.0,0.0,0.0,0.0,0.0,0.0,0.0,0.0,0.0,0.0,0.0,0,0.0,0.0,0.0,0.0,90.0,90.0,63.0,89.8907089233,89.44507598879999,122.10367584229999,38.9899978638,15.1908168793,3.2400000094999997,0,2,25,1,48,164
78,1530630237930,2150930, RC,0,39.9586186,-88.445067899,0,0.0,0.0,0.0,0.0,0.0,0.0,0.0,0.0,0.0,0.0,0.0,0.0,0.0,1500,1500,0.0,0.0,40.0483653333,-88.2326765,0.0,0.0,0.0,0.0,0.0,0.0,0.0,0.0,0.0,0.0,0.0,0,0.0,0.0,0.0,0.0,90.0,90.0,63.0,89.8907089233,89.44507598879999,121.91268920899999,38.9899978638,15.1858596802,2.0799999237,0,2,25,1,52,166
79,1530630237981,2150981, RC,0,39.9586186,-88.445067899,0,0.0,0.0,0.0,0.0,0.0,0.0,0.0,0.0,0.0,0.0,0.0,0.0,0.0,1500,1500,0.0,0.0,40.0483681667,-88.2326755,0.0,0.0,0.0,0.0,0.0,0.0,0.0,0.0,0.0,0.0,0.0,0,0.0,0.0,0.0,0.0,90.0,90.0,63.0,89.8907089233,89.44507598879999,119.81184387209998,38.9899978638,15.1858596802,2.0799999237,0,2,25,1,54,168
80,1530630238031,2151031, RC,0,39.9586186,-88.445067899,0,0.0,0.0,0.0,0.0,0.0,0.0,0.0,0.0,0.0,0.0,0.0,0.0,0.0,1500,1500,0.0,0.0,40.0483681667,-88.2326755,0.0,0.0,0.0,0.0,0.0,0.0,0.0,0.0,0.0,0.0,0.0,0,0.0,0.0,0.0,0.0,90.0,90.0,63.0,89.8907089233,89.44507598879999,117.5200195312,38.9899978638,15.1858596802,2.0799999237,0,2,25,1,49,170
81,1530630238081,2151081, RC,0,39.9586186,-88.445067899,0,0.0,0.0,0.0,0.0,0.0,0.0,0.0,0.0,0.0,0.0,0.0,0.0,0.0,1500,1500,0.0,0.0,40.0483681667,-88.2326755,0.0,0.0,0.0,0.0,0.0,0.0,0.0,0.0,0.0,0.0,0.0,0,0.0,0.0,0.0,0.0,90.0,90.0,63.0,89.8907089233,89.44507598879999,117.13804626459999,38.9899978638,15.1858596802,2.0799999237,0,2,25,1,52,172
82,1530630238132,2151132, RC,0,39.9586186,-88.445067899,0,0.0,0.0,0.0,0.0,0.0,0.0,0.0,0.0,0.0,0.0,0.0,0.0,0.0,1500,1500,0.0,0.0,40.0483681667,-88.2326755,0.0,0.0,0.0,0.0,0.0,0.0,0.0,0.0,0.0,0.0,0.0,0,0.0,0.0,0.0,0.0,90.0,90.0,63.0,89.8907089233,89.3814163208,117.0743713379,38.9899978638,15.1858596802,2.0799999237,0,2,25,1,53,174
83,1530630238182,2151182, RC,0,39.9586186,-88.445067899,0,0.0,0.0,0.0,0.0,0.0,0.0,0.0,0.0,0.0,0.0,0.0,0.0,0.0,1500,1500,0.0,0.0,40.0483681667,-88.2326755,0.0,0.0,0.0,0.0,0.0,0.0,0.0,0.0,0.0,0.0,0.0,0,0.0,0.0,0.0,0.0,90.0,90.0,63.0,89.8907089233,89.3814163208,116.62874603270001,38.9899978638,15.1858596802,2.0799999237,0,2,25,1,64,176
84,1530630238232,2151232, RC,0,39.9586186,-88.445067899,0,0.0,0.0,0.0,0.0,0.0,0.0,0.0,0.0,0.0,0.0,0.0,0.0,0.0,1500,1500,0.0,0.0,40.0483681667,-88.2326755,0.0,0.0,0.0,0.0,0.0,0.0,0.0,0.0,0.0,0.0,0.0,0,0.0,0.0,0.0,0.0,90.0,90.0,63.0,89.8907089233,89.3814163208,116.3740844727,38.9899978638,15.1858596802,2.0799999237,0,2,25,1,58,178
85,1530630238283,2151283, RC,0,39.9586186,-88.445067899,0,0.0,0.0,0.0,0.0,0.0,0.0,0.0,0.0,0.0,0.0,0.0,0.0,0.0,1500,1500,0.0,0.0,40.0483681667,-88.2326755,0.0,0.0,0.0,0.0,0.0,0.0,0.0,0.0,0.0,0.0,0.0,0,0.0,0.0,0.0,0.0,90.0,90.0,63.0,89.8907089233,89.3814163208,116.3104324341,38.9899978638,15.1858596802,2.0799999237,0,2,25,1,55,180
86,1530630238333,2151333, RC,0,39.9586186,-88.445067899,0,0.0,0.0,0.0,0.0,0.0,0.0,0.0,0.0,0.0,0.0,0.0,0.0,0.0,1500,1500,0.0,0.0,40.0483681667,-88.2326755,0.0,0.0,0.0,0.0,0.0,0.0,0.0,0.0,0.0,0.0,0.0,0,0.0,0.0,0.0,0.0,90.0,90.0,63.0,89.8907089233,89.3814163208,116.24677276610001,38.9899978638,15.1858596802,2.0799999237,0,2,25,1,55,182
87,1530630238383,2151383, RC,0,39.9586186,-88.445067899,0,0.0,0.0,0.0,0.0,0.0,0.0,0.0,0.0,0.0,0.0,0.0,0.0,0.0,1500,1500,0.0,0.0,40.0483681667,-88.2326755,0.0,0.0,0.0,0.0,0.0,0.0,0.0,0.0,0.0,0.0,0.0,0,0.0,0.0,0.0,0.0,90.0,90.0,63.0,89.8907089233,89.3814163208,116.24677276610001,38.9899978638,15.1858596802,2.0799999237,0,2,25,1,54,184
88,1530630238434,2151434, RC,0,39.9586186,-88.445067899,0,0.0,0.0,0.0,0.0,0.0,0.0,0.0,0.0,0.0,0.0,0.0,0.0,0.0,1500,1500,0.0,0.0,40.0483681667,-88.2326755,0.0,0.0,0.0,0.0,0.0,0.0,0.0,0.0,0.0,0.0,0.0,0,0.0,0.0,0.0,0.0,90.0,90.0,63.0,89.8907089233,89.3814163208,116.24677276610001,38.9899978638,15.1858596802,2.0799999237,0,2,25,1,59,186
89,1530630238484,2151484, RC,0,39.9586186,-88.445067899,0,0.0,0.0,0.0,0.0,0.0,0.0,0.0,0.0,0.0,0.0,0.0,0.0,0.0,1500,1500,0.0,0.0,40.0483681667,-88.2326755,0.0,0.0,0.0,0.0,0.0,0.0,0.0,0.0,0.0,0.0,0.0,0,0.0,0.0,0.0,0.0,90.0,90.0,63.0,89.8907089233,89.3814163208,116.1831054688,38.9899978638,15.1858596802,2.0799999237,0,2,25,1,49,188
90,1530630238534,2151534, RC,0,39.9586186,-88.445067899,0,0.0,0.0,0.0,0.0,0.0,0.0,0.0,0.0,0.0,0.0,0.0,0.0,0.0,1500,1500,0.0,0.0,40.0483681667,-88.2326755,0.0,0.0,0.0,0.0,0.0,0.0,0.0,0.0,0.0,0.0,0.0,0,0.0,0.0,0.0,0.0,90.0,90.0,63.0,89.8907089233,89.3814163208,115.9921188354,38.9899978638,15.1858596802,2.0799999237,0,2,25,1,52,190
91,1530630238585,2151585, RC,0,39.9586186,-88.445067899,0,0.0,0.0,0.0,0.0,0.0,0.0,0.0,0.0,0.0,0.0,0.0,0.0,0.0,1500,1500,0.0,0.0,40.0483681667,-88.2326755,0.0,0.0,0.0,0.0,0.0,0.0,0.0,0.0,0.0,0.0,0.0,0,0.0,0.0,0.0,0.0,90.0,90.0,63.0,89.8907089233,89.3814163208,115.9921188354,38.9899978638,15.1858596802,2.0799999237,0,2,25,1,53,192
92,1530630238635,2151635, RC,0,39.9586186,-88.445067899,0,0.0,0.0,0.0,0.0,0.0,0.0,0.0,0.0,0.0,0.0,0.0,0.0,0.0,1500,1500,0.0,0.0,40.0483681667,-88.2326755,0.0,0.0,0.0,0.0,0.0,0.0,0.0,0.0,0.0,0.0,0.0,0,0.0,0.0,0.0,0.0,90.0,90.0,63.0,89.8907089233,89.3814163208,115.9921188354,38.9899978638,15.1858596802,2.0799999237,0,2,25,1,58,194
93,1530630238685,2151685, RC,0,39.9586186,-88.445067899,0,0.0,0.0,0.0,0.0,0.0,0.0,0.0,0.0,0.0,0.0,0.0,0.0,0.0,1500,1500,0.0,0.0,40.0483681667,-88.2326755,0.0,0.0,0.0,0.0,0.0,0.0,0.0,0.0,0.0,0.0,0.0,0,0.0,0.0,0.0,0.0,90.0,90.0,63.0,89.8907089233,89.3814163208,115.9921188354,38.9899978638,15.1858596802,2.0799999237,0,2,25,1,57,196
94,1530630238735,2151735, RC,0,39.9586186,-88.445067899,0,0.0,0.0,0.0,0.0,0.0,0.0,0.0,0.0,0.0,0.0,0.0,0.0,0.0,1500,1500,0.0,0.0,40.0483681667,-88.2326755,0.0,0.0,0.0,0.0,0.0,0.0,0.0,0.0,0.0,0.0,0.0,0,0.0,0.0,0.0,0.0,90.0,90.0,63.0,89.8907089233,89.3177566528,115.9921188354,38.9899978638,15.1858596802,2.0799999237,0,2,25,1,57,198
95,1530630238786,2151786, RC,0,39.9586186,-88.445067899,0,0.0,0.0,0.0,0.0,0.0,0.0,0.0,0.0,0.0,0.0,0.0,0.0,0.0,1500,1500,0.0,0.0,40.0483681667,-88.2326755,0.0,0.0,0.0,0.0,0.0,0.0,0.0,0.0,0.0,0.0,0.0,0,0.0,0.0,0.0,0.0,90.0,90.0,60.0,89.8907089233,89.3177566528,115.9284591675,38.9899978638,15.1858596802,2.0799999237,0,2,25,1,58,201
96,1530630238836,2151836, RC,0,39.9586186,-88.445067899,0,0.0,0.0,0.0,0.0,0.0,0.0,0.0,0.0,0.0,0.0,0.0,0.0,0.0,1500,1500,0.0,0.0,40.0483681667,-88.2326755,0.0,0.0,0.0,0.0,0.0,0.0,0.0,0.0,0.0,0.0,0.0,0,0.0,0.0,0.0,0.0,90.0,90.0,60.0,89.8907089233,89.3177566528,115.9284591675,38.9899978638,15.1858596802,2.0799999237,0,2,25,1,57,203
97,1530630238886,2151886, RC,0,39.9586186,-88.445067899,0,0.0,0.0,0.0,0.0,0.0,0.0,0.0,0.0,0.0,0.0,0.0,0.0,0.0,1500,1500,0.0,0.0,40.0483681667,-88.2326755,0.0,0.0,0.0,0.0,0.0,0.0,0.0,0.0,0.0,0.0,0.0,0,0.0,0.0,0.0,0.0,90.0,90.0,58.0,89.8907089233,89.3177566528,115.9921188354,38.9899978638,15.1858596802,2.0799999237,0,2,25,1,56,205
98,1530630238937,2151937, RC,0,39.9586186,-88.445067899,0,0.0,0.0,0.0,0.0,0.0,0.0,0.0,0.0,0.0,0.0,0.0,0.0,0.0,1500,1500,0.0,0.0,40.0483681667,-88.2326755,0.0,0.0,0.0,0.0,0.0,0.0,0.0,0.0,0.0,0.0,0.0,0,0.0,0.0,0.0,0.0,90.0,90.0,58.0,89.8907089233,89.3177566528,116.3740844727,38.9899978638,15.1811618805,3.0700001717000003,0,2,25,1,56,207
99,1530630238987,2151987, RC,0,39.9586186,-88.445067899,0,0.0,0.0,0.0,0.0,0.0,0.0,0.0,0.0,0.0,0.0,0.0,0.0,0.0,1500,1500,0.0,0.0,40.0483715,-88.2326693333,0.0,0.0,0.0,0.0,0.0,0.0,0.0,0.0,0.0,0.0,0.0,0,0.0,0.0,0.0,0.0,90.0,90.0,58.0,89.8907089233,89.3177566528,120.00283050540001,38.9899978638,15.1811618805,3.0700001717000003,0,2,25,1,47,209
100,1530630239037,2152037, RC,0,39.9586186,-88.445067899,0,0.0,0.0,0.0,0.0,0.0,0.0,0.0,0.0,0.0,0.0,0.0,0.0,0.0,1500,1500,0.0,0.0,40.0483715,-88.2326693333,0.0,0.0,0.0,0.0,0.0,0.0,0.0,0.0,0.0,0.0,0.0,0,0.0,0.0,0.0,0.0,90.0,90.0,58.0,89.8907089233,89.3177566528,122.2310028076,38.9899978638,15.1811618805,3.0700001717000003,0,2,25,1,50,211
101,1530630239088,2152088, RC,0,39.9586186,-88.445067899,0,0.0,0.0,0.0,0.0,0.0,0.0,0.0,0.0,0.0,0.0,0.0,0.0,0.0,1500,1500,0.0,0.0,40.0483715,-88.2326693333,0.0,0.0,0.0,0.0,0.0,0.0,0.0,0.0,0.0,0.0,0.0,0,0.0,0.0,0.0,0.0,90.0,90.0,57.0,89.8907089233,89.3177566528,122.2310028076,38.9899978638,15.1811618805,3.0700001717000003,0,2,25,1,54,213
102,1530630239139,2152139, RC,0,39.9586186,-88.445067899,0,0.0,0.0,0.0,0.0,0.0,0.0,0.0,0.0,0.0,0.0,0.0,0.0,0.0,1500,1500,0.0,0.0,40.0483715,-88.2326693333,0.0,0.0,0.0,0.0,0.0,0.0,0.0,0.0,0.0,0.0,0.0,0,0.0,0.0,0.0,0.0,90.0,90.0,57.0,89.8907089233,89.3814163208,122.2310028076,38.9899978638,15.1811618805,3.0700001717000003,0,2,25,1,52,215
103,1530630239189,2152189, RC,0,39.9586186,-88.445067899,0,0.0,0.0,0.0,0.0,0.0,0.0,0.0,0.0,0.0,0.0,0.0,0.0,0.0,1500,1500,0.0,0.0,40.0483715,-88.2326693333,0.0,0.0,0.0,0.0,0.0,0.0,0.0,0.0,0.0,0.0,0.0,0,0.0,0.0,0.0,0.0,90.0,90.0,57.0,89.8907089233,89.3814163208,122.2310028076,38.9899978638,15.1811618805,3.0700001717000003,0,2,25,1,56,217
104,1530630239240,2152240, RC,0,39.9586186,-88.445067899,0,0.0,0.0,0.0,0.0,0.0,0.0,0.0,0.0,0.0,0.0,0.0,0.0,0.0,1500,1500,0.0,0.0,40.0483715,-88.2326693333,0.0,0.0,0.0,0.0,0.0,0.0,0.0,0.0,0.0,0.0,0.0,0,0.0,0.0,0.0,0.0,90.0,90.0,57.0,89.8907089233,89.3814163208,122.2310028076,38.9899978638,15.1811618805,3.0700001717000003,0,2,25,1,51,219
105,1530630239290,2152290, RC,0,39.9586186,-88.445067899,0,0.0,0.0,0.0,0.0,0.0,0.0,0.0,0.0,0.0,0.0,0.0,0.0,0.0,1500,1500,0.0,0.0,40.0483715,-88.2326693333,0.0,0.0,0.0,0.0,0.0,0.0,0.0,0.0,0.0,0.0,0.0,0,0.0,0.0,0.0,0.0,90.0,90.0,57.0,89.8907089233,89.3814163208,122.2310028076,38.9899978638,15.1811618805,3.0700001717000003,0,2,25,1,52,221
106,1530630239341,2152341, RC,0,39.9586186,-88.445067899,0,0.0,0.0,0.0,0.0,0.0,0.0,0.0,0.0,0.0,0.0,0.0,0.0,0.0,1500,1500,0.0,0.0,40.0483715,-88.2326693333,0.0,0.0,0.0,0.0,0.0,0.0,0.0,0.0,0.0,0.0,0.0,0,0.0,0.0,0.0,0.0,90.0,90.0,57.0,89.8907089233,89.3814163208,122.2310028076,38.9899978638,15.1811618805,3.0700001717000003,0,2,25,1,55,223
107,1530630239391,2152391, RC,0,39.9586186,-88.445067899,0,0.0,0.0,0.0,0.0,0.0,0.0,0.0,0.0,0.0,0.0,0.0,0.0,0.0,1500,1500,0.0,0.0,40.0483715,-88.2326693333,0.0,0.0,0.0,0.0,0.0,0.0,0.0,0.0,0.0,0.0,0.0,0,0.0,0.0,0.0,0.0,90.0,90.0,57.0,89.8907089233,89.3814163208,122.2310028076,38.9899978638,15.1811618805,3.0700001717000003,0,2,25,1,53,225
108,1530630239442,2152442, RC,0,39.9586186,-88.445067899,0,0.0,0.0,0.0,0.0,0.0,0.0,0.0,0.0,0.0,0.0,0.0,0.0,0.0,1500,1500,0.0,0.0,40.0483715,-88.2326693333,0.0,0.0,0.0,0.0,0.0,0.0,0.0,0.0,0.0,0.0,0.0,0,0.0,0.0,0.0,0.0,90.0,90.0,57.0,89.8907089233,89.3814163208,122.2310028076,38.9899978638,15.1811618805,3.0700001717000003,0,2,25,1,50,227
109,1530630239492,2152492, RC,0,39.9586186,-88.445067899,0,0.0,0.0,0.0,0.0,0.0,0.0,0.0,0.0,0.0,0.0,0.0,0.0,0.0,1500,1500,0.0,0.0,40.0483715,-88.2326693333,0.0,0.0,0.0,0.0,0.0,0.0,0.0,0.0,0.0,0.0,0.0,0,0.0,0.0,0.0,0.0,90.0,90.0,57.0,89.8907089233,89.3814163208,122.2310028076,38.9899978638,15.1811618805,3.0700001717000003,0,2,25,1,54,229
110,1530630239543,2152543, RC,0,39.9586186,-88.445067899,0,0.0,0.0,0.0,0.0,0.0,0.0,0.0,0.0,0.0,0.0,0.0,0.0,0.0,1500,1500,0.0,0.0,40.0483715,-88.2326693333,0.0,0.0,0.0,0.0,0.0,0.0,0.0,0.0,0.0,0.0,0.0,0,0.0,0.0,0.0,0.0,90.0,90.0,57.0,89.8907089233,89.3814163208,122.2310028076,38.9899978638,15.1811618805,3.0700001717000003,0,2,25,1,56,231
111,1530630239593,2152593, RC,0,39.9586186,-88.445067899,0,0.0,0.0,0.0,0.0,0.0,0.0,0.0,0.0,0.0,0.0,0.0,0.0,0.0,1500,1500,0.0,0.0,40.0483715,-88.2326693333,0.0,0.0,0.0,0.0,0.0,0.0,0.0,0.0,0.0,0.0,0.0,0,0.0,0.0,0.0,0.0,90.0,90.0,58.0,89.8907089233,89.3814163208,122.2310028076,38.9899978638,15.1811618805,3.0700001717000003,0,2,25,1,52,233
112,1530630239644,2152644, RC,0,39.9586186,-88.445067899,0,0.0,0.0,0.0,0.0,0.0,0.0,0.0,0.0,0.0,0.0,0.0,0.0,0.0,1500,1500,0.0,0.0,40.0483715,-88.2326693333,0.0,0.0,0.0,0.0,0.0,0.0,0.0,0.0,0.0,0.0,0.0,0,0.0,0.0,0.0,0.0,90.0,90.0,58.0,89.8907089233,89.44507598879999,122.2310028076,38.9899978638,15.1811618805,3.0700001717000003,0,2,25,1,51,235
113,1530630239694,2152694, RC,0,39.9586186,-88.445067899,0,0.0,0.0,0.0,0.0,0.0,0.0,0.0,0.0,0.0,0.0,0.0,0.0,0.0,1500,1500,0.0,0.0,40.0483715,-88.2326693333,0.0,0.0,0.0,0.0,0.0,0.0,0.0,0.0,0.0,0.0,0.0,0,0.0,0.0,0.0,0.0,90.0,90.0,58.0,89.8907089233,89.44507598879999,122.2310028076,38.9899978638,15.1811618805,3.0700001717000003,0,2,25,1,47,237
114,1530630239745,2152745, RC,0,39.9586186,-88.445067899,0,0.0,0.0,0.0,0.0,0.0,0.0,0.0,0.0,0.0,0.0,0.0,0.0,0.0,1500,1500,0.0,0.0,40.0483715,-88.2326693333,0.0,0.0,0.0,0.0,0.0,0.0,0.0,0.0,0.0,0.0,0.0,0,0.0,0.0,0.0,0.0,90.0,90.0,58.0,89.8907089233,89.44507598879999,122.2310028076,38.9899978638,15.1811618805,3.0700001717000003,0,2,25,1,48,239
115,1530630239796,2152796, RC,0,39.9586186,-88.445067899,0,0.0,0.0,0.0,0.0,0.0,0.0,0.0,0.0,0.0,0.0,0.0,0.0,0.0,1500,1500,0.0,0.0,40.0483715,-88.2326693333,0.0,0.0,0.0,0.0,0.0,0.0,0.0,0.0,0.0,0.0,0.0,0,0.0,0.0,0.0,0.0,90.0,90.0,60.0,89.8907089233,89.63606262209998,122.1673278809,38.9899978638,15.1811618805,3.0700001717000003,0,2,25,1,51,241
116,1530630239846,2152846, RC,0,39.9586186,-88.445067899,0,0.0,0.0,0.0,0.0,0.0,0.0,0.0,0.0,0.0,0.0,0.0,0.0,0.0,1500,1500,0.0,0.0,40.0483715,-88.2326693333,0.0,0.0,0.0,0.0,0.0,0.0,0.0,0.0,0.0,0.0,0.0,0,0.0,0.0,0.0,0.0,90.0,90.0,60.0,89.8907089233,89.6997299194,122.1673278809,38.9899978638,15.1811618805,3.0700001717000003,0,2,25,1,52,243
117,1530630239897,2152897, RC,0,39.9586186,-88.445067899,0,0.0,0.0,0.0,0.0,0.0,0.0,0.0,0.0,0.0,0.0,0.0,0.0,0.0,1500,1500,0.0,0.0,40.0483715,-88.2326693333,0.0,0.0,0.0,0.0,0.0,0.0,0.0,0.0,0.0,0.0,0.0,0,0.0,0.0,0.0,0.0,90.0,90.0,60.0,89.8907089233,89.6997299194,121.7853622437,38.9899978638,15.1811618805,3.0700001717000003,0,2,25,1,55,245
118,1530630239947,2152947, RC,0,39.9586186,-88.445067899,0,0.0,0.0,0.0,0.0,0.0,0.0,0.0,0.0,0.0,0.0,0.0,0.0,0.0,1500,1500,0.0,0.0,40.0483715,-88.2326693333,0.0,0.0,0.0,0.0,0.0,0.0,0.0,0.0,0.0,0.0,0.0,0,0.0,0.0,0.0,0.0,90.0,90.0,60.0,89.8907089233,89.7633895874,120.51211547850001,38.9899978638,15.1763277054,2.25,0,2,25,1,51,247
119,1530630239998,2152998, RC,0,39.9586186,-88.445067899,0,0.0,0.0,0.0,0.0,0.0,0.0,0.0,0.0,0.0,0.0,0.0,0.0,0.0,1500,1500,0.0,0.0,40.0483715,-88.2326693333,0.0,0.0,0.0,0.0,0.0,0.0,0.0,0.0,0.0,0.0,0.0,0,0.0,0.0,0.0,0.0,90.0,90.0,60.0,89.8907089233,89.6997299194,119.81184387209998,38.9899978638,15.1763277054,2.25,0,2,25,1,49,249
120,1530630240048,2153048, RC,0,39.9586186,-88.445067899,0,0.0,0.0,0.0,0.0,0.0,0.0,0.0,0.0,0.0,0.0,0.0,0.0,0.0,1500,1500,0.0,0.0,40.0483751667,-88.2326678333,0.0,0.0,0.0,0.0,0.0,0.0,0.0,0.0,0.0,0.0,0.0,0,0.0,0.0,0.0,0.0,90.0,90.0,60.0,89.8907089233,89.6997299194,119.7481765747,38.9899978638,15.1763277054,2.25,0,2,25,1,54,251
121,1530630240099,2153099, RC,0,39.9586186,-88.445067899,0,0.0,0.0,0.0,0.0,0.0,0.0,0.0,0.0,0.0,0.0,0.0,0.0,0.0,1500,1500,0.0,0.0,40.0483751667,-88.2326678333,0.0,0.0,0.0,0.0,0.0,0.0,0.0,0.0,0.0,0.0,0.0,0,0.0,0.0,0.0,0.0,90.0,90.0,60.0,89.8907089233,89.6997299194,119.7481765747,38.9899978638,15.1763277054,2.25,0,2,25,1,42,253
122,1530630240149,2153149, RC,0,39.9586186,-88.445067899,0,0.0,0.0,0.0,0.0,0.0,0.0,0.0,0.0,0.0,0.0,0.0,0.0,0.0,1500,1500,0.0,0.0,40.0483751667,-88.2326678333,0.0,0.0,0.0,0.0,0.0,0.0,0.0,0.0,0.0,0.0,0.0,0,0.0,0.0,0.0,0.0,90.0,90.0,60.0,89.8907089233,89.6997299194,119.7481765747,38.9899978638,15.1763277054,2.25,0,2,25,1,51,255
123,1530630240200,2153200, RC,0,39.9586186,-88.445067899,0,0.0,0.0,0.0,0.0,0.0,0.0,0.0,0.0,0.0,0.0,0.0,0.0,0.0,1500,1500,0.0,0.0,40.0483751667,-88.2326678333,0.0,0.0,0.0,0.0,0.0,0.0,0.0,0.0,0.0,0.0,0.0,0,0.0,0.0,0.0,0.0,90.0,90.0,60.0,89.8907089233,89.6997299194,119.7481765747,38.9899978638,15.1763277054,2.25,0,2,25,1,50,257
124,1530630240251,2153251, RC,0,39.9586186,-88.445067899,0,0.0,0.0,0.0,0.0,0.0,0.0,0.0,0.0,0.0,0.0,0.0,0.0,0.0,1500,1500,0.0,0.0,40.0483751667,-88.2326678333,0.0,0.0,0.0,0.0,0.0,0.0,0.0,0.0,0.0,0.0,0.0,0,0.0,0.0,0.0,0.0,90.0,90.0,60.0,89.8907089233,89.6997299194,119.7481765747,38.9899978638,15.1763277054,2.25,0,2,25,1,52,259
125,1530630240301,2153301, RC,0,39.9586186,-88.445067899,0,0.0,0.0,0.0,0.0,0.0,0.0,0.0,0.0,0.0,0.0,0.0,0.0,0.0,1500,1500,0.0,0.0,40.0483751667,-88.2326678333,0.0,0.0,0.0,0.0,0.0,0.0,0.0,0.0,0.0,0.0,0.0,0,0.0,0.0,0.0,0.0,90.0,90.0,60.0,89.8907089233,89.6997299194,119.7481765747,38.9899978638,15.1763277054,2.25,0,2,25,1,55,261
126,1530630240352,2153352, RC,0,39.9586186,-88.445067899,0,0.0,0.0,0.0,0.0,0.0,0.0,0.0,0.0,0.0,0.0,0.0,0.0,0.0,1500,1500,0.0,0.0,40.0483751667,-88.2326678333,0.0,0.0,0.0,0.0,0.0,0.0,0.0,0.0,0.0,0.0,0.0,0,0.0,0.0,0.0,0.0,90.0,90.0,60.0,89.8907089233,89.6997299194,119.7481765747,38.9899978638,15.1763277054,2.25,0,2,25,1,46,263
127,1530630240402,2153402, RC,0,39.9586186,-88.445067899,0,0.0,0.0,0.0,0.0,0.0,0.0,0.0,0.0,0.0,0.0,0.0,0.0,0.0,1500,1500,0.0,0.0,40.0483751667,-88.2326678333,0.0,0.0,0.0,0.0,0.0,0.0,0.0,0.0,0.0,0.0,0.0,0,0.0,0.0,0.0,0.0,90.0,90.0,60.0,89.8907089233,89.6997299194,119.6845169067,38.9899978638,15.1763277054,2.25,0,2,25,1,54,265
128,1530630240453,2153453, RC,0,39.9586186,-88.445067899,0,0.0,0.0,0.0,0.0,0.0,0.0,0.0,0.0,0.0,0.0,0.0,0.0,0.0,1500,1500,0.0,0.0,40.0483751667,-88.2326678333,0.0,0.0,0.0,0.0,0.0,0.0,0.0,0.0,0.0,0.0,0.0,0,0.0,0.0,0.0,0.0,90.0,90.0,60.0,89.8907089233,89.63606262209998,119.6845169067,38.9899978638,15.1763277054,2.25,0,2,25,1,50,267
129,1530630240503,2153503, RC,0,39.9586186,-88.445067899,0,0.0,0.0,0.0,0.0,0.0,0.0,0.0,0.0,0.0,0.0,0.0,0.0,0.0,1500,1500,0.0,0.0,40.0483751667,-88.2326678333,0.0,0.0,0.0,0.0,0.0,0.0,0.0,0.0,0.0,0.0,0.0,0,0.0,0.0,0.0,0.0,90.0,90.0,60.0,89.8907089233,89.63606262209998,119.6845169067,38.9899978638,15.1763277054,2.25,0,2,25,1,52,269
130,1530630240554,2153554, RC,0,39.9586186,-88.445067899,0,0.0,0.0,0.0,0.0,0.0,0.0,0.0,0.0,0.0,0.0,0.0,0.0,0.0,1500,1500,0.0,0.0,40.0483751667,-88.2326678333,0.0,0.0,0.0,0.0,0.0,0.0,0.0,0.0,0.0,0.0,0.0,0,0.0,0.0,0.0,0.0,90.0,90.0,60.0,89.8907089233,89.63606262209998,119.6845169067,38.9899978638,15.1763277054,2.25,0,2,25,1,55,271
131,1530630240604,2153604, RC,0,39.9586186,-88.445067899,0,0.0,0.0,0.0,0.0,0.0,0.0,0.0,0.0,0.0,0.0,0.0,0.0,0.0,1500,1500,0.0,0.0,40.0483751667,-88.2326678333,0.0,0.0,0.0,0.0,0.0,0.0,0.0,0.0,0.0,0.0,0.0,0,0.0,0.0,0.0,0.0,90.0,90.0,60.0,89.8907089233,89.63606262209998,119.6845169067,38.9899978638,15.1763277054,2.25,0,2,25,1,52,273
132,1530630240655,2153655, RC,0,39.9586186,-88.445067899,0,0.0,0.0,0.0,0.0,0.0,0.0,0.0,0.0,0.0,0.0,0.0,0.0,0.0,1500,1500,0.0,0.0,40.0483751667,-88.2326678333,0.0,0.0,0.0,0.0,0.0,0.0,0.0,0.0,0.0,0.0,0.0,0,0.0,0.0,0.0,0.0,90.0,90.0,60.0,89.8907089233,89.63606262209998,119.6845169067,38.9899978638,15.1763277054,2.25,0,2,25,1,53,275
133,1530630240719,2153719, RC,0,39.9586186,-88.445067899,0,0.0,0.0,0.0,0.0,0.0,0.0,0.0,0.0,0.0,0.0,0.0,0.0,0.0,1500,1500,0.0,0.0,40.0483751667,-88.2326678333,0.0,0.0,0.0,0.0,0.0,0.0,0.0,0.0,0.0,0.0,0.0,0,0.0,0.0,0.0,0.0,90.0,90.0,60.0,89.8907089233,89.63606262209998,119.6845169067,38.450996398899996,15.1763277054,2.25,0,2,25,1,50,278
134,1530630240770,2153770, RC,0,39.9586186,-88.445067899,0,0.0,0.0,0.0,0.0,0.0,0.0,0.0,0.0,0.0,0.0,0.0,0.0,0.0,1500,1500,0.0,0.0,40.0483751667,-88.2326678333,0.0,0.0,0.0,0.0,0.0,0.0,0.0,0.0,0.0,0.0,0.0,0,0.0,0.0,0.0,0.0,90.0,90.0,60.0,89.8907089233,89.63606262209998,119.6845169067,38.450996398899996,15.1763277054,2.25,0,2,25,1,53,280
135,1530630240820,2153820, RC,0,39.9586186,-88.445067899,0,0.0,0.0,0.0,0.0,0.0,0.0,0.0,0.0,0.0,0.0,0.0,0.0,0.0,1500,1500,0.0,0.0,40.0483751667,-88.2326678333,0.0,0.0,0.0,0.0,0.0,0.0,0.0,0.0,0.0,0.0,0.0,0,0.0,0.0,0.0,0.0,90.0,90.0,60.0,89.8907089233,89.5724029541,119.6845169067,38.450996398899996,15.1763277054,2.25,0,2,25,1,53,282
136,1530630240871,2153871, RC,0,39.9586186,-88.445067899,0,0.0,0.0,0.0,0.0,0.0,0.0,0.0,0.0,0.0,0.0,0.0,0.0,0.0,1500,1500,0.0,0.0,40.0483751667,-88.2326678333,0.0,0.0,0.0,0.0,0.0,0.0,0.0,0.0,0.0,0.0,0.0,0,0.0,0.0,0.0,0.0,90.0,90.0,60.0,89.8907089233,89.5724029541,119.6845169067,38.450996398899996,15.1763277054,2.25,0,2,25,1,52,284
137,1530630240921,2153921, RC,0,39.9586186,-88.445067899,0,0.0,0.0,0.0,0.0,0.0,0.0,0.0,0.0,0.0,0.0,0.0,0.0,0.0,1500,1500,0.0,0.0,40.0483751667,-88.2326678333,0.0,0.0,0.0,0.0,0.0,0.0,0.0,0.0,0.0,0.0,0.0,0,0.0,0.0,0.0,0.0,90.0,90.0,60.0,89.8907089233,89.5724029541,119.6845169067,38.450996398899996,15.1763277054,2.25,0,2,25,1,53,286
138,1530630240972,2153972, RC,0,39.9586186,-88.445067899,0,0.0,0.0,0.0,0.0,0.0,0.0,0.0,0.0,0.0,0.0,0.0,0.0,0.0,1500,1500,0.0,0.0,40.0483751667,-88.2326678333,0.0,0.0,0.0,0.0,0.0,0.0,0.0,0.0,0.0,0.0,0.0,0,0.0,0.0,0.0,0.0,90.0,81.0,60.0,89.8907089233,89.5724029541,119.6845169067,38.450996398899996,15.171699523900001,3.0199999808999998,0,2,25,1,50,288
139,1530630241022,2154022, RC,0,39.9586186,-88.445067899,0,0.0,0.0,0.0,0.0,0.0,0.0,0.0,0.0,0.0,0.0,0.0,0.0,0.0,1500,1500,0.0,0.0,40.0483763333,-88.2326641667,0.0,0.0,0.0,0.0,0.0,0.0,0.0,0.0,0.0,0.0,0.0,0,0.0,0.0,0.0,0.0,90.0,81.0,60.0,89.8907089233,89.63606262209998,119.6845169067,38.450996398899996,15.171699523900001,3.0199999808999998,0,2,25,1,58,290
140,1530630241073,2154073, RC,0,39.9586186,-88.445067899,0,0.0,0.0,0.0,0.0,0.0,0.0,0.0,0.0,0.0,0.0,0.0,0.0,0.0,1500,1500,0.0,0.0,40.0483763333,-88.2326641667,0.0,0.0,0.0,0.0,0.0,0.0,0.0,0.0,0.0,0.0,0.0,0,0.0,0.0,0.0,0.0,90.0,79.0,60.0,89.8907089233,97.84845733639999,119.6845169067,38.450996398899996,15.171699523900001,3.0199999808999998,0,2,25,1,50,292
141,1530630241124,2154124, RC,0,39.9586186,-88.445067899,0,0.0,0.0,0.0,0.0,0.0,0.0,0.0,0.0,0.0,0.0,0.0,0.0,0.0,1500,1500,0.0,0.0,40.0483763333,-88.2326641667,0.0,0.0,0.0,0.0,0.0,0.0,0.0,0.0,0.0,0.0,0.0,0,0.0,0.0,0.0,0.0,90.0,79.0,60.0,89.8907089233,101.0315551758,119.6845169067,38.450996398899996,15.171699523900001,3.0199999808999998,0,2,25,1,49,294
142,1530630241174,2154174, RC,0,39.9586186,-88.445067899,0,0.0,0.0,0.0,0.0,0.0,0.0,0.0,0.0,0.0,0.0,0.0,0.0,0.0,1500,1500,0.0,0.0,40.0483763333,-88.2326641667,0.0,0.0,0.0,0.0,0.0,0.0,0.0,0.0,0.0,0.0,0.0,0,0.0,0.0,0.0,0.0,90.0,73.0,60.0,89.8907089233,99.7583236694,119.6845169067,38.450996398899996,15.171699523900001,3.0199999808999998,0,2,25,1,47,296
143,1530630241225,2154225, RC,0,39.9586186,-88.445067899,0,0.0,0.0,0.0,0.0,0.0,0.0,0.0,0.0,0.0,0.0,0.0,0.0,0.0,1500,1500,0.0,0.0,40.0483763333,-88.2326641667,0.0,0.0,0.0,0.0,0.0,0.0,0.0,0.0,0.0,0.0,0.0,0,0.0,0.0,0.0,0.0,90.0,73.0,60.0,89.8907089233,99.7583236694,119.6845169067,38.450996398899996,15.171699523900001,3.0199999808999998,0,2,25,1,52,298
144,1530630241275,2154275, RC,0,39.9586186,-88.445067899,0,0.0,0.0,0.0,0.0,0.0,0.0,0.0,0.0,0.0,0.0,0.0,0.0,0.0,1500,1500,0.0,0.0,40.0483763333,-88.2326641667,0.0,0.0,0.0,0.0,0.0,0.0,0.0,0.0,0.0,0.0,0.0,0,0.0,0.0,0.0,0.0,90.0,73.0,60.0,89.8907089233,106.57015228270001,119.6845169067,38.450996398899996,15.171699523900001,3.0199999808999998,0,2,25,1,55,300
145,1530630241326,2154326, RC,0,39.9586186,-88.445067899,0,0.0,0.0,0.0,0.0,0.0,0.0,0.0,0.0,0.0,0.0,0.0,0.0,0.0,1500,1500,0.0,0.0,40.0483763333,-88.2326641667,0.0,0.0,0.0,0.0,0.0,0.0,0.0,0.0,0.0,0.0,0.0,0,0.0,0.0,0.0,0.0,90.0,73.0,60.0,89.8907089233,106.6974716187,119.6845169067,38.450996398899996,15.171699523900001,3.0199999808999998,0,2,25,1,53,302
146,1530630241376,2154376, RC,0,39.9586186,-88.445067899,0,0.0,0.0,0.0,0.0,0.0,0.0,0.0,0.0,0.0,0.0,0.0,0.0,0.0,1500,1500,0.0,0.0,40.0483763333,-88.2326641667,0.0,0.0,0.0,0.0,0.0,0.0,0.0,0.0,0.0,0.0,0.0,0,0.0,0.0,0.0,0.0,90.0,66.0,60.0,89.8907089233,106.1245117188,119.6845169067,38.450996398899996,15.171699523900001,3.0199999808999998,0,2,25,1,52,304
147,1530630241427,2154427, RC,0,39.9586186,-88.445067899,0,0.0,0.0,0.0,0.0,0.0,0.0,0.0,0.0,0.0,0.0,0.0,0.0,0.0,1500,1500,0.0,0.0,40.0483763333,-88.2326641667,0.0,0.0,0.0,0.0,0.0,0.0,0.0,0.0,0.0,0.0,0.0,0,0.0,0.0,0.0,0.0,90.0,66.0,60.0,89.8907089233,108.416343689,119.6845169067,38.450996398899996,15.171699523900001,3.0199999808999998,0,2,25,1,50,306
148,1530630241477,2154477, RC,0,39.9586186,-88.445067899,0,0.0,0.0,0.0,0.0,0.0,0.0,0.0,0.0,0.0,0.0,0.0,0.0,0.0,1500,1500,0.0,0.0,40.0483763333,-88.2326641667,0.0,0.0,0.0,0.0,0.0,0.0,0.0,0.0,0.0,0.0,0.0,0,0.0,0.0,0.0,0.0,90.0,64.0,60.0,89.8907089233,115.2281723022,119.6845169067,38.450996398899996,15.171699523900001,3.0199999808999998,0,2,25,1,50,308
149,1530630241528,2154528, RC,0,39.9586186,-88.445067899,0,0.0,0.0,0.0,0.0,0.0,0.0,0.0,0.0,0.0,0.0,0.0,0.0,0.0,1500,1500,0.0,0.0,40.0483763333,-88.2326641667,0.0,0.0,0.0,0.0,0.0,0.0,0.0,0.0,0.0,0.0,0.0,0,0.0,0.0,0.0,0.0,90.0,64.0,60.0,89.8907089233,114.7188873291,119.6845169067,38.450996398899996,15.171699523900001,3.0199999808999998,0,2,25,1,56,310
150,1530630241579,2154579, RC,0,39.9586186,-88.445067899,0,0.0,0.0,0.0,0.0,0.0,0.0,0.0,0.0,0.0,0.0,0.0,0.0,0.0,1500,1500,0.0,0.0,40.0483763333,-88.2326641667,0.0,0.0,0.0,0.0,0.0,0.0,0.0,0.0,0.0,0.0,0.0,0,0.0,0.0,0.0,0.0,90.0,64.0,60.0,89.8907089233,115.1008605957,119.6845169067,38.450996398899996,15.171699523900001,3.0199999808999998,0,2,25,1,51,312
151,1530630241629,2154629, RC,0,39.9586186,-88.445067899,0,0.0,0.0,0.0,0.0,0.0,0.0,0.0,0.0,0.0,0.0,0.0,0.0,0.0,1500,1500,0.0,0.0,40.0483763333,-88.2326641667,0.0,0.0,0.0,0.0,0.0,0.0,0.0,0.0,0.0,0.0,0.0,0,0.0,0.0,0.0,0.0,90.0,64.0,60.0,89.8907089233,115.0371856689,119.6845169067,38.450996398899996,15.171699523900001,3.0199999808999998,0,2,25,1,50,314
152,1530630241680,2154680, RC,0,39.9586186,-88.445067899,0,0.0,0.0,0.0,0.0,0.0,0.0,0.0,0.0,0.0,0.0,0.0,0.0,0.0,1500,1500,0.0,0.0,40.0483763333,-88.2326641667,0.0,0.0,0.0,0.0,0.0,0.0,0.0,0.0,0.0,0.0,0.0,0,0.0,0.0,0.0,0.0,90.0,63.0,60.0,90.0816955566,115.0371856689,119.6845169067,38.450996398899996,15.171699523900001,3.0199999808999998,0,2,25,1,58,316
153,1530630241730,2154730, RC,0,39.9586186,-88.445067899,0,0.0,0.0,0.0,0.0,0.0,0.0,0.0,0.0,0.0,0.0,0.0,0.0,0.0,1500,1500,0.0,0.0,40.0483763333,-88.2326641667,0.0,0.0,0.0,0.0,0.0,0.0,0.0,0.0,0.0,0.0,0.0,0,0.0,0.0,0.0,0.0,90.0,63.0,60.0,90.0816955566,115.16451263430001,119.6845169067,38.450996398899996,15.171699523900001,3.0199999808999998,0,2,25,1,51,318
154,1530630241781,2154781, RC,0,39.9586186,-88.445067899,0,0.0,0.0,0.0,0.0,0.0,0.0,0.0,0.0,0.0,0.0,0.0,0.0,0.0,1500,1500,0.0,0.0,40.0483763333,-88.2326641667,0.0,0.0,0.0,0.0,0.0,0.0,0.0,0.0,0.0,0.0,0.0,0,0.0,0.0,0.0,0.0,90.0,61.0,60.0,90.0816955566,115.9284591675,119.6845169067,38.450996398899996,15.171699523900001,3.0199999808999998,0,2,25,1,51,320
155,1530630241831,2154831, RC,0,39.9586186,-88.445067899,0,0.0,0.0,0.0,0.0,0.0,0.0,0.0,0.0,0.0,0.0,0.0,0.0,0.0,1500,1500,0.0,0.0,40.0483763333,-88.2326641667,0.0,0.0,0.0,0.0,0.0,0.0,0.0,0.0,0.0,0.0,0.0,0,0.0,0.0,0.0,0.0,90.0,61.0,60.0,90.0816955566,115.9921188354,119.6845169067,38.450996398899996,15.171699523900001,3.0199999808999998,0,2,25,1,58,322
156,1530630241882,2154882, RC,0,39.9586186,-88.445067899,0,0.0,0.0,0.0,0.0,0.0,0.0,0.0,0.0,0.0,0.0,0.0,0.0,0.0,1500,1500,0.0,0.0,40.0483763333,-88.2326641667,0.0,0.0,0.0,0.0,0.0,0.0,0.0,0.0,0.0,0.0,0.0,0,0.0,0.0,0.0,0.0,90.0,61.0,60.0,90.0816955566,118.15663146969999,119.6845169067,38.450996398899996,15.171699523900001,3.0199999808999998,0,2,25,1,56,324
157,1530630241932,2154932, RC,0,39.9586186,-88.445067899,0,0.0,0.0,0.0,0.0,0.0,0.0,0.0,0.0,0.0,0.0,0.0,0.0,0.0,1500,1500,0.0,0.0,40.0483763333,-88.2326641667,0.0,0.0,0.0,0.0,0.0,0.0,0.0,0.0,0.0,0.0,0.0,0,0.0,0.0,0.0,0.0,90.0,61.0,60.0,90.0816955566,119.42987060549999,119.6845169067,38.450996398899996,15.166836738599999,2.5099999905000003,0,2,25,1,54,326
158,1530630241983,2154983, RC,0,39.9586186,-88.445067899,0,0.0,0.0,0.0,0.0,0.0,0.0,0.0,0.0,0.0,0.0,0.0,0.0,0.0,1500,1500,0.0,0.0,40.0483676667,-88.2326675,0.0,0.0,0.0,0.0,0.0,0.0,0.0,0.0,0.0,0.0,0.0,0,0.0,0.0,0.0,0.0,90.0,61.0,60.0,90.0816955566,118.6659317017,119.6845169067,38.450996398899996,15.166836738599999,2.5099999905000003,0,2,25,1,54,328
159,1530630242033,2155033, RC,0,39.9586186,-88.445067899,0,0.0,0.0,0.0,0.0,0.0,0.0,0.0,0.0,0.0,0.0,0.0,0.0,0.0,1500,1500,0.0,0.0,40.0483676667,-88.2326675,0.0,0.0,0.0,0.0,0.0,0.0,0.0,0.0,0.0,0.0,0.0,0,0.0,0.0,0.0,0.0,90.0,61.0,60.0,90.0816955566,118.53860473629999,119.6845169067,38.450996398899996,15.166836738599999,2.5099999905000003,0,2,25,1,53,330
160,1530630242084,2155084, RC,0,39.9586186,-88.445067899,0,0.0,0.0,0.0,0.0,0.0,0.0,0.0,0.0,0.0,0.0,0.0,0.0,0.0,1500,1500,0.0,0.0,40.0483676667,-88.2326675,0.0,0.0,0.0,0.0,0.0,0.0,0.0,0.0,0.0,0.0,0.0,0,0.0,0.0,0.0,0.0,90.0,61.0,60.0,90.0816955566,118.53860473629999,119.6845169067,38.450996398899996,15.166836738599999,2.5099999905000003,0,2,25,1,55,332
161,1530630242134,2155134, RC,0,39.9586186,-88.445067899,0,0.0,0.0,0.0,0.0,0.0,0.0,0.0,0.0,0.0,0.0,0.0,0.0,0.0,1500,1500,0.0,0.0,40.0483676667,-88.2326675,0.0,0.0,0.0,0.0,0.0,0.0,0.0,0.0,0.0,0.0,0.0,0,0.0,0.0,0.0,0.0,90.0,61.0,60.0,90.0816955566,118.53860473629999,119.6845169067,38.450996398899996,15.166836738599999,2.5099999905000003,0,2,25,1,58,334
162,1530630242185,2155185, RC,0,39.9586186,-88.445067899,0,0.0,0.0,0.0,0.0,0.0,0.0,0.0,0.0,0.0,0.0,0.0,0.0,0.0,1500,1500,0.0,0.0,40.0483676667,-88.2326675,0.0,0.0,0.0,0.0,0.0,0.0,0.0,0.0,0.0,0.0,0.0,0,0.0,0.0,0.0,0.0,90.0,61.0,60.0,90.0816955566,118.53860473629999,119.6845169067,38.450996398899996,15.166836738599999,2.5099999905000003,0,2,25,1,52,336
163,1530630242236,2155236, RC,0,39.9586186,-88.445067899,0,0.0,0.0,0.0,0.0,0.0,0.0,0.0,0.0,0.0,0.0,0.0,0.0,0.0,1500,1500,0.0,0.0,40.0483676667,-88.2326675,0.0,0.0,0.0,0.0,0.0,0.0,0.0,0.0,0.0,0.0,0.0,0,0.0,0.0,0.0,0.0,90.0,61.0,60.0,90.0816955566,118.53860473629999,119.6845169067,38.450996398899996,15.166836738599999,2.5099999905000003,0,2,25,1,57,338
164,1530630242286,2155286, RC,0,39.9586186,-88.445067899,0,0.0,0.0,0.0,0.0,0.0,0.0,0.0,0.0,0.0,0.0,0.0,0.0,0.0,1500,1500,0.0,0.0,40.0483676667,-88.2326675,0.0,0.0,0.0,0.0,0.0,0.0,0.0,0.0,0.0,0.0,0.0,0,0.0,0.0,0.0,0.0,90.0,58.0,60.0,90.0816955566,118.53860473629999,119.6845169067,38.450996398899996,15.166836738599999,2.5099999905000003,0,2,25,1,54,340
165,1530630242337,2155337, RC,0,39.9586186,-88.445067899,0,0.0,0.0,0.0,0.0,0.0,0.0,0.0,0.0,0.0,0.0,0.0,0.0,0.0,1500,1500,0.0,0.0,40.0483676667,-88.2326675,0.0,0.0,0.0,0.0,0.0,0.0,0.0,0.0,0.0,0.0,0.0,0,0.0,0.0,0.0,0.0,90.0,58.0,60.0,90.0816955566,118.6022567749,119.6845169067,38.450996398899996,15.166836738599999,2.5099999905000003,0,2,25,1,51,342
166,1530630242387,2155387, RC,0,39.9586186,-88.445067899,0,0.0,0.0,0.0,0.0,0.0,0.0,0.0,0.0,0.0,0.0,0.0,0.0,0.0,1500,1500,0.0,0.0,40.0483676667,-88.2326675,0.0,0.0,0.0,0.0,0.0,0.0,0.0,0.0,0.0,0.0,0.0,0,0.0,0.0,0.0,0.0,90.0,58.0,60.0,90.0816955566,120.76677703860001,119.6845169067,38.450996398899996,15.166836738599999,2.5099999905000003,0,2,25,1,50,344
167,1530630242438,2155438, RC,0,39.9586186,-88.445067899,0,0.0,0.0,0.0,0.0,0.0,0.0,0.0,0.0,0.0,0.0,0.0,0.0,0.0,1500,1500,0.0,0.0,40.0483676667,-88.2326675,0.0,0.0,0.0,0.0,0.0,0.0,0.0,0.0,0.0,0.0,0.0,0,0.0,0.0,0.0,0.0,90.0,58.0,60.0,90.0816955566,121.59437561040001,119.6845169067,38.450996398899996,15.166836738599999,2.5099999905000003,0,2,25,1,52,346
168,1530630242488,2155488, RC,0,39.9586186,-88.445067899,0,0.0,0.0,0.0,0.0,0.0,0.0,0.0,0.0,0.0,0.0,0.0,0.0,0.0,1500,1500,0.0,0.0,40.0483676667,-88.2326675,0.0,0.0,0.0,0.0,0.0,0.0,0.0,0.0,0.0,0.0,0.0,0,0.0,0.0,0.0,0.0,90.0,58.0,60.0,90.0816955566,121.59437561040001,119.6845169067,38.450996398899996,15.166836738599999,2.5099999905000003,0,2,25,1,48,348
169,1530630242539,2155539, RC,0,39.9586186,-88.445067899,0,0.0,0.0,0.0,0.0,0.0,0.0,0.0,0.0,0.0,0.0,0.0,0.0,0.0,1500,1500,0.0,0.0,40.0483676667,-88.2326675,0.0,0.0,0.0,0.0,0.0,0.0,0.0,0.0,0.0,0.0,0.0,0,0.0,0.0,0.0,0.0,90.0,58.0,60.0,90.0816955566,121.59437561040001,119.6845169067,38.450996398899996,15.166836738599999,2.5099999905000003,0,2,25,1,50,350
