,(0)linux time (ms),    (1)uptime  (ms),      (2)drive mode,(3)mpc step counter,(4)mpc origin latitude  (deg),(5)mpc origin longitude  (deg),(6)closest trajectory point index to robot,(7)mpc error x (W;E)  (m),(8)mpc error y (W;E)  (m),(9)abs mpc error (m),(10)input [x] for mhe (m),(11)input [y] for mhe (m),(12)input [speed] for mhe (m/s),(13)input [vyaw] for mhe (rad/s),(14)mhe output x  (m),(15)mhe output y  (m),(16)mhe output speed  (m/s),(17)mhe output yaw  (rad),(18)mpc reference heading (rad),(19)mpc turn rate command (rad/s),(20)turn rate command as PWM,(21)throttle command as PWM,(22)primary gps latitude (deg),(23)primary gps longitude (deg),(24)secondary gps latitude  (deg),(25)secondary gps longitude (deg),(26)accelerometer x (m/s^2),(27)accelerometer y (m/s^2),(28)accelerometer z (m/s^2),(29)gyro yaw rate (rad/s),(30)gyro pitch rate   (rad/s),(31)gyro roll rate (rad/s),      (32)yaw (rad),  (33)pitch   (rad),     (34)roll (rad),(35)sonar1 measurement (m),(36)ultrasonic sensor measurement (m),(37)primary gps time (s),(38)normalized turn rate command,(39)normalized throttle command,(40)speed calculation from encoder left (m/s),(41)speed calculation from encoder right (m/s),(42)front gimbal target angle (degrees from straight down),(43)left gimbal target angle  (degrees from straight down),(44)right gimbal target angle  (degrees from straight down),(45)front gimbal measured angle  (degrees from straight down),(46)left gimbal measured angle    (degrees from straight down),(47)right gimbal measured angle  (degrees from straight down),(48)internal temperature (C),(49)battery voltage (V),(50)primary gps type,(51)secondary gps type,    (52)MPC R value, (53)MPC Q[0] value,Unnamed: 54,weed_num,start
0,1530628608457,521457, RC,0,39.9586186,-88.445067899,0,0.0,0.0,0.0,0.0,0.0,0.0,0.0,0.0,0.0,0.0,0.0,0.0,0.0,1500,1500,0.0,0.0,40.0482915,-88.2327483333,0.0,0.0,0.0,0.0,0.0,0.0,0.0,0.0,0.0,0.0,0.0,0,0.0,0.0,0.0,0.0,90.0,90.0,90.0,88.8084564209,89.5724029541,90.0816955566,23.388000488299998,15.9044466019,1.5800000428999998,0,2,25,1,160,0
1,1530628608508,521508, RC,0,39.9586186,-88.445067899,0,0.0,0.0,0.0,0.0,0.0,0.0,0.0,0.0,0.0,0.0,0.0,0.0,0.0,1500,1500,0.0,0.0,40.0482915,-88.2327483333,0.0,0.0,0.0,0.0,0.0,0.0,0.0,0.0,0.0,0.0,0.0,0,0.0,0.0,0.0,0.0,90.0,90.0,90.0,88.74479675290002,88.55381011959999,87.1532516479,23.388000488299998,15.9044466019,1.5800000428999998,0,2,25,1,87,2
2,1530628608559,521559, RC,0,39.9586186,-88.445067899,0,0.0,0.0,0.0,0.0,0.0,0.0,0.0,0.0,0.0,0.0,0.0,0.0,0.0,1500,1500,0.0,0.0,40.0482915,-88.2327483333,0.0,0.0,0.0,0.0,0.0,0.0,0.0,0.0,0.0,0.0,0.0,0,0.0,0.0,0.0,0.0,90.0,90.0,90.0,88.74479675290002,88.235496521,87.4078979492,23.388000488299998,15.9044466019,1.5800000428999998,0,2,25,1,154,4
3,1530628608609,521609, RC,0,39.9586186,-88.445067899,0,0.0,0.0,0.0,0.0,0.0,0.0,0.0,0.0,0.0,0.0,0.0,0.0,0.0,1500,1500,0.0,0.0,40.0482915,-88.2327483333,0.0,0.0,0.0,0.0,0.0,0.0,0.0,0.0,0.0,0.0,0.0,0,0.0,0.0,0.0,0.0,90.0,90.0,90.0,88.74479675290002,88.1718444824,88.0445098877,23.388000488299998,15.9044466019,1.5800000428999998,0,2,25,1,152,6
4,1530628608660,521660, RC,0,39.9586186,-88.445067899,0,0.0,0.0,0.0,0.0,0.0,0.0,0.0,0.0,0.0,0.0,0.0,0.0,0.0,1500,1500,0.0,0.0,40.0482915,-88.2327483333,0.0,0.0,0.0,0.0,0.0,0.0,0.0,0.0,0.0,0.0,0.0,0,0.0,0.0,0.0,0.0,90.0,90.0,90.0,88.74479675290002,88.1718444824,88.4901504517,23.388000488299998,15.9044466019,1.5800000428999998,0,2,25,1,146,9
5,1530628608710,521710, RC,0,39.9586186,-88.445067899,0,0.0,0.0,0.0,0.0,0.0,0.0,0.0,0.0,0.0,0.0,0.0,0.0,0.0,1500,1500,0.0,0.0,40.0482915,-88.2327483333,0.0,0.0,0.0,0.0,0.0,0.0,0.0,0.0,0.0,0.0,0.0,0,0.0,0.0,0.0,0.0,90.0,90.0,90.0,88.74479675290002,88.4264831543,88.4901504517,23.388000488299998,15.899884223900001,3.4500000476999997,0,2,25,1,139,11
6,1530628608761,521761, RC,0,39.9586186,-88.445067899,0,0.0,0.0,0.0,0.0,0.0,0.0,0.0,0.0,0.0,0.0,0.0,0.0,0.0,1500,1500,0.0,0.0,40.0482915,-88.2327483333,0.0,0.0,0.0,0.0,0.0,0.0,0.0,0.0,0.0,0.0,0.0,0,0.0,0.0,0.0,0.0,90.0,90.0,90.0,88.74479675290002,88.4264831543,88.4901504517,23.388000488299998,15.899884223900001,3.4500000476999997,0,2,25,1,137,13
7,1530628608812,521812, RC,0,39.9586186,-88.445067899,0,0.0,0.0,0.0,0.0,0.0,0.0,0.0,0.0,0.0,0.0,0.0,0.0,0.0,1500,1500,0.0,0.0,40.0482836667,-88.2327486667,0.0,0.0,0.0,0.0,0.0,0.0,0.0,0.0,0.0,0.0,0.0,0,0.0,0.0,0.0,0.0,90.0,90.0,90.0,88.74479675290002,88.4264831543,88.4901504517,23.388000488299998,15.899884223900001,3.4500000476999997,0,2,25,1,179,16
8,1530628608862,521862, RC,0,39.9586186,-88.445067899,0,0.0,0.0,0.0,0.0,0.0,0.0,0.0,0.0,0.0,0.0,0.0,0.0,0.0,1500,1500,0.0,0.0,40.0482836667,-88.2327486667,0.0,0.0,0.0,0.0,0.0,0.0,0.0,0.0,0.0,0.0,0.0,0,0.0,0.0,0.0,0.0,90.0,90.0,90.0,88.74479675290002,88.4264831543,88.4901504517,23.388000488299998,15.899884223900001,3.4500000476999997,0,2,25,1,227,19
9,1530628608913,521913, RC,0,39.9586186,-88.445067899,0,0.0,0.0,0.0,0.0,0.0,0.0,0.0,0.0,0.0,0.0,0.0,0.0,0.0,1500,1500,0.0,0.0,40.0482836667,-88.2327486667,0.0,0.0,0.0,0.0,0.0,0.0,0.0,0.0,0.0,0.0,0.0,0,0.0,0.0,0.0,0.0,90.0,90.0,90.0,88.74479675290002,88.4901504517,88.4901504517,23.388000488299998,15.899884223900001,3.4500000476999997,0,2,25,1,235,23
10,1530628608964,521964, RC,0,39.9586186,-88.445067899,0,0.0,0.0,0.0,0.0,0.0,0.0,0.0,0.0,0.0,0.0,0.0,0.0,0.0,1500,1500,0.0,0.0,40.0482836667,-88.2327486667,0.0,0.0,0.0,0.0,0.0,0.0,0.0,0.0,0.0,0.0,0.0,0,0.0,0.0,0.0,0.0,90.0,90.0,90.0,88.74479675290002,88.8084564209,88.4901504517,23.388000488299998,15.899884223900001,3.4500000476999997,0,2,25,1,246,25
11,1530628609014,522014, RC,0,39.9586186,-88.445067899,0,0.0,0.0,0.0,0.0,0.0,0.0,0.0,0.0,0.0,0.0,0.0,0.0,0.0,1500,1500,0.0,0.0,40.0482836667,-88.2327486667,0.0,0.0,0.0,0.0,0.0,0.0,0.0,0.0,0.0,0.0,0.0,0,0.0,0.0,0.0,0.0,90.0,90.0,90.0,88.74479675290002,88.8084564209,88.4901504517,23.388000488299998,15.899884223900001,3.4500000476999997,0,2,25,1,225,28
12,1530628609065,522065, RC,0,39.9586186,-88.445067899,0,0.0,0.0,0.0,0.0,0.0,0.0,0.0,0.0,0.0,0.0,0.0,0.0,0.0,1500,1500,0.0,0.0,40.0482836667,-88.2327486667,0.0,0.0,0.0,0.0,0.0,0.0,0.0,0.0,0.0,0.0,0.0,0,0.0,0.0,0.0,0.0,90.0,90.0,85.0,88.74479675290002,88.8084564209,88.4901504517,23.388000488299998,15.899884223900001,3.4500000476999997,0,2,25,1,226,30
13,1530628609115,522115, RC,0,39.9586186,-88.445067899,0,0.0,0.0,0.0,0.0,0.0,0.0,0.0,0.0,0.0,0.0,0.0,0.0,0.0,1500,1500,0.0,0.0,40.0482836667,-88.2327486667,0.0,0.0,0.0,0.0,0.0,0.0,0.0,0.0,0.0,0.0,0.0,0,0.0,0.0,0.0,0.0,90.0,90.0,85.0,88.74479675290002,88.8084564209,90.8456420898,23.388000488299998,15.899884223900001,3.4500000476999997,0,2,25,1,232,33
14,1530628609166,522166, RC,0,39.9586186,-88.445067899,0,0.0,0.0,0.0,0.0,0.0,0.0,0.0,0.0,0.0,0.0,0.0,0.0,0.0,1500,1500,0.0,0.0,40.0482836667,-88.2327486667,0.0,0.0,0.0,0.0,0.0,0.0,0.0,0.0,0.0,0.0,0.0,0,0.0,0.0,0.0,0.0,90.0,90.0,85.0,88.74479675290002,88.8084564209,92.9464874268,23.388000488299998,15.899884223900001,3.4500000476999997,0,2,25,1,228,35
15,1530628609217,522217, RC,0,39.9586186,-88.445067899,0,0.0,0.0,0.0,0.0,0.0,0.0,0.0,0.0,0.0,0.0,0.0,0.0,0.0,1500,1500,0.0,0.0,40.0482836667,-88.2327486667,0.0,0.0,0.0,0.0,0.0,0.0,0.0,0.0,0.0,0.0,0.0,0,0.0,0.0,0.0,0.0,90.0,90.0,85.0,88.74479675290002,88.8084564209,93.20113372799999,23.388000488299998,15.899884223900001,3.4500000476999997,0,2,25,1,204,38
16,1530628609267,522267, RC,0,39.9586186,-88.445067899,0,0.0,0.0,0.0,0.0,0.0,0.0,0.0,0.0,0.0,0.0,0.0,0.0,0.0,1500,1500,0.0,0.0,40.0482836667,-88.2327486667,0.0,0.0,0.0,0.0,0.0,0.0,0.0,0.0,0.0,0.0,0.0,0,0.0,0.0,0.0,0.0,90.0,90.0,79.0,88.74479675290002,88.8084564209,93.20113372799999,23.388000488299998,15.899884223900001,3.4500000476999997,0,2,25,1,231,40
17,1530628609318,522318, RC,0,39.9586186,-88.445067899,0,0.0,0.0,0.0,0.0,0.0,0.0,0.0,0.0,0.0,0.0,0.0,0.0,0.0,1500,1500,0.0,0.0,40.0482836667,-88.2327486667,0.0,0.0,0.0,0.0,0.0,0.0,0.0,0.0,0.0,0.0,0.0,0,0.0,0.0,0.0,0.0,90.0,90.0,79.0,88.74479675290002,88.8084564209,95.04733276370001,23.388000488299998,15.899884223900001,3.4500000476999997,0,2,25,1,215,43
18,1530628609368,522368, RC,0,39.9586186,-88.445067899,0,0.0,0.0,0.0,0.0,0.0,0.0,0.0,0.0,0.0,0.0,0.0,0.0,0.0,1500,1500,0.0,0.0,40.0482836667,-88.2327486667,0.0,0.0,0.0,0.0,0.0,0.0,0.0,0.0,0.0,0.0,0.0,0,0.0,0.0,0.0,0.0,90.0,90.0,73.0,88.74479675290002,88.8084564209,100.0129623413,23.388000488299998,15.899884223900001,3.4500000476999997,0,2,25,1,198,45
19,1530628609419,522419, RC,0,39.9586186,-88.445067899,0,0.0,0.0,0.0,0.0,0.0,0.0,0.0,0.0,0.0,0.0,0.0,0.0,0.0,1500,1500,0.0,0.0,40.0482836667,-88.2327486667,0.0,0.0,0.0,0.0,0.0,0.0,0.0,0.0,0.0,0.0,0.0,0,0.0,0.0,0.0,0.0,90.0,90.0,73.0,88.74479675290002,88.8084564209,102.6231079102,23.388000488299998,15.899884223900001,3.4500000476999997,0,2,25,1,184,48
20,1530628609469,522469, RC,0,39.9586186,-88.445067899,0,0.0,0.0,0.0,0.0,0.0,0.0,0.0,0.0,0.0,0.0,0.0,0.0,0.0,1500,1500,0.0,0.0,40.0482836667,-88.2327486667,0.0,0.0,0.0,0.0,0.0,0.0,0.0,0.0,0.0,0.0,0.0,0,0.0,0.0,0.0,0.0,90.0,90.0,73.0,88.8084564209,88.8084564209,105.8698654175,23.388000488299998,15.899884223900001,3.4500000476999997,0,2,25,1,167,50
21,1530628609520,522520, RC,0,39.9586186,-88.445067899,0,0.0,0.0,0.0,0.0,0.0,0.0,0.0,0.0,0.0,0.0,0.0,0.0,0.0,1500,1500,0.0,0.0,40.0482836667,-88.2327486667,0.0,0.0,0.0,0.0,0.0,0.0,0.0,0.0,0.0,0.0,0.0,0,0.0,0.0,0.0,0.0,90.0,90.0,73.0,88.8084564209,88.8084564209,105.99719238280001,23.388000488299998,15.899884223900001,3.4500000476999997,0,2,25,1,129,53
22,1530628609571,522571, RC,0,39.9586186,-88.445067899,0,0.0,0.0,0.0,0.0,0.0,0.0,0.0,0.0,0.0,0.0,0.0,0.0,0.0,1500,1500,0.0,0.0,40.0482836667,-88.2327486667,0.0,0.0,0.0,0.0,0.0,0.0,0.0,0.0,0.0,0.0,0.0,0,0.0,0.0,0.0,0.0,90.0,90.0,67.0,88.8084564209,88.8084564209,105.99719238280001,23.388000488299998,15.899884223900001,3.4500000476999997,0,2,25,1,118,55
23,1530628609621,522621, RC,0,39.9586186,-88.445067899,0,0.0,0.0,0.0,0.0,0.0,0.0,0.0,0.0,0.0,0.0,0.0,0.0,0.0,1500,1500,0.0,0.0,40.0482836667,-88.2327486667,0.0,0.0,0.0,0.0,0.0,0.0,0.0,0.0,0.0,0.0,0.0,0,0.0,0.0,0.0,0.0,90.0,90.0,67.0,88.8084564209,88.8084564209,106.25184631350001,23.388000488299998,15.899884223900001,3.4500000476999997,0,2,25,1,120,58
24,1530628609672,522672, RC,0,39.9586186,-88.445067899,0,0.0,0.0,0.0,0.0,0.0,0.0,0.0,0.0,0.0,0.0,0.0,0.0,0.0,1500,1500,0.0,0.0,40.0482836667,-88.2327486667,0.0,0.0,0.0,0.0,0.0,0.0,0.0,0.0,0.0,0.0,0.0,0,0.0,0.0,0.0,0.0,90.0,90.0,67.0,88.8084564209,88.74479675290002,110.45352935790001,23.388000488299998,15.899884223900001,3.4500000476999997,0,2,25,1,122,60
25,1530628609722,522722, RC,0,39.9586186,-88.445067899,0,0.0,0.0,0.0,0.0,0.0,0.0,0.0,0.0,0.0,0.0,0.0,0.0,0.0,1500,1500,0.0,0.0,40.0482836667,-88.2327486667,0.0,0.0,0.0,0.0,0.0,0.0,0.0,0.0,0.0,0.0,0.0,0,0.0,0.0,0.0,0.0,90.0,90.0,67.0,88.8084564209,88.74479675290002,112.6180343628,23.388000488299998,15.894979476900001,2.0800001621,0,2,25,1,144,63
26,1530628609773,522773, RC,0,39.9586186,-88.445067899,0,0.0,0.0,0.0,0.0,0.0,0.0,0.0,0.0,0.0,0.0,0.0,0.0,0.0,1500,1500,0.0,0.0,40.0482836667,-88.2327486667,0.0,0.0,0.0,0.0,0.0,0.0,0.0,0.0,0.0,0.0,0.0,0,0.0,0.0,0.0,0.0,90.0,90.0,67.0,88.8084564209,88.74479675290002,112.6817016602,23.388000488299998,15.894979476900001,2.0800001621,0,2,25,1,141,65
27,1530628609823,522823, RC,0,39.9586186,-88.445067899,0,0.0,0.0,0.0,0.0,0.0,0.0,0.0,0.0,0.0,0.0,0.0,0.0,0.0,1500,1500,0.0,0.0,40.0482831667,-88.2327475,0.0,0.0,0.0,0.0,0.0,0.0,0.0,0.0,0.0,0.0,0.0,0,0.0,0.0,0.0,0.0,90.0,90.0,67.0,88.8084564209,88.74479675290002,112.6817016602,23.388000488299998,15.894979476900001,2.0800001621,0,2,25,1,136,68
28,1530628609874,522874, RC,0,39.9586186,-88.445067899,0,0.0,0.0,0.0,0.0,0.0,0.0,0.0,0.0,0.0,0.0,0.0,0.0,0.0,1500,1500,0.0,0.0,40.0482831667,-88.2327475,0.0,0.0,0.0,0.0,0.0,0.0,0.0,0.0,0.0,0.0,0.0,0,0.0,0.0,0.0,0.0,90.0,90.0,67.0,88.8084564209,88.74479675290002,112.6817016602,23.388000488299998,15.894979476900001,2.0800001621,0,2,25,1,139,70
29,1530628609924,522924, RC,0,39.9586186,-88.445067899,0,0.0,0.0,0.0,0.0,0.0,0.0,0.0,0.0,0.0,0.0,0.0,0.0,0.0,1500,1500,0.0,0.0,40.0482831667,-88.2327475,0.0,0.0,0.0,0.0,0.0,0.0,0.0,0.0,0.0,0.0,0.0,0,0.0,0.0,0.0,0.0,90.0,90.0,67.0,88.8084564209,88.74479675290002,112.36338806149999,23.388000488299998,15.894979476900001,2.0800001621,0,2,25,1,140,73
30,1530628609975,522975, RC,0,39.9586186,-88.445067899,0,0.0,0.0,0.0,0.0,0.0,0.0,0.0,0.0,0.0,0.0,0.0,0.0,0.0,1500,1500,0.0,0.0,40.0482831667,-88.2327475,0.0,0.0,0.0,0.0,0.0,0.0,0.0,0.0,0.0,0.0,0.0,0,0.0,0.0,0.0,0.0,90.0,90.0,63.0,88.8084564209,88.74479675290002,112.17240142819999,23.388000488299998,15.894979476900001,2.0800001621,0,2,25,1,137,76
31,1530628610026,523026, RC,0,39.9586186,-88.445067899,0,0.0,0.0,0.0,0.0,0.0,0.0,0.0,0.0,0.0,0.0,0.0,0.0,0.0,1500,1500,0.0,0.0,40.0482831667,-88.2327475,0.0,0.0,0.0,0.0,0.0,0.0,0.0,0.0,0.0,0.0,0.0,0,0.0,0.0,0.0,0.0,90.0,90.0,63.0,88.8084564209,88.74479675290002,112.17240142819999,23.388000488299998,15.894979476900001,2.0800001621,0,2,25,1,129,78
32,1530628610076,523076, RC,0,39.9586186,-88.445067899,0,0.0,0.0,0.0,0.0,0.0,0.0,0.0,0.0,0.0,0.0,0.0,0.0,0.0,1500,1500,0.0,0.0,40.0482831667,-88.2327475,0.0,0.0,0.0,0.0,0.0,0.0,0.0,0.0,0.0,0.0,0.0,0,0.0,0.0,0.0,0.0,90.0,90.0,63.0,88.8084564209,88.74479675290002,113.4456481934,23.388000488299998,15.894979476900001,2.0800001621,0,2,25,1,141,81
33,1530628610127,523127, RC,0,39.9586186,-88.445067899,0,0.0,0.0,0.0,0.0,0.0,0.0,0.0,0.0,0.0,0.0,0.0,0.0,0.0,1500,1500,0.0,0.0,40.0482831667,-88.2327475,0.0,0.0,0.0,0.0,0.0,0.0,0.0,0.0,0.0,0.0,0.0,0,0.0,0.0,0.0,0.0,90.0,90.0,63.0,88.8084564209,88.74479675290002,116.5014190674,23.388000488299998,15.894979476900001,2.0800001621,0,2,25,1,126,83
34,1530628610177,523177, RC,0,39.9586186,-88.445067899,0,0.0,0.0,0.0,0.0,0.0,0.0,0.0,0.0,0.0,0.0,0.0,0.0,0.0,1500,1500,0.0,0.0,40.0482831667,-88.2327475,0.0,0.0,0.0,0.0,0.0,0.0,0.0,0.0,0.0,0.0,0.0,0,0.0,0.0,0.0,0.0,90.0,90.0,63.0,88.8084564209,88.74479675290002,116.5014190674,23.388000488299998,15.894979476900001,2.0800001621,0,2,25,1,115,86
35,1530628610228,523228, RC,0,39.9586186,-88.445067899,0,0.0,0.0,0.0,0.0,0.0,0.0,0.0,0.0,0.0,0.0,0.0,0.0,0.0,1500,1500,0.0,0.0,40.0482831667,-88.2327475,0.0,0.0,0.0,0.0,0.0,0.0,0.0,0.0,0.0,0.0,0.0,0,0.0,0.0,0.0,0.0,90.0,90.0,63.0,88.8084564209,88.74479675290002,116.5014190674,23.388000488299998,15.894979476900001,2.0800001621,0,2,25,1,125,88
36,1530628610278,523278, RC,0,39.9586186,-88.445067899,0,0.0,0.0,0.0,0.0,0.0,0.0,0.0,0.0,0.0,0.0,0.0,0.0,0.0,1500,1500,0.0,0.0,40.0482831667,-88.2327475,0.0,0.0,0.0,0.0,0.0,0.0,0.0,0.0,0.0,0.0,0.0,0,0.0,0.0,0.0,0.0,90.0,90.0,63.0,88.8084564209,88.74479675290002,116.5014190674,23.388000488299998,15.894979476900001,2.0800001621,0,2,25,1,126,90
37,1530628610329,523329, RC,0,39.9586186,-88.445067899,0,0.0,0.0,0.0,0.0,0.0,0.0,0.0,0.0,0.0,0.0,0.0,0.0,0.0,1500,1500,0.0,0.0,40.0482831667,-88.2327475,0.0,0.0,0.0,0.0,0.0,0.0,0.0,0.0,0.0,0.0,0.0,0,0.0,0.0,0.0,0.0,90.0,90.0,63.0,88.8721160889,88.74479675290002,116.5014190674,23.388000488299998,15.894979476900001,2.0800001621,0,2,25,1,125,93
38,1530628610379,523379, RC,0,39.9586186,-88.445067899,0,0.0,0.0,0.0,0.0,0.0,0.0,0.0,0.0,0.0,0.0,0.0,0.0,0.0,1500,1500,0.0,0.0,40.0482831667,-88.2327475,0.0,0.0,0.0,0.0,0.0,0.0,0.0,0.0,0.0,0.0,0.0,0,0.0,0.0,0.0,0.0,90.0,90.0,63.0,88.8721160889,88.74479675290002,116.5014190674,23.388000488299998,15.894979476900001,2.0800001621,0,2,25,1,122,96
39,1530628610430,523430, RC,0,39.9586186,-88.445067899,0,0.0,0.0,0.0,0.0,0.0,0.0,0.0,0.0,0.0,0.0,0.0,0.0,0.0,1500,1500,0.0,0.0,40.0482831667,-88.2327475,0.0,0.0,0.0,0.0,0.0,0.0,0.0,0.0,0.0,0.0,0.0,0,0.0,0.0,0.0,0.0,90.0,90.0,63.0,88.8721160889,88.74479675290002,116.24677276610001,23.388000488299998,15.894979476900001,2.0800001621,0,2,25,1,127,98
40,1530628610481,523481, RC,0,39.9586186,-88.445067899,0,0.0,0.0,0.0,0.0,0.0,0.0,0.0,0.0,0.0,0.0,0.0,0.0,0.0,1500,1500,0.0,0.0,40.0482831667,-88.2327475,0.0,0.0,0.0,0.0,0.0,0.0,0.0,0.0,0.0,0.0,0.0,0,0.0,0.0,0.0,0.0,90.0,90.0,61.0,88.8721160889,88.74479675290002,115.67381286620001,23.388000488299998,15.894979476900001,2.0800001621,0,2,25,1,134,101
41,1530628610531,523531, RC,0,39.9586186,-88.445067899,0,0.0,0.0,0.0,0.0,0.0,0.0,0.0,0.0,0.0,0.0,0.0,0.0,0.0,1500,1500,0.0,0.0,40.0482831667,-88.2327475,0.0,0.0,0.0,0.0,0.0,0.0,0.0,0.0,0.0,0.0,0.0,0,0.0,0.0,0.0,0.0,90.0,90.0,61.0,88.8721160889,88.74479675290002,115.4828338623,23.388000488299998,15.894979476900001,2.0800001621,0,2,25,1,129,103
42,1530628610582,523582, RC,0,39.9586186,-88.445067899,0,0.0,0.0,0.0,0.0,0.0,0.0,0.0,0.0,0.0,0.0,0.0,0.0,0.0,1500,1500,0.0,0.0,40.0482831667,-88.2327475,0.0,0.0,0.0,0.0,0.0,0.0,0.0,0.0,0.0,0.0,0.0,0,0.0,0.0,0.0,0.0,90.0,90.0,61.0,88.8721160889,88.74479675290002,115.4828338623,23.388000488299998,15.894979476900001,2.0800001621,0,2,25,1,127,106
43,1530628610633,523633, RC,0,39.9586186,-88.445067899,0,0.0,0.0,0.0,0.0,0.0,0.0,0.0,0.0,0.0,0.0,0.0,0.0,0.0,1500,1500,0.0,0.0,40.0482831667,-88.2327475,0.0,0.0,0.0,0.0,0.0,0.0,0.0,0.0,0.0,0.0,0.0,0,0.0,0.0,0.0,0.0,90.0,90.0,61.0,88.8721160889,88.74479675290002,115.4828338623,23.388000488299998,15.894979476900001,2.0800001621,0,2,25,1,121,108
44,1530628610683,523683, RC,0,39.9586186,-88.445067899,0,0.0,0.0,0.0,0.0,0.0,0.0,0.0,0.0,0.0,0.0,0.0,0.0,0.0,1500,1500,0.0,0.0,40.0482831667,-88.2327475,0.0,0.0,0.0,0.0,0.0,0.0,0.0,0.0,0.0,0.0,0.0,0,0.0,0.0,0.0,0.0,90.0,90.0,61.0,88.8721160889,88.74479675290002,116.62874603270001,23.388000488299998,15.894979476900001,2.0800001621,0,2,25,1,117,111
45,1530628610734,523734, RC,0,39.9586186,-88.445067899,0,0.0,0.0,0.0,0.0,0.0,0.0,0.0,0.0,0.0,0.0,0.0,0.0,0.0,1500,1500,0.0,0.0,40.0482831667,-88.2327475,0.0,0.0,0.0,0.0,0.0,0.0,0.0,0.0,0.0,0.0,0.0,0,0.0,0.0,0.0,0.0,90.0,90.0,61.0,88.8721160889,88.74479675290002,117.2653579712,23.388000488299998,15.8902406693,3.0099999905000003,0,2,25,1,117,113
46,1530628610784,523784, RC,0,39.9586186,-88.445067899,0,0.0,0.0,0.0,0.0,0.0,0.0,0.0,0.0,0.0,0.0,0.0,0.0,0.0,1500,1500,0.0,0.0,40.0482831667,-88.2327475,0.0,0.0,0.0,0.0,0.0,0.0,0.0,0.0,0.0,0.0,0.0,0,0.0,0.0,0.0,0.0,90.0,90.0,60.0,88.8721160889,88.74479675290002,117.2653579712,23.388000488299998,15.8902406693,3.0099999905000003,0,2,25,1,124,116
47,1530628610835,523835, RC,0,39.9586186,-88.445067899,0,0.0,0.0,0.0,0.0,0.0,0.0,0.0,0.0,0.0,0.0,0.0,0.0,0.0,1500,1500,0.0,0.0,40.0482795,-88.2327455,0.0,0.0,0.0,0.0,0.0,0.0,0.0,0.0,0.0,0.0,0.0,0,0.0,0.0,0.0,0.0,90.0,90.0,60.0,88.8721160889,88.74479675290002,117.7109985352,23.388000488299998,15.8902406693,3.0099999905000003,0,2,25,1,115,118
48,1530628610885,523885, RC,0,39.9586186,-88.445067899,0,0.0,0.0,0.0,0.0,0.0,0.0,0.0,0.0,0.0,0.0,0.0,0.0,0.0,1500,1500,0.0,0.0,40.0482795,-88.2327455,0.0,0.0,0.0,0.0,0.0,0.0,0.0,0.0,0.0,0.0,0.0,0,0.0,0.0,0.0,0.0,90.0,90.0,60.0,88.8721160889,88.74479675290002,118.0929718018,23.388000488299998,15.8902406693,3.0099999905000003,0,2,25,1,109,121
49,1530628610936,523936, RC,0,39.9586186,-88.445067899,0,0.0,0.0,0.0,0.0,0.0,0.0,0.0,0.0,0.0,0.0,0.0,0.0,0.0,1500,1500,0.0,0.0,40.0482795,-88.2327455,0.0,0.0,0.0,0.0,0.0,0.0,0.0,0.0,0.0,0.0,0.0,0,0.0,0.0,0.0,0.0,90.0,90.0,60.0,88.8721160889,88.74479675290002,118.0929718018,23.388000488299998,15.8902406693,3.0099999905000003,0,2,25,1,107,123
50,1530628610987,523987, RC,0,39.9586186,-88.445067899,0,0.0,0.0,0.0,0.0,0.0,0.0,0.0,0.0,0.0,0.0,0.0,0.0,0.0,1500,1500,0.0,0.0,40.0482795,-88.2327455,0.0,0.0,0.0,0.0,0.0,0.0,0.0,0.0,0.0,0.0,0.0,0,0.0,0.0,0.0,0.0,90.0,90.0,60.0,88.8721160889,88.74479675290002,118.0929718018,23.388000488299998,15.8902406693,3.0099999905000003,0,2,25,1,118,126
51,1530628611037,524037, RC,0,39.9586186,-88.445067899,0,0.0,0.0,0.0,0.0,0.0,0.0,0.0,0.0,0.0,0.0,0.0,0.0,0.0,1500,1500,0.0,0.0,40.0482795,-88.2327455,0.0,0.0,0.0,0.0,0.0,0.0,0.0,0.0,0.0,0.0,0.0,0,0.0,0.0,0.0,0.0,90.0,90.0,60.0,88.8721160889,88.74479675290002,118.0929718018,23.388000488299998,15.8902406693,3.0099999905000003,0,2,25,1,111,128
52,1530628611088,524088, RC,0,39.9586186,-88.445067899,0,0.0,0.0,0.0,0.0,0.0,0.0,0.0,0.0,0.0,0.0,0.0,0.0,0.0,1500,1500,0.0,0.0,40.0482795,-88.2327455,0.0,0.0,0.0,0.0,0.0,0.0,0.0,0.0,0.0,0.0,0.0,0,0.0,0.0,0.0,0.0,90.0,90.0,60.0,88.8721160889,88.74479675290002,118.0929718018,23.388000488299998,15.8902406693,3.0099999905000003,0,2,25,1,118,131
53,1530628611138,524138, RC,0,39.9586186,-88.445067899,0,0.0,0.0,0.0,0.0,0.0,0.0,0.0,0.0,0.0,0.0,0.0,0.0,0.0,1500,1500,0.0,0.0,40.0482795,-88.2327455,0.0,0.0,0.0,0.0,0.0,0.0,0.0,0.0,0.0,0.0,0.0,0,0.0,0.0,0.0,0.0,90.0,90.0,60.0,88.8721160889,88.74479675290002,118.2202911377,23.388000488299998,15.8902406693,3.0099999905000003,0,2,25,1,109,133
54,1530628611189,524189, RC,0,39.9586186,-88.445067899,0,0.0,0.0,0.0,0.0,0.0,0.0,0.0,0.0,0.0,0.0,0.0,0.0,0.0,1500,1500,0.0,0.0,40.0482795,-88.2327455,0.0,0.0,0.0,0.0,0.0,0.0,0.0,0.0,0.0,0.0,0.0,0,0.0,0.0,0.0,0.0,90.0,90.0,60.0,88.8721160889,88.74479675290002,118.34761810299999,23.388000488299998,15.8902406693,3.0099999905000003,0,2,25,1,121,136
55,1530628611239,524239, RC,0,39.9586186,-88.445067899,0,0.0,0.0,0.0,0.0,0.0,0.0,0.0,0.0,0.0,0.0,0.0,0.0,0.0,1500,1500,0.0,0.0,40.0482795,-88.2327455,0.0,0.0,0.0,0.0,0.0,0.0,0.0,0.0,0.0,0.0,0.0,0,0.0,0.0,0.0,0.0,90.0,90.0,60.0,88.8721160889,88.681137085,118.34761810299999,23.388000488299998,15.8902406693,3.0099999905000003,0,2,25,1,109,138
56,1530628611290,524290, RC,0,39.9586186,-88.445067899,0,0.0,0.0,0.0,0.0,0.0,0.0,0.0,0.0,0.0,0.0,0.0,0.0,0.0,1500,1500,0.0,0.0,40.0482795,-88.2327455,0.0,0.0,0.0,0.0,0.0,0.0,0.0,0.0,0.0,0.0,0.0,0,0.0,0.0,0.0,0.0,90.0,90.0,60.0,88.8721160889,88.74479675290002,118.34761810299999,23.388000488299998,15.8902406693,3.0099999905000003,0,2,25,1,112,141
57,1530628611341,524341, RC,0,39.9586186,-88.445067899,0,0.0,0.0,0.0,0.0,0.0,0.0,0.0,0.0,0.0,0.0,0.0,0.0,0.0,1500,1500,0.0,0.0,40.0482795,-88.2327455,0.0,0.0,0.0,0.0,0.0,0.0,0.0,0.0,0.0,0.0,0.0,0,0.0,0.0,0.0,0.0,90.0,90.0,60.0,88.8721160889,88.681137085,118.34761810299999,23.388000488299998,15.8902406693,3.0099999905000003,0,2,25,1,114,143
58,1530628611391,524391, RC,0,39.9586186,-88.445067899,0,0.0,0.0,0.0,0.0,0.0,0.0,0.0,0.0,0.0,0.0,0.0,0.0,0.0,1500,1500,0.0,0.0,40.0482795,-88.2327455,0.0,0.0,0.0,0.0,0.0,0.0,0.0,0.0,0.0,0.0,0.0,0,0.0,0.0,0.0,0.0,90.0,90.0,60.0,88.8721160889,88.681137085,118.34761810299999,23.388000488299998,15.8902406693,3.0099999905000003,0,2,25,1,118,146
59,1530628611442,524442, RC,0,39.9586186,-88.445067899,0,0.0,0.0,0.0,0.0,0.0,0.0,0.0,0.0,0.0,0.0,0.0,0.0,0.0,1500,1500,0.0,0.0,40.0482795,-88.2327455,0.0,0.0,0.0,0.0,0.0,0.0,0.0,0.0,0.0,0.0,0.0,0,0.0,0.0,0.0,0.0,90.0,90.0,60.0,88.8721160889,88.681137085,118.34761810299999,23.388000488299998,15.8902406693,3.0099999905000003,0,2,25,1,113,148
60,1530628611492,524492, RC,0,39.9586186,-88.445067899,0,0.0,0.0,0.0,0.0,0.0,0.0,0.0,0.0,0.0,0.0,0.0,0.0,0.0,1500,1500,0.0,0.0,40.0482795,-88.2327455,0.0,0.0,0.0,0.0,0.0,0.0,0.0,0.0,0.0,0.0,0.0,0,0.0,0.0,0.0,0.0,90.0,90.0,60.0,88.8721160889,88.681137085,118.34761810299999,23.388000488299998,15.8902406693,3.0099999905000003,0,2,25,1,120,151
61,1530628611543,524543, RC,0,39.9586186,-88.445067899,0,0.0,0.0,0.0,0.0,0.0,0.0,0.0,0.0,0.0,0.0,0.0,0.0,0.0,1500,1500,0.0,0.0,40.0482795,-88.2327455,0.0,0.0,0.0,0.0,0.0,0.0,0.0,0.0,0.0,0.0,0.0,0,0.0,0.0,0.0,0.0,90.0,90.0,60.0,88.8721160889,88.681137085,118.34761810299999,23.388000488299998,15.8902406693,3.0099999905000003,0,2,25,1,116,154
62,1530628611593,524593, RC,0,39.9586186,-88.445067899,0,0.0,0.0,0.0,0.0,0.0,0.0,0.0,0.0,0.0,0.0,0.0,0.0,0.0,1500,1500,0.0,0.0,40.0482795,-88.2327455,0.0,0.0,0.0,0.0,0.0,0.0,0.0,0.0,0.0,0.0,0.0,0,0.0,0.0,0.0,0.0,90.0,90.0,60.0,88.8721160889,88.681137085,118.34761810299999,23.388000488299998,15.8902406693,3.0099999905000003,0,2,25,1,121,156
63,1530628611644,524644, RC,0,39.9586186,-88.445067899,0,0.0,0.0,0.0,0.0,0.0,0.0,0.0,0.0,0.0,0.0,0.0,0.0,0.0,1500,1500,0.0,0.0,40.0482795,-88.2327455,0.0,0.0,0.0,0.0,0.0,0.0,0.0,0.0,0.0,0.0,0.0,0,0.0,0.0,0.0,0.0,90.0,90.0,60.0,88.8721160889,88.681137085,118.2839584351,23.388000488299998,15.8902406693,3.0099999905000003,0,2,25,1,117,159
64,1530628611695,524695, RC,0,39.9586186,-88.445067899,0,0.0,0.0,0.0,0.0,0.0,0.0,0.0,0.0,0.0,0.0,0.0,0.0,0.0,1500,1500,0.0,0.0,40.0482795,-88.2327455,0.0,0.0,0.0,0.0,0.0,0.0,0.0,0.0,0.0,0.0,0.0,0,0.0,0.0,0.0,0.0,90.0,90.0,60.0,88.8721160889,88.681137085,118.2839584351,23.388000488299998,15.885554313699998,3.1799998282999997,0,2,25,1,116,161
65,1530628611745,524745, RC,0,39.9586186,-88.445067899,0,0.0,0.0,0.0,0.0,0.0,0.0,0.0,0.0,0.0,0.0,0.0,0.0,0.0,1500,1500,0.0,0.0,40.0482795,-88.2327455,0.0,0.0,0.0,0.0,0.0,0.0,0.0,0.0,0.0,0.0,0.0,0,0.0,0.0,0.0,0.0,90.0,90.0,60.0,88.8721160889,88.681137085,118.2839584351,23.388000488299998,15.885554313699998,3.1799998282999997,0,2,25,1,106,163
66,1530628611796,524796, RC,0,39.9586186,-88.445067899,0,0.0,0.0,0.0,0.0,0.0,0.0,0.0,0.0,0.0,0.0,0.0,0.0,0.0,1500,1500,0.0,0.0,40.048278833299996,-88.2327428333,0.0,0.0,0.0,0.0,0.0,0.0,0.0,0.0,0.0,0.0,0.0,0,0.0,0.0,0.0,0.0,90.0,90.0,60.0,88.8721160889,88.681137085,118.2839584351,23.388000488299998,15.885554313699998,3.1799998282999997,0,2,25,1,106,166
67,1530628611846,524846, RC,0,39.9586186,-88.445067899,0,0.0,0.0,0.0,0.0,0.0,0.0,0.0,0.0,0.0,0.0,0.0,0.0,0.0,1500,1500,0.0,0.0,40.048278833299996,-88.2327428333,0.0,0.0,0.0,0.0,0.0,0.0,0.0,0.0,0.0,0.0,0.0,0,0.0,0.0,0.0,0.0,90.0,90.0,60.0,88.8721160889,88.681137085,118.2839584351,23.388000488299998,15.885554313699998,3.1799998282999997,0,2,25,1,109,168
68,1530628611897,524897, RC,0,39.9586186,-88.445067899,0,0.0,0.0,0.0,0.0,0.0,0.0,0.0,0.0,0.0,0.0,0.0,0.0,0.0,1500,1500,0.0,0.0,40.048278833299996,-88.2327428333,0.0,0.0,0.0,0.0,0.0,0.0,0.0,0.0,0.0,0.0,0.0,0,0.0,0.0,0.0,0.0,90.0,90.0,60.0,88.93578338620001,88.681137085,118.2839584351,23.388000488299998,15.885554313699998,3.1799998282999997,0,2,25,1,112,171
69,1530628611948,524948, RC,0,39.9586186,-88.445067899,0,0.0,0.0,0.0,0.0,0.0,0.0,0.0,0.0,0.0,0.0,0.0,0.0,0.0,1500,1500,0.0,0.0,40.048278833299996,-88.2327428333,0.0,0.0,0.0,0.0,0.0,0.0,0.0,0.0,0.0,0.0,0.0,0,0.0,0.0,0.0,0.0,90.0,90.0,60.0,88.93578338620001,88.681137085,118.2839584351,23.388000488299998,15.885554313699998,3.1799998282999997,0,2,25,1,109,174
70,1530628611998,524998, RC,0,39.9586186,-88.445067899,0,0.0,0.0,0.0,0.0,0.0,0.0,0.0,0.0,0.0,0.0,0.0,0.0,0.0,1500,1500,0.0,0.0,40.048278833299996,-88.2327428333,0.0,0.0,0.0,0.0,0.0,0.0,0.0,0.0,0.0,0.0,0.0,0,0.0,0.0,0.0,0.0,90.0,90.0,60.0,88.93578338620001,88.681137085,118.2839584351,23.388000488299998,15.885554313699998,3.1799998282999997,0,2,25,1,115,176
71,1530628612049,525049, RC,0,39.9586186,-88.445067899,0,0.0,0.0,0.0,0.0,0.0,0.0,0.0,0.0,0.0,0.0,0.0,0.0,0.0,1500,1500,0.0,0.0,40.048278833299996,-88.2327428333,0.0,0.0,0.0,0.0,0.0,0.0,0.0,0.0,0.0,0.0,0.0,0,0.0,0.0,0.0,0.0,90.0,87.0,60.0,88.93578338620001,88.681137085,118.2839584351,23.388000488299998,15.885554313699998,3.1799998282999997,0,2,25,1,108,179
72,1530628612099,525099, RC,0,39.9586186,-88.445067899,0,0.0,0.0,0.0,0.0,0.0,0.0,0.0,0.0,0.0,0.0,0.0,0.0,0.0,1500,1500,0.0,0.0,40.048278833299996,-88.2327428333,0.0,0.0,0.0,0.0,0.0,0.0,0.0,0.0,0.0,0.0,0.0,0,0.0,0.0,0.0,0.0,90.0,87.0,60.0,88.93578338620001,88.74479675290002,118.2839584351,23.388000488299998,15.885554313699998,3.1799998282999997,0,2,25,1,110,181
73,1530628612150,525150, RC,0,39.9586186,-88.445067899,0,0.0,0.0,0.0,0.0,0.0,0.0,0.0,0.0,0.0,0.0,0.0,0.0,0.0,1500,1500,0.0,0.0,40.048278833299996,-88.2327428333,0.0,0.0,0.0,0.0,0.0,0.0,0.0,0.0,0.0,0.0,0.0,0,0.0,0.0,0.0,0.0,90.0,87.0,60.0,88.93578338620001,91.67324829100001,118.2839584351,23.388000488299998,15.885554313699998,3.1799998282999997,0,2,25,1,115,184
74,1530628612201,525201, RC,0,39.9586186,-88.445067899,0,0.0,0.0,0.0,0.0,0.0,0.0,0.0,0.0,0.0,0.0,0.0,0.0,0.0,1500,1500,0.0,0.0,40.048278833299996,-88.2327428333,0.0,0.0,0.0,0.0,0.0,0.0,0.0,0.0,0.0,0.0,0.0,0,0.0,0.0,0.0,0.0,90.0,87.0,60.0,88.93578338620001,92.2462081909,118.2839584351,23.388000488299998,15.885554313699998,3.1799998282999997,0,2,25,1,115,186
75,1530628612251,525251, RC,0,39.9586186,-88.445067899,0,0.0,0.0,0.0,0.0,0.0,0.0,0.0,0.0,0.0,0.0,0.0,0.0,0.0,1500,1500,0.0,0.0,40.048278833299996,-88.2327428333,0.0,0.0,0.0,0.0,0.0,0.0,0.0,0.0,0.0,0.0,0.0,0,0.0,0.0,0.0,0.0,90.0,87.0,60.0,88.93578338620001,91.73690795899999,118.2839584351,23.388000488299998,15.885554313699998,3.1799998282999997,0,2,25,1,113,189
76,1530628612302,525302, RC,0,39.9586186,-88.445067899,0,0.0,0.0,0.0,0.0,0.0,0.0,0.0,0.0,0.0,0.0,0.0,0.0,0.0,1500,1500,0.0,0.0,40.048278833299996,-88.2327428333,0.0,0.0,0.0,0.0,0.0,0.0,0.0,0.0,0.0,0.0,0.0,0,0.0,0.0,0.0,0.0,90.0,87.0,60.0,88.93578338620001,91.73690795899999,118.2839584351,23.388000488299998,15.885554313699998,3.1799998282999997,0,2,25,1,118,191
77,1530628612352,525352, RC,0,39.9586186,-88.445067899,0,0.0,0.0,0.0,0.0,0.0,0.0,0.0,0.0,0.0,0.0,0.0,0.0,0.0,1500,1500,0.0,0.0,40.048278833299996,-88.2327428333,0.0,0.0,0.0,0.0,0.0,0.0,0.0,0.0,0.0,0.0,0.0,0,0.0,0.0,0.0,0.0,90.0,69.0,60.0,88.93578338620001,91.73690795899999,118.2839584351,23.388000488299998,15.885554313699998,3.1799998282999997,0,2,25,1,119,194
78,1530628612403,525403, RC,0,39.9586186,-88.445067899,0,0.0,0.0,0.0,0.0,0.0,0.0,0.0,0.0,0.0,0.0,0.0,0.0,0.0,1500,1500,0.0,0.0,40.048278833299996,-88.2327428333,0.0,0.0,0.0,0.0,0.0,0.0,0.0,0.0,0.0,0.0,0.0,0,0.0,0.0,0.0,0.0,90.0,69.0,60.0,88.93578338620001,92.5645141602,118.2839584351,23.388000488299998,15.885554313699998,3.1799998282999997,0,2,25,1,114,196
79,1530628612454,525454, RC,0,39.9586186,-88.445067899,0,0.0,0.0,0.0,0.0,0.0,0.0,0.0,0.0,0.0,0.0,0.0,0.0,0.0,1500,1500,0.0,0.0,40.048278833299996,-88.2327428333,0.0,0.0,0.0,0.0,0.0,0.0,0.0,0.0,0.0,0.0,0.0,0,0.0,0.0,0.0,0.0,90.0,69.0,60.0,88.93578338620001,110.51719665530001,118.2839584351,23.388000488299998,15.885554313699998,3.1799998282999997,0,2,25,1,113,199
80,1530628612504,525504, RC,0,39.9586186,-88.445067899,0,0.0,0.0,0.0,0.0,0.0,0.0,0.0,0.0,0.0,0.0,0.0,0.0,0.0,1500,1500,0.0,0.0,40.048278833299996,-88.2327428333,0.0,0.0,0.0,0.0,0.0,0.0,0.0,0.0,0.0,0.0,0.0,0,0.0,0.0,0.0,0.0,90.0,69.0,60.0,88.93578338620001,108.5436706543,118.2839584351,23.388000488299998,15.885554313699998,3.1799998282999997,0,2,25,1,106,201
81,1530628612555,525555, RC,0,39.9586186,-88.445067899,0,0.0,0.0,0.0,0.0,0.0,0.0,0.0,0.0,0.0,0.0,0.0,0.0,0.0,1500,1500,0.0,0.0,40.048278833299996,-88.2327428333,0.0,0.0,0.0,0.0,0.0,0.0,0.0,0.0,0.0,0.0,0.0,0,0.0,0.0,0.0,0.0,90.0,64.0,60.0,88.93578338620001,108.5436706543,118.2839584351,23.388000488299998,15.885554313699998,3.1799998282999997,0,2,25,1,103,204
82,1530628612605,525605, RC,0,39.9586186,-88.445067899,0,0.0,0.0,0.0,0.0,0.0,0.0,0.0,0.0,0.0,0.0,0.0,0.0,0.0,1500,1500,0.0,0.0,40.048278833299996,-88.2327428333,0.0,0.0,0.0,0.0,0.0,0.0,0.0,0.0,0.0,0.0,0.0,0,0.0,0.0,0.0,0.0,90.0,64.0,60.0,88.93578338620001,109.4986038208,118.2839584351,23.388000488299998,15.885554313699998,3.1799998282999997,0,2,25,1,103,206
83,1530628612656,525656, RC,0,39.9586186,-88.445067899,0,0.0,0.0,0.0,0.0,0.0,0.0,0.0,0.0,0.0,0.0,0.0,0.0,0.0,1500,1500,0.0,0.0,40.048278833299996,-88.2327428333,0.0,0.0,0.0,0.0,0.0,0.0,0.0,0.0,0.0,0.0,0.0,0,0.0,0.0,0.0,0.0,90.0,63.0,60.0,88.93578338620001,113.89128112790002,118.9842300415,23.388000488299998,15.885554313699998,3.1799998282999997,0,2,25,1,107,209
84,1530628612707,525707, RC,0,39.9586186,-88.445067899,0,0.0,0.0,0.0,0.0,0.0,0.0,0.0,0.0,0.0,0.0,0.0,0.0,0.0,1500,1500,0.0,0.0,40.048278833299996,-88.2327428333,0.0,0.0,0.0,0.0,0.0,0.0,0.0,0.0,0.0,0.0,0.0,0,0.0,0.0,0.0,0.0,90.0,63.0,60.0,88.93578338620001,115.0371856689,118.9842300415,23.388000488299998,15.8807048798,2.3600001335,0,2,25,1,101,211
85,1530628612757,525757, RC,0,39.9586186,-88.445067899,0,0.0,0.0,0.0,0.0,0.0,0.0,0.0,0.0,0.0,0.0,0.0,0.0,0.0,1500,1500,0.0,0.0,40.048278833299996,-88.2327428333,0.0,0.0,0.0,0.0,0.0,0.0,0.0,0.0,0.0,0.0,0.0,0,0.0,0.0,0.0,0.0,90.0,61.0,60.0,88.93578338620001,115.16451263430001,118.9842300415,23.388000488299998,15.8807048798,2.3600001335,0,2,25,1,102,214
86,1530628612808,525808, RC,0,39.9586186,-88.445067899,0,0.0,0.0,0.0,0.0,0.0,0.0,0.0,0.0,0.0,0.0,0.0,0.0,0.0,1500,1500,0.0,0.0,40.0482785,-88.2327435,0.0,0.0,0.0,0.0,0.0,0.0,0.0,0.0,0.0,0.0,0.0,0,0.0,0.0,0.0,0.0,90.0,61.0,60.0,88.93578338620001,115.86479949950001,118.9205703735,23.388000488299998,15.8807048798,2.3600001335,0,2,25,1,108,216
87,1530628612859,525859, RC,0,39.9586186,-88.445067899,0,0.0,0.0,0.0,0.0,0.0,0.0,0.0,0.0,0.0,0.0,0.0,0.0,0.0,1500,1500,0.0,0.0,40.0482785,-88.2327435,0.0,0.0,0.0,0.0,0.0,0.0,0.0,0.0,0.0,0.0,0.0,0,0.0,0.0,0.0,0.0,90.0,61.0,60.0,88.93578338620001,117.58367156979999,118.9205703735,23.388000488299998,15.8807048798,2.3600001335,0,2,25,1,105,219
88,1530628612909,525909, RC,0,39.9586186,-88.445067899,0,0.0,0.0,0.0,0.0,0.0,0.0,0.0,0.0,0.0,0.0,0.0,0.0,0.0,1500,1500,0.0,0.0,40.0482785,-88.2327435,0.0,0.0,0.0,0.0,0.0,0.0,0.0,0.0,0.0,0.0,0.0,0,0.0,0.0,0.0,0.0,90.0,61.0,60.0,88.93578338620001,118.15663146969999,118.9205703735,23.388000488299998,15.8807048798,2.3600001335,0,2,25,1,100,221
89,1530628612960,525960, RC,0,39.9586186,-88.445067899,0,0.0,0.0,0.0,0.0,0.0,0.0,0.0,0.0,0.0,0.0,0.0,0.0,0.0,1500,1500,0.0,0.0,40.0482785,-88.2327435,0.0,0.0,0.0,0.0,0.0,0.0,0.0,0.0,0.0,0.0,0.0,0,0.0,0.0,0.0,0.0,90.0,60.0,60.0,88.93578338620001,117.96564483639999,118.9205703735,23.388000488299998,15.8807048798,2.3600001335,0,2,25,1,112,224
90,1530628613010,526010, RC,0,39.9586186,-88.445067899,0,0.0,0.0,0.0,0.0,0.0,0.0,0.0,0.0,0.0,0.0,0.0,0.0,0.0,1500,1500,0.0,0.0,40.0482785,-88.2327435,0.0,0.0,0.0,0.0,0.0,0.0,0.0,0.0,0.0,0.0,0.0,0,0.0,0.0,0.0,0.0,90.0,60.0,60.0,88.93578338620001,117.96564483639999,118.9205703735,23.388000488299998,15.8807048798,2.3600001335,0,2,25,1,97,226
91,1530628613061,526061, RC,0,39.9586186,-88.445067899,0,0.0,0.0,0.0,0.0,0.0,0.0,0.0,0.0,0.0,0.0,0.0,0.0,0.0,1500,1500,0.0,0.0,40.0482785,-88.2327435,0.0,0.0,0.0,0.0,0.0,0.0,0.0,0.0,0.0,0.0,0.0,0,0.0,0.0,0.0,0.0,90.0,60.0,60.0,88.93578338620001,117.9019851685,118.9205703735,23.388000488299998,15.8807048798,2.3600001335,0,2,25,1,107,229
92,1530628613111,526111, RC,0,39.9586186,-88.445067899,0,0.0,0.0,0.0,0.0,0.0,0.0,0.0,0.0,0.0,0.0,0.0,0.0,0.0,1500,1500,0.0,0.0,40.0482785,-88.2327435,0.0,0.0,0.0,0.0,0.0,0.0,0.0,0.0,0.0,0.0,0.0,0,0.0,0.0,0.0,0.0,90.0,60.0,60.0,88.93578338620001,117.9019851685,118.9205703735,23.388000488299998,15.8807048798,2.3600001335,0,2,25,1,103,232
93,1530628613162,526162, RC,0,39.9586186,-88.445067899,0,0.0,0.0,0.0,0.0,0.0,0.0,0.0,0.0,0.0,0.0,0.0,0.0,0.0,1500,1500,0.0,0.0,40.0482785,-88.2327435,0.0,0.0,0.0,0.0,0.0,0.0,0.0,0.0,0.0,0.0,0.0,0,0.0,0.0,0.0,0.0,90.0,60.0,60.0,88.93578338620001,117.9019851685,118.9205703735,23.388000488299998,15.8807048798,2.3600001335,0,2,25,1,108,234
94,1530628613212,526212, RC,0,39.9586186,-88.445067899,0,0.0,0.0,0.0,0.0,0.0,0.0,0.0,0.0,0.0,0.0,0.0,0.0,0.0,1500,1500,0.0,0.0,40.0482785,-88.2327435,0.0,0.0,0.0,0.0,0.0,0.0,0.0,0.0,0.0,0.0,0.0,0,0.0,0.0,0.0,0.0,90.0,60.0,60.0,88.93578338620001,117.9019851685,118.9205703735,23.388000488299998,15.8807048798,2.3600001335,0,2,25,1,109,237
95,1530628613263,526263, RC,0,39.9586186,-88.445067899,0,0.0,0.0,0.0,0.0,0.0,0.0,0.0,0.0,0.0,0.0,0.0,0.0,0.0,1500,1500,0.0,0.0,40.0482785,-88.2327435,0.0,0.0,0.0,0.0,0.0,0.0,0.0,0.0,0.0,0.0,0.0,0,0.0,0.0,0.0,0.0,90.0,58.0,60.0,88.93578338620001,117.9019851685,118.9205703735,23.388000488299998,15.8807048798,2.3600001335,0,2,25,1,105,239
96,1530628613314,526314, RC,0,39.9586186,-88.445067899,0,0.0,0.0,0.0,0.0,0.0,0.0,0.0,0.0,0.0,0.0,0.0,0.0,0.0,1500,1500,0.0,0.0,40.0482785,-88.2327435,0.0,0.0,0.0,0.0,0.0,0.0,0.0,0.0,0.0,0.0,0.0,0,0.0,0.0,0.0,0.0,90.0,58.0,60.0,88.93578338620001,118.72959136959999,118.9205703735,23.388000488299998,15.8807048798,2.3600001335,0,2,25,1,102,241
97,1530628613364,526364, RC,0,39.9586186,-88.445067899,0,0.0,0.0,0.0,0.0,0.0,0.0,0.0,0.0,0.0,0.0,0.0,0.0,0.0,1500,1500,0.0,0.0,40.0482785,-88.2327435,0.0,0.0,0.0,0.0,0.0,0.0,0.0,0.0,0.0,0.0,0.0,0,0.0,0.0,0.0,0.0,90.0,58.0,60.0,88.93578338620001,121.0850753784,118.9205703735,23.388000488299998,15.8807048798,2.3600001335,0,2,25,1,103,244
98,1530628613415,526415, RC,0,39.9586186,-88.445067899,0,0.0,0.0,0.0,0.0,0.0,0.0,0.0,0.0,0.0,0.0,0.0,0.0,0.0,1500,1500,0.0,0.0,40.0482785,-88.2327435,0.0,0.0,0.0,0.0,0.0,0.0,0.0,0.0,0.0,0.0,0.0,0,0.0,0.0,0.0,0.0,90.0,58.0,60.0,88.93578338620001,120.51211547850001,118.9205703735,23.388000488299998,15.8807048798,2.3600001335,0,2,25,1,107,247
99,1530628613465,526465, RC,0,39.9586186,-88.445067899,0,0.0,0.0,0.0,0.0,0.0,0.0,0.0,0.0,0.0,0.0,0.0,0.0,0.0,1500,1500,0.0,0.0,40.0482785,-88.2327435,0.0,0.0,0.0,0.0,0.0,0.0,0.0,0.0,0.0,0.0,0.0,0,0.0,0.0,0.0,0.0,90.0,58.0,60.0,88.93578338620001,120.51211547850001,118.9205703735,23.388000488299998,15.8807048798,2.3600001335,0,2,25,1,100,249
100,1530628613516,526516, RC,0,39.9586186,-88.445067899,0,0.0,0.0,0.0,0.0,0.0,0.0,0.0,0.0,0.0,0.0,0.0,0.0,0.0,1500,1500,0.0,0.0,40.0482785,-88.2327435,0.0,0.0,0.0,0.0,0.0,0.0,0.0,0.0,0.0,0.0,0.0,0,0.0,0.0,0.0,0.0,90.0,58.0,60.0,88.93578338620001,120.4484634399,118.9205703735,23.388000488299998,15.8807048798,2.3600001335,0,2,25,1,106,252
101,1530628613566,526566, RC,0,39.9586186,-88.445067899,0,0.0,0.0,0.0,0.0,0.0,0.0,0.0,0.0,0.0,0.0,0.0,0.0,0.0,1500,1500,0.0,0.0,40.0482785,-88.2327435,0.0,0.0,0.0,0.0,0.0,0.0,0.0,0.0,0.0,0.0,0.0,0,0.0,0.0,0.0,0.0,90.0,58.0,60.0,88.93578338620001,120.4484634399,118.9205703735,23.388000488299998,15.8807048798,2.3600001335,0,2,25,1,104,254
102,1530628613617,526617, RC,0,39.9586186,-88.445067899,0,0.0,0.0,0.0,0.0,0.0,0.0,0.0,0.0,0.0,0.0,0.0,0.0,0.0,1500,1500,0.0,0.0,40.0482785,-88.2327435,0.0,0.0,0.0,0.0,0.0,0.0,0.0,0.0,0.0,0.0,0.0,0,0.0,0.0,0.0,0.0,90.0,58.0,60.0,88.93578338620001,120.4484634399,118.9205703735,23.388000488299998,15.8807048798,2.3600001335,0,2,25,1,108,257
103,1530628613668,526668, RC,0,39.9586186,-88.445067899,0,0.0,0.0,0.0,0.0,0.0,0.0,0.0,0.0,0.0,0.0,0.0,0.0,0.0,1500,1500,0.0,0.0,40.0482785,-88.2327435,0.0,0.0,0.0,0.0,0.0,0.0,0.0,0.0,0.0,0.0,0.0,0,0.0,0.0,0.0,0.0,90.0,58.0,60.0,88.93578338620001,120.6394424438,118.9205703735,23.388000488299998,15.8807048798,2.3600001335,0,2,25,1,99,259
104,1530628613718,526718, RC,0,39.9586186,-88.445067899,0,0.0,0.0,0.0,0.0,0.0,0.0,0.0,0.0,0.0,0.0,0.0,0.0,0.0,1500,1500,0.0,0.0,40.0482785,-88.2327435,0.0,0.0,0.0,0.0,0.0,0.0,0.0,0.0,0.0,0.0,0.0,0,0.0,0.0,0.0,0.0,90.0,58.0,60.0,88.93578338620001,120.6394424438,118.9205703735,23.388000488299998,15.875842094400001,2.3600001335,0,2,25,1,104,262
105,1530628613769,526769, RC,0,39.9586186,-88.445067899,0,0.0,0.0,0.0,0.0,0.0,0.0,0.0,0.0,0.0,0.0,0.0,0.0,0.0,1500,1500,0.0,0.0,40.0482785,-88.2327435,0.0,0.0,0.0,0.0,0.0,0.0,0.0,0.0,0.0,0.0,0.0,0,0.0,0.0,0.0,0.0,90.0,58.0,60.0,88.93578338620001,120.6394424438,118.9205703735,23.388000488299998,15.875842094400001,2.3600001335,0,2,25,1,103,264
106,1530628613819,526819, RC,0,39.9586186,-88.445067899,0,0.0,0.0,0.0,0.0,0.0,0.0,0.0,0.0,0.0,0.0,0.0,0.0,0.0,1500,1500,0.0,0.0,40.0482785,-88.2327435,0.0,0.0,0.0,0.0,0.0,0.0,0.0,0.0,0.0,0.0,0.0,0,0.0,0.0,0.0,0.0,90.0,58.0,60.0,88.93578338620001,120.6394424438,118.9205703735,23.388000488299998,15.875842094400001,2.3600001335,0,2,25,1,102,267
107,1530628613870,526870, RC,0,39.9586186,-88.445067899,0,0.0,0.0,0.0,0.0,0.0,0.0,0.0,0.0,0.0,0.0,0.0,0.0,0.0,1500,1500,0.0,0.0,40.0482795,-88.232744,0.0,0.0,0.0,0.0,0.0,0.0,0.0,0.0,0.0,0.0,0.0,0,0.0,0.0,0.0,0.0,90.0,58.0,60.0,88.93578338620001,120.6394424438,118.9205703735,23.388000488299998,15.875842094400001,2.3600001335,0,2,25,1,102,269
108,1530628613921,526921, RC,0,39.9586186,-88.445067899,0,0.0,0.0,0.0,0.0,0.0,0.0,0.0,0.0,0.0,0.0,0.0,0.0,0.0,1500,1500,0.0,0.0,40.0482795,-88.232744,0.0,0.0,0.0,0.0,0.0,0.0,0.0,0.0,0.0,0.0,0.0,0,0.0,0.0,0.0,0.0,90.0,58.0,60.0,88.93578338620001,120.6394424438,118.9205703735,23.388000488299998,15.875842094400001,2.3600001335,0,2,25,1,97,272
109,1530628613971,526971, RC,0,39.9586186,-88.445067899,0,0.0,0.0,0.0,0.0,0.0,0.0,0.0,0.0,0.0,0.0,0.0,0.0,0.0,1500,1500,0.0,0.0,40.0482795,-88.232744,0.0,0.0,0.0,0.0,0.0,0.0,0.0,0.0,0.0,0.0,0.0,0,0.0,0.0,0.0,0.0,90.0,58.0,60.0,88.93578338620001,120.57579040530001,118.9205703735,23.388000488299998,15.875842094400001,2.3600001335,0,2,25,1,103,274
110,1530628614022,527022, RC,0,39.9586186,-88.445067899,0,0.0,0.0,0.0,0.0,0.0,0.0,0.0,0.0,0.0,0.0,0.0,0.0,0.0,1500,1500,0.0,0.0,40.0482795,-88.232744,0.0,0.0,0.0,0.0,0.0,0.0,0.0,0.0,0.0,0.0,0.0,0,0.0,0.0,0.0,0.0,90.0,58.0,60.0,88.93578338620001,120.57579040530001,118.9205703735,23.388000488299998,15.875842094400001,2.3600001335,0,2,25,1,104,277
111,1530628614072,527072, RC,0,39.9586186,-88.445067899,0,0.0,0.0,0.0,0.0,0.0,0.0,0.0,0.0,0.0,0.0,0.0,0.0,0.0,1500,1500,0.0,0.0,40.0482795,-88.232744,0.0,0.0,0.0,0.0,0.0,0.0,0.0,0.0,0.0,0.0,0.0,0,0.0,0.0,0.0,0.0,90.0,58.0,60.0,88.93578338620001,120.57579040530001,118.9205703735,23.388000488299998,15.875842094400001,2.3600001335,0,2,25,1,105,279
112,1530628614123,527123, RC,0,39.9586186,-88.445067899,0,0.0,0.0,0.0,0.0,0.0,0.0,0.0,0.0,0.0,0.0,0.0,0.0,0.0,1500,1500,0.0,0.0,40.0482795,-88.232744,0.0,0.0,0.0,0.0,0.0,0.0,0.0,0.0,0.0,0.0,0.0,0,0.0,0.0,0.0,0.0,90.0,58.0,60.0,88.93578338620001,120.57579040530001,118.9205703735,23.388000488299998,15.875842094400001,2.3600001335,0,2,25,1,106,282
113,1530628614173,527173, RC,0,39.9586186,-88.445067899,0,0.0,0.0,0.0,0.0,0.0,0.0,0.0,0.0,0.0,0.0,0.0,0.0,0.0,1500,1500,0.0,0.0,40.0482795,-88.232744,0.0,0.0,0.0,0.0,0.0,0.0,0.0,0.0,0.0,0.0,0.0,0,0.0,0.0,0.0,0.0,90.0,51.0,60.0,88.93578338620001,120.57579040530001,118.9205703735,23.388000488299998,15.875842094400001,2.3600001335,0,2,25,1,97,284
114,1530628614224,527224, RC,0,39.9586186,-88.445067899,0,0.0,0.0,0.0,0.0,0.0,0.0,0.0,0.0,0.0,0.0,0.0,0.0,0.0,1500,1500,0.0,0.0,40.0482795,-88.232744,0.0,0.0,0.0,0.0,0.0,0.0,0.0,0.0,0.0,0.0,0.0,0,0.0,0.0,0.0,0.0,90.0,51.0,60.0,88.93578338620001,120.57579040530001,118.9205703735,23.388000488299998,15.875842094400001,2.3600001335,0,2,25,1,103,287
115,1530628614274,527274, RC,0,39.9586186,-88.445067899,0,0.0,0.0,0.0,0.0,0.0,0.0,0.0,0.0,0.0,0.0,0.0,0.0,0.0,1500,1500,0.0,0.0,40.0482795,-88.232744,0.0,0.0,0.0,0.0,0.0,0.0,0.0,0.0,0.0,0.0,0.0,0,0.0,0.0,0.0,0.0,90.0,55.0,60.0,88.93578338620001,125.6687469482,118.9205703735,23.388000488299998,15.875842094400001,2.3600001335,0,2,25,1,94,289
116,1530628614325,527325, RC,0,39.9586186,-88.445067899,0,0.0,0.0,0.0,0.0,0.0,0.0,0.0,0.0,0.0,0.0,0.0,0.0,0.0,1500,1500,0.0,0.0,40.0482795,-88.232744,0.0,0.0,0.0,0.0,0.0,0.0,0.0,0.0,0.0,0.0,0.0,0,0.0,0.0,0.0,0.0,90.0,55.0,60.0,88.93578338620001,126.36901855469999,118.9205703735,23.388000488299998,15.875842094400001,2.3600001335,0,2,25,1,105,292
117,1530628614375,527375, RC,0,39.9586186,-88.445067899,0,0.0,0.0,0.0,0.0,0.0,0.0,0.0,0.0,0.0,0.0,0.0,0.0,0.0,1500,1500,0.0,0.0,40.0482795,-88.232744,0.0,0.0,0.0,0.0,0.0,0.0,0.0,0.0,0.0,0.0,0.0,0,0.0,0.0,0.0,0.0,90.0,58.0,60.0,88.93578338620001,123.504234314,118.9205703735,23.388000488299998,15.875842094400001,2.3600001335,0,2,25,1,101,294
118,1530628614426,527426, RC,0,39.9586186,-88.445067899,0,0.0,0.0,0.0,0.0,0.0,0.0,0.0,0.0,0.0,0.0,0.0,0.0,0.0,1500,1500,0.0,0.0,40.0482795,-88.232744,0.0,0.0,0.0,0.0,0.0,0.0,0.0,0.0,0.0,0.0,0.0,0,0.0,0.0,0.0,0.0,90.0,58.0,60.0,88.93578338620001,122.9312744141,118.9205703735,23.388000488299998,15.875842094400001,2.3600001335,0,2,25,1,103,297
119,1530628614477,527477, RC,0,39.9586186,-88.445067899,0,0.0,0.0,0.0,0.0,0.0,0.0,0.0,0.0,0.0,0.0,0.0,0.0,0.0,1500,1500,0.0,0.0,40.0482795,-88.232744,0.0,0.0,0.0,0.0,0.0,0.0,0.0,0.0,0.0,0.0,0.0,0,0.0,0.0,0.0,0.0,90.0,58.0,60.0,88.93578338620001,121.3397293091,118.9205703735,23.388000488299998,15.875842094400001,2.3600001335,0,2,25,1,106,299
120,1530628614527,527527, RC,0,39.9586186,-88.445067899,0,0.0,0.0,0.0,0.0,0.0,0.0,0.0,0.0,0.0,0.0,0.0,0.0,0.0,1500,1500,0.0,0.0,40.0482795,-88.232744,0.0,0.0,0.0,0.0,0.0,0.0,0.0,0.0,0.0,0.0,0.0,0,0.0,0.0,0.0,0.0,90.0,58.0,60.0,88.93578338620001,121.5307159424,118.9205703735,23.388000488299998,15.875842094400001,2.3600001335,0,2,25,1,108,302
121,1530628614578,527578, RC,0,39.9586186,-88.445067899,0,0.0,0.0,0.0,0.0,0.0,0.0,0.0,0.0,0.0,0.0,0.0,0.0,0.0,1500,1500,0.0,0.0,40.0482795,-88.232744,0.0,0.0,0.0,0.0,0.0,0.0,0.0,0.0,0.0,0.0,0.0,0,0.0,0.0,0.0,0.0,90.0,58.0,60.0,88.93578338620001,121.2760620117,118.9205703735,23.388000488299998,15.875842094400001,2.3600001335,0,2,25,1,111,304
122,1530628614628,527628, RC,0,39.9586186,-88.445067899,0,0.0,0.0,0.0,0.0,0.0,0.0,0.0,0.0,0.0,0.0,0.0,0.0,0.0,1500,1500,0.0,0.0,40.0482795,-88.232744,0.0,0.0,0.0,0.0,0.0,0.0,0.0,0.0,0.0,0.0,0.0,0,0.0,0.0,0.0,0.0,90.0,58.0,60.0,88.93578338620001,121.2760620117,118.9205703735,23.388000488299998,15.875842094400001,2.3600001335,0,2,25,1,110,307
123,1530628614679,527679, RC,0,39.9586186,-88.445067899,0,0.0,0.0,0.0,0.0,0.0,0.0,0.0,0.0,0.0,0.0,0.0,0.0,0.0,1500,1500,0.0,0.0,40.0482795,-88.232744,0.0,0.0,0.0,0.0,0.0,0.0,0.0,0.0,0.0,0.0,0.0,0,0.0,0.0,0.0,0.0,90.0,58.0,60.0,88.93578338620001,121.2760620117,118.9205703735,23.388000488299998,15.875842094400001,2.3600001335,0,2,25,1,105,310
124,1530628614729,527729, RC,0,39.9586186,-88.445067899,0,0.0,0.0,0.0,0.0,0.0,0.0,0.0,0.0,0.0,0.0,0.0,0.0,0.0,1500,1500,0.0,0.0,40.0482795,-88.232744,0.0,0.0,0.0,0.0,0.0,0.0,0.0,0.0,0.0,0.0,0.0,0,0.0,0.0,0.0,0.0,90.0,58.0,60.0,88.93578338620001,121.2760620117,118.9205703735,23.388000488299998,15.8711872101,3.2399997711,0,2,25,1,104,312
125,1530628614780,527780, RC,0,39.9586186,-88.445067899,0,0.0,0.0,0.0,0.0,0.0,0.0,0.0,0.0,0.0,0.0,0.0,0.0,0.0,1500,1500,0.0,0.0,40.0482795,-88.232744,0.0,0.0,0.0,0.0,0.0,0.0,0.0,0.0,0.0,0.0,0.0,0,0.0,0.0,0.0,0.0,90.0,58.0,60.0,88.93578338620001,120.83042907709999,118.9205703735,23.388000488299998,15.8711872101,3.2399997711,0,2,25,1,101,314
126,1530628614830,527830, RC,0,39.9586186,-88.445067899,0,0.0,0.0,0.0,0.0,0.0,0.0,0.0,0.0,0.0,0.0,0.0,0.0,0.0,1500,1500,0.0,0.0,40.048278833299996,-88.232744,0.0,0.0,0.0,0.0,0.0,0.0,0.0,0.0,0.0,0.0,0.0,0,0.0,0.0,0.0,0.0,90.0,58.0,60.0,88.93578338620001,120.7031021118,118.9205703735,23.388000488299998,15.8711872101,3.2399997711,0,2,25,1,106,317
127,1530628614881,527881, RC,0,39.9586186,-88.445067899,0,0.0,0.0,0.0,0.0,0.0,0.0,0.0,0.0,0.0,0.0,0.0,0.0,0.0,1500,1500,0.0,0.0,40.048278833299996,-88.232744,0.0,0.0,0.0,0.0,0.0,0.0,0.0,0.0,0.0,0.0,0.0,0,0.0,0.0,0.0,0.0,90.0,58.0,60.0,88.93578338620001,120.7031021118,118.9205703735,23.388000488299998,15.8711872101,3.2399997711,0,2,25,1,108,319
128,1530628614931,527931, RC,0,39.9586186,-88.445067899,0,0.0,0.0,0.0,0.0,0.0,0.0,0.0,0.0,0.0,0.0,0.0,0.0,0.0,1500,1500,0.0,0.0,40.048278833299996,-88.232744,0.0,0.0,0.0,0.0,0.0,0.0,0.0,0.0,0.0,0.0,0.0,0,0.0,0.0,0.0,0.0,90.0,58.0,60.0,88.93578338620001,120.7031021118,118.9205703735,23.388000488299998,15.8711872101,3.2399997711,0,2,25,1,108,322
129,1530628614982,527982, RC,0,39.9586186,-88.445067899,0,0.0,0.0,0.0,0.0,0.0,0.0,0.0,0.0,0.0,0.0,0.0,0.0,0.0,1500,1500,0.0,0.0,40.048278833299996,-88.232744,0.0,0.0,0.0,0.0,0.0,0.0,0.0,0.0,0.0,0.0,0.0,0,0.0,0.0,0.0,0.0,90.0,58.0,60.0,88.93578338620001,120.7031021118,118.9205703735,23.388000488299998,15.8711872101,3.2399997711,0,2,25,1,112,324
130,1530628615033,528033, RC,0,39.9586186,-88.445067899,0,0.0,0.0,0.0,0.0,0.0,0.0,0.0,0.0,0.0,0.0,0.0,0.0,0.0,1500,1500,0.0,0.0,40.048278833299996,-88.232744,0.0,0.0,0.0,0.0,0.0,0.0,0.0,0.0,0.0,0.0,0.0,0,0.0,0.0,0.0,0.0,90.0,58.0,60.0,88.93578338620001,120.7031021118,118.9205703735,23.388000488299998,15.8711872101,3.2399997711,0,2,25,1,107,327
131,1530628615083,528083, RC,0,39.9586186,-88.445067899,0,0.0,0.0,0.0,0.0,0.0,0.0,0.0,0.0,0.0,0.0,0.0,0.0,0.0,1500,1500,0.0,0.0,40.048278833299996,-88.232744,0.0,0.0,0.0,0.0,0.0,0.0,0.0,0.0,0.0,0.0,0.0,0,0.0,0.0,0.0,0.0,90.0,60.0,60.0,88.93578338620001,120.7031021118,118.9205703735,23.388000488299998,15.8711872101,3.2399997711,0,2,25,1,112,330
132,1530628615134,528134, RC,0,39.9586186,-88.445067899,0,0.0,0.0,0.0,0.0,0.0,0.0,0.0,0.0,0.0,0.0,0.0,0.0,0.0,1500,1500,0.0,0.0,40.048278833299996,-88.232744,0.0,0.0,0.0,0.0,0.0,0.0,0.0,0.0,0.0,0.0,0.0,0,0.0,0.0,0.0,0.0,90.0,60.0,60.0,88.93578338620001,120.2574768066,118.9205703735,23.388000488299998,15.8711872101,3.2399997711,0,2,25,1,100,332
133,1530628615184,528184, RC,0,39.9586186,-88.445067899,0,0.0,0.0,0.0,0.0,0.0,0.0,0.0,0.0,0.0,0.0,0.0,0.0,0.0,1500,1500,0.0,0.0,40.048278833299996,-88.232744,0.0,0.0,0.0,0.0,0.0,0.0,0.0,0.0,0.0,0.0,0.0,0,0.0,0.0,0.0,0.0,90.0,60.0,60.0,88.93578338620001,118.72959136959999,118.9205703735,23.388000488299998,15.8711872101,3.2399997711,0,2,25,1,105,335
134,1530628615235,528235, RC,0,39.9586186,-88.445067899,0,0.0,0.0,0.0,0.0,0.0,0.0,0.0,0.0,0.0,0.0,0.0,0.0,0.0,1500,1500,0.0,0.0,40.048278833299996,-88.232744,0.0,0.0,0.0,0.0,0.0,0.0,0.0,0.0,0.0,0.0,0.0,0,0.0,0.0,0.0,0.0,90.0,60.0,60.0,88.93578338620001,118.411277771,118.9205703735,23.388000488299998,15.8711872101,3.2399997711,0,2,25,1,107,337
135,1530628615285,528285, RC,0,39.9586186,-88.445067899,0,0.0,0.0,0.0,0.0,0.0,0.0,0.0,0.0,0.0,0.0,0.0,0.0,0.0,1500,1500,0.0,0.0,40.048278833299996,-88.232744,0.0,0.0,0.0,0.0,0.0,0.0,0.0,0.0,0.0,0.0,0.0,0,0.0,0.0,0.0,0.0,90.0,60.0,60.0,88.93578338620001,118.411277771,118.9205703735,23.388000488299998,15.8711872101,3.2399997711,0,2,25,1,107,340
136,1530628615336,528336, RC,0,39.9586186,-88.445067899,0,0.0,0.0,0.0,0.0,0.0,0.0,0.0,0.0,0.0,0.0,0.0,0.0,0.0,1500,1500,0.0,0.0,40.048278833299996,-88.232744,0.0,0.0,0.0,0.0,0.0,0.0,0.0,0.0,0.0,0.0,0.0,0,0.0,0.0,0.0,0.0,90.0,60.0,60.0,88.93578338620001,118.411277771,118.9205703735,23.388000488299998,15.8711872101,3.2399997711,0,2,25,1,101,342
137,1530628615387,528387, RC,0,39.9586186,-88.445067899,0,0.0,0.0,0.0,0.0,0.0,0.0,0.0,0.0,0.0,0.0,0.0,0.0,0.0,1500,1500,0.0,0.0,40.048278833299996,-88.232744,0.0,0.0,0.0,0.0,0.0,0.0,0.0,0.0,0.0,0.0,0.0,0,0.0,0.0,0.0,0.0,90.0,60.0,60.0,88.93578338620001,118.411277771,118.9205703735,23.388000488299998,15.8711872101,3.2399997711,0,2,25,1,103,345
138,1530628615437,528437, RC,0,39.9586186,-88.445067899,0,0.0,0.0,0.0,0.0,0.0,0.0,0.0,0.0,0.0,0.0,0.0,0.0,0.0,1500,1500,0.0,0.0,40.048278833299996,-88.232744,0.0,0.0,0.0,0.0,0.0,0.0,0.0,0.0,0.0,0.0,0.0,0,0.0,0.0,0.0,0.0,90.0,60.0,60.0,88.93578338620001,118.411277771,118.9205703735,23.388000488299998,15.8711872101,3.2399997711,0,2,25,1,114,347
139,1530628615488,528488, RC,0,39.9586186,-88.445067899,0,0.0,0.0,0.0,0.0,0.0,0.0,0.0,0.0,0.0,0.0,0.0,0.0,0.0,1500,1500,0.0,0.0,40.048278833299996,-88.232744,0.0,0.0,0.0,0.0,0.0,0.0,0.0,0.0,0.0,0.0,0.0,0,0.0,0.0,0.0,0.0,90.0,60.0,60.0,88.93578338620001,118.411277771,118.9205703735,23.388000488299998,15.8711872101,3.2399997711,0,2,25,1,108,350
140,1530628615538,528538, RC,0,39.9586186,-88.445067899,0,0.0,0.0,0.0,0.0,0.0,0.0,0.0,0.0,0.0,0.0,0.0,0.0,0.0,1500,1500,0.0,0.0,40.048278833299996,-88.232744,0.0,0.0,0.0,0.0,0.0,0.0,0.0,0.0,0.0,0.0,0.0,0,0.0,0.0,0.0,0.0,90.0,60.0,60.0,88.93578338620001,118.34761810299999,118.9205703735,23.388000488299998,15.8711872101,3.2399997711,0,2,25,1,104,352
141,1530628615589,528589, RC,0,39.9586186,-88.445067899,0,0.0,0.0,0.0,0.0,0.0,0.0,0.0,0.0,0.0,0.0,0.0,0.0,0.0,1500,1500,0.0,0.0,40.048278833299996,-88.232744,0.0,0.0,0.0,0.0,0.0,0.0,0.0,0.0,0.0,0.0,0.0,0,0.0,0.0,0.0,0.0,90.0,60.0,60.0,88.93578338620001,118.34761810299999,118.9205703735,23.388000488299998,15.8711872101,3.2399997711,0,2,25,1,108,355
142,1530628615639,528639, RC,0,39.9586186,-88.445067899,0,0.0,0.0,0.0,0.0,0.0,0.0,0.0,0.0,0.0,0.0,0.0,0.0,0.0,1500,1500,0.0,0.0,40.048278833299996,-88.232744,0.0,0.0,0.0,0.0,0.0,0.0,0.0,0.0,0.0,0.0,0.0,0,0.0,0.0,0.0,0.0,90.0,60.0,60.0,88.93578338620001,118.411277771,118.9205703735,23.388000488299998,15.8711872101,3.2399997711,0,2,25,1,100,357
143,1530628615690,528690, RC,0,39.9586186,-88.445067899,0,0.0,0.0,0.0,0.0,0.0,0.0,0.0,0.0,0.0,0.0,0.0,0.0,0.0,1500,1500,0.0,0.0,40.048278833299996,-88.232744,0.0,0.0,0.0,0.0,0.0,0.0,0.0,0.0,0.0,0.0,0.0,0,0.0,0.0,0.0,0.0,90.0,60.0,60.0,88.93578338620001,118.411277771,118.9205703735,23.388000488299998,15.866366386400001,2.5199999809,0,2,25,1,106,360
144,1530628615740,528740, RC,0,39.9586186,-88.445067899,0,0.0,0.0,0.0,0.0,0.0,0.0,0.0,0.0,0.0,0.0,0.0,0.0,0.0,1500,1500,0.0,0.0,40.048278833299996,-88.232744,0.0,0.0,0.0,0.0,0.0,0.0,0.0,0.0,0.0,0.0,0.0,0,0.0,0.0,0.0,0.0,90.0,60.0,60.0,88.93578338620001,118.34761810299999,118.9205703735,23.388000488299998,15.866366386400001,2.5199999809,0,2,25,1,110,362
145,1530628615791,528791, RC,0,39.9586186,-88.445067899,0,0.0,0.0,0.0,0.0,0.0,0.0,0.0,0.0,0.0,0.0,0.0,0.0,0.0,1500,1500,0.0,0.0,40.0482823333,-88.2327413333,0.0,0.0,0.0,0.0,0.0,0.0,0.0,0.0,0.0,0.0,0.0,0,0.0,0.0,0.0,0.0,90.0,60.0,60.0,88.93578338620001,118.34761810299999,118.9205703735,23.388000488299998,15.866366386400001,2.5199999809,0,2,25,1,100,365
146,1530628615842,528842, RC,0,39.9586186,-88.445067899,0,0.0,0.0,0.0,0.0,0.0,0.0,0.0,0.0,0.0,0.0,0.0,0.0,0.0,1500,1500,0.0,0.0,40.0482823333,-88.2327413333,0.0,0.0,0.0,0.0,0.0,0.0,0.0,0.0,0.0,0.0,0.0,0,0.0,0.0,0.0,0.0,90.0,60.0,60.0,88.93578338620001,118.411277771,118.9205703735,23.388000488299998,15.866366386400001,2.5199999809,0,2,25,1,98,367
147,1530628615892,528892, RC,0,39.9586186,-88.445067899,0,0.0,0.0,0.0,0.0,0.0,0.0,0.0,0.0,0.0,0.0,0.0,0.0,0.0,1500,1500,0.0,0.0,40.0482823333,-88.2327413333,0.0,0.0,0.0,0.0,0.0,0.0,0.0,0.0,0.0,0.0,0.0,0,0.0,0.0,0.0,0.0,90.0,60.0,60.0,88.93578338620001,118.34761810299999,118.9205703735,23.388000488299998,15.866366386400001,2.5199999809,0,2,25,1,106,370
148,1530628615943,528943, RC,0,39.9586186,-88.445067899,0,0.0,0.0,0.0,0.0,0.0,0.0,0.0,0.0,0.0,0.0,0.0,0.0,0.0,1500,1500,0.0,0.0,40.0482823333,-88.2327413333,0.0,0.0,0.0,0.0,0.0,0.0,0.0,0.0,0.0,0.0,0.0,0,0.0,0.0,0.0,0.0,90.0,60.0,60.0,88.93578338620001,118.34761810299999,118.9205703735,23.388000488299998,15.866366386400001,2.5199999809,0,2,25,1,107,372
149,1530628615993,528993, RC,0,39.9586186,-88.445067899,0,0.0,0.0,0.0,0.0,0.0,0.0,0.0,0.0,0.0,0.0,0.0,0.0,0.0,1500,1500,0.0,0.0,40.0482823333,-88.2327413333,0.0,0.0,0.0,0.0,0.0,0.0,0.0,0.0,0.0,0.0,0.0,0,0.0,0.0,0.0,0.0,90.0,60.0,60.0,88.93578338620001,118.34761810299999,118.9205703735,23.388000488299998,15.866366386400001,2.5199999809,0,2,25,1,104,375
150,1530628616044,529044, RC,0,39.9586186,-88.445067899,0,0.0,0.0,0.0,0.0,0.0,0.0,0.0,0.0,0.0,0.0,0.0,0.0,0.0,1500,1500,0.0,0.0,40.0482823333,-88.2327413333,0.0,0.0,0.0,0.0,0.0,0.0,0.0,0.0,0.0,0.0,0.0,0,0.0,0.0,0.0,0.0,90.0,60.0,60.0,88.93578338620001,118.6022567749,118.9205703735,23.388000488299998,15.866366386400001,2.5199999809,0,2,25,1,96,377
151,1530628616094,529094, RC,0,39.9586186,-88.445067899,0,0.0,0.0,0.0,0.0,0.0,0.0,0.0,0.0,0.0,0.0,0.0,0.0,0.0,1500,1500,0.0,0.0,40.0482823333,-88.2327413333,0.0,0.0,0.0,0.0,0.0,0.0,0.0,0.0,0.0,0.0,0.0,0,0.0,0.0,0.0,0.0,90.0,60.0,60.0,88.93578338620001,118.6659317017,118.9205703735,23.388000488299998,15.866366386400001,2.5199999809,0,2,25,1,98,380
152,1530628616145,529145, RC,0,39.9586186,-88.445067899,0,0.0,0.0,0.0,0.0,0.0,0.0,0.0,0.0,0.0,0.0,0.0,0.0,0.0,1500,1500,0.0,0.0,40.0482823333,-88.2327413333,0.0,0.0,0.0,0.0,0.0,0.0,0.0,0.0,0.0,0.0,0.0,0,0.0,0.0,0.0,0.0,90.0,60.0,60.0,88.93578338620001,118.6659317017,118.9205703735,23.388000488299998,15.866366386400001,2.5199999809,0,2,25,1,100,382
153,1530628616195,529195, RC,0,39.9586186,-88.445067899,0,0.0,0.0,0.0,0.0,0.0,0.0,0.0,0.0,0.0,0.0,0.0,0.0,0.0,1500,1500,0.0,0.0,40.0482823333,-88.2327413333,0.0,0.0,0.0,0.0,0.0,0.0,0.0,0.0,0.0,0.0,0.0,0,0.0,0.0,0.0,0.0,90.0,60.0,60.0,88.9994430542,118.6022567749,118.9205703735,23.388000488299998,15.866366386400001,2.5199999809,0,2,25,1,102,385
154,1530628616246,529246, RC,0,39.9586186,-88.445067899,0,0.0,0.0,0.0,0.0,0.0,0.0,0.0,0.0,0.0,0.0,0.0,0.0,0.0,1500,1500,0.0,0.0,40.0482823333,-88.2327413333,0.0,0.0,0.0,0.0,0.0,0.0,0.0,0.0,0.0,0.0,0.0,0,0.0,0.0,0.0,0.0,90.0,60.0,60.0,89.12677001950001,118.6022567749,118.9205703735,23.388000488299998,15.866366386400001,2.5199999809,0,2,25,1,102,387
155,1530628616297,529297, RC,0,39.9586186,-88.445067899,0,0.0,0.0,0.0,0.0,0.0,0.0,0.0,0.0,0.0,0.0,0.0,0.0,0.0,1500,1500,0.0,0.0,40.0482823333,-88.2327413333,0.0,0.0,0.0,0.0,0.0,0.0,0.0,0.0,0.0,0.0,0.0,0,0.0,0.0,0.0,0.0,90.0,60.0,60.0,89.12677001950001,118.6659317017,118.9205703735,23.388000488299998,15.866366386400001,2.5199999809,0,2,25,1,106,390
156,1530628616347,529347, RC,0,39.9586186,-88.445067899,0,0.0,0.0,0.0,0.0,0.0,0.0,0.0,0.0,0.0,0.0,0.0,0.0,0.0,1500,1500,0.0,0.0,40.0482823333,-88.2327413333,0.0,0.0,0.0,0.0,0.0,0.0,0.0,0.0,0.0,0.0,0.0,0,0.0,0.0,0.0,0.0,90.0,60.0,60.0,89.12677001950001,118.6659317017,118.9205703735,23.388000488299998,15.866366386400001,2.5199999809,0,2,25,1,103,392
157,1530628616398,529398, RC,0,39.9586186,-88.445067899,0,0.0,0.0,0.0,0.0,0.0,0.0,0.0,0.0,0.0,0.0,0.0,0.0,0.0,1500,1500,0.0,0.0,40.0482823333,-88.2327413333,0.0,0.0,0.0,0.0,0.0,0.0,0.0,0.0,0.0,0.0,0.0,0,0.0,0.0,0.0,0.0,90.0,60.0,60.0,89.12677001950001,118.6659317017,118.9205703735,23.388000488299998,15.866366386400001,2.5199999809,0,2,25,1,108,394
158,1530628616448,529448, RC,0,39.9586186,-88.445067899,0,0.0,0.0,0.0,0.0,0.0,0.0,0.0,0.0,0.0,0.0,0.0,0.0,0.0,1500,1500,0.0,0.0,40.0482823333,-88.2327413333,0.0,0.0,0.0,0.0,0.0,0.0,0.0,0.0,0.0,0.0,0.0,0,0.0,0.0,0.0,0.0,90.0,60.0,60.0,89.12677001950001,118.6659317017,118.9205703735,23.388000488299998,15.866366386400001,2.5199999809,0,2,25,1,101,396
159,1530628616499,529499, RC,0,39.9586186,-88.445067899,0,0.0,0.0,0.0,0.0,0.0,0.0,0.0,0.0,0.0,0.0,0.0,0.0,0.0,1500,1500,0.0,0.0,40.0482823333,-88.2327413333,0.0,0.0,0.0,0.0,0.0,0.0,0.0,0.0,0.0,0.0,0.0,0,0.0,0.0,0.0,0.0,90.0,60.0,60.0,89.12677001950001,118.6659317017,118.9205703735,23.388000488299998,15.866366386400001,2.5199999809,0,2,25,1,107,399
160,1530628616549,529549, RC,0,39.9586186,-88.445067899,0,0.0,0.0,0.0,0.0,0.0,0.0,0.0,0.0,0.0,0.0,0.0,0.0,0.0,1500,1500,0.0,0.0,40.0482823333,-88.2327413333,0.0,0.0,0.0,0.0,0.0,0.0,0.0,0.0,0.0,0.0,0.0,0,0.0,0.0,0.0,0.0,90.0,60.0,60.0,89.12677001950001,118.6659317017,118.9205703735,23.388000488299998,15.866366386400001,2.5199999809,0,2,25,1,100,401
161,1530628616600,529600, RC,0,39.9586186,-88.445067899,0,0.0,0.0,0.0,0.0,0.0,0.0,0.0,0.0,0.0,0.0,0.0,0.0,0.0,1500,1500,0.0,0.0,40.0482823333,-88.2327413333,0.0,0.0,0.0,0.0,0.0,0.0,0.0,0.0,0.0,0.0,0.0,0,0.0,0.0,0.0,0.0,90.0,60.0,60.0,89.0631027222,118.6659317017,118.9205703735,23.388000488299998,15.866366386400001,2.5199999809,0,2,25,1,108,403
162,1530628616651,529651, RC,0,39.9586186,-88.445067899,0,0.0,0.0,0.0,0.0,0.0,0.0,0.0,0.0,0.0,0.0,0.0,0.0,0.0,1500,1500,0.0,0.0,40.0482823333,-88.2327413333,0.0,0.0,0.0,0.0,0.0,0.0,0.0,0.0,0.0,0.0,0.0,0,0.0,0.0,0.0,0.0,90.0,60.0,60.0,89.0631027222,118.6022567749,118.9205703735,23.388000488299998,15.866366386400001,2.5199999809,0,2,25,1,99,405
163,1530628616701,529701, RC,0,39.9586186,-88.445067899,0,0.0,0.0,0.0,0.0,0.0,0.0,0.0,0.0,0.0,0.0,0.0,0.0,0.0,1500,1500,0.0,0.0,40.0482823333,-88.2327413333,0.0,0.0,0.0,0.0,0.0,0.0,0.0,0.0,0.0,0.0,0.0,0,0.0,0.0,0.0,0.0,90.0,60.0,60.0,89.0631027222,118.6659317017,118.9205703735,23.388000488299998,15.8614778519,2.1300001144,0,2,25,1,107,407
164,1530628616752,529752, RC,0,39.9586186,-88.445067899,0,0.0,0.0,0.0,0.0,0.0,0.0,0.0,0.0,0.0,0.0,0.0,0.0,0.0,1500,1500,0.0,0.0,40.0482823333,-88.2327413333,0.0,0.0,0.0,0.0,0.0,0.0,0.0,0.0,0.0,0.0,0.0,0,0.0,0.0,0.0,0.0,90.0,60.0,60.0,89.0631027222,118.6659317017,118.9205703735,23.388000488299998,15.8614778519,2.1300001144,0,2,25,1,99,410
165,1530628616802,529802, RC,0,39.9586186,-88.445067899,0,0.0,0.0,0.0,0.0,0.0,0.0,0.0,0.0,0.0,0.0,0.0,0.0,0.0,1500,1500,0.0,0.0,40.0482878333,-88.2327353333,0.0,0.0,0.0,0.0,0.0,0.0,0.0,0.0,0.0,0.0,0.0,0,0.0,0.0,0.0,0.0,90.0,60.0,60.0,89.0631027222,118.6022567749,118.9205703735,23.388000488299998,15.8614778519,2.1300001144,0,2,25,1,102,412
166,1530628616853,529853, RC,0,39.9586186,-88.445067899,0,0.0,0.0,0.0,0.0,0.0,0.0,0.0,0.0,0.0,0.0,0.0,0.0,0.0,1500,1500,0.0,0.0,40.0482878333,-88.2327353333,0.0,0.0,0.0,0.0,0.0,0.0,0.0,0.0,0.0,0.0,0.0,0,0.0,0.0,0.0,0.0,90.0,60.0,60.0,89.0631027222,118.6022567749,118.9205703735,23.388000488299998,15.8614778519,2.1300001144,0,2,25,1,111,414
