,(0)linux time (ms),    (1)uptime  (ms),      (2)drive mode,(3)mpc step counter,(4)mpc origin latitude  (deg),(5)mpc origin longitude  (deg),(6)closest trajectory point index to robot,(7)mpc error x (W;E)  (m),(8)mpc error y (W;E)  (m),(9)abs mpc error (m),(10)input [x] for mhe (m),(11)input [y] for mhe (m),(12)input [speed] for mhe (m/s),(13)input [vyaw] for mhe (rad/s),(14)mhe output x  (m),(15)mhe output y  (m),(16)mhe output speed  (m/s),(17)mhe output yaw  (rad),(18)mpc reference heading (rad),(19)mpc turn rate command (rad/s),(20)turn rate command as PWM,(21)throttle command as PWM,(22)primary gps latitude (deg),(23)primary gps longitude (deg),(24)secondary gps latitude  (deg),(25)secondary gps longitude (deg),(26)accelerometer x (m/s^2),(27)accelerometer y (m/s^2),(28)accelerometer z (m/s^2),(29)gyro yaw rate (rad/s),(30)gyro pitch rate   (rad/s),(31)gyro roll rate (rad/s),      (32)yaw (rad),  (33)pitch   (rad),     (34)roll (rad),(35)sonar1 measurement (m),(36)ultrasonic sensor measurement (m),(37)primary gps time (s),(38)normalized turn rate command,(39)normalized throttle command,(40)speed calculation from encoder left (m/s),(41)speed calculation from encoder right (m/s),(42)front gimbal target angle (degrees from straight down),(43)left gimbal target angle  (degrees from straight down),(44)right gimbal target angle  (degrees from straight down),(45)front gimbal measured angle  (degrees from straight down),(46)left gimbal measured angle    (degrees from straight down),(47)right gimbal measured angle  (degrees from straight down),(48)internal temperature (C),(49)battery voltage (V),(50)primary gps type,(51)secondary gps type,    (52)MPC R value, (53)MPC Q[0] value,Unnamed: 54,weed_num,start
0,1530631589040,3502040, RC,0,39.9586186,-88.445067899,0,0.0,0.0,0.0,0.0,0.0,0.0,0.0,0.0,0.0,0.0,0.0,0.0,0.0,1500,1500,0.0,0.0,40.048377,-88.2330926667,0.0,0.0,0.0,0.0,0.0,0.0,0.0,0.0,0.0,0.0,0.0,0,0.0,0.0,0.0,0.0,90.0,90.0,90.0,89.3814163208,90.40000915530001,89.7633895874,44.9079971313,14.879241943399999,1.6400001049000001,0,2,25,1,273,9
1,1530631589090,3502090, RC,0,39.9586186,-88.445067899,0,0.0,0.0,0.0,0.0,0.0,0.0,0.0,0.0,0.0,0.0,0.0,0.0,0.0,1500,1500,0.0,0.0,40.048377,-88.2330926667,0.0,0.0,0.0,0.0,0.0,0.0,0.0,0.0,0.0,0.0,0.0,0,0.0,0.0,0.0,0.0,90.0,90.0,90.0,89.3814163208,90.40000915530001,89.7633895874,44.9079971313,14.879241943399999,1.6400001049000001,0,2,25,1,119,11
2,1530631589184,3502184, RC,0,39.9586186,-88.445067899,0,0.0,0.0,0.0,0.0,0.0,0.0,0.0,0.0,0.0,0.0,0.0,0.0,0.0,1500,1500,0.0,0.0,40.048377,-88.2330926667,0.0,0.0,0.0,0.0,0.0,0.0,0.0,0.0,0.0,0.0,0.0,0,0.0,0.0,0.0,0.0,90.0,90.0,90.0,89.3177566528,90.40000915530001,89.7633895874,44.9079971313,14.879241943399999,1.6400001049000001,0,2,25,1,187,14
3,1530631589235,3502235, RC,0,39.9586186,-88.445067899,0,0.0,0.0,0.0,0.0,0.0,0.0,0.0,0.0,0.0,0.0,0.0,0.0,0.0,1500,1500,0.0,0.0,40.048377,-88.2330926667,0.0,0.0,0.0,0.0,0.0,0.0,0.0,0.0,0.0,0.0,0.0,0,0.0,0.0,0.0,0.0,90.0,90.0,90.0,89.3177566528,90.01803588870001,89.7633895874,45.445999145500004,14.879241943399999,1.6400001049000001,0,2,25,1,197,16
4,1530631589286,3502286, RC,0,39.9586186,-88.445067899,0,0.0,0.0,0.0,0.0,0.0,0.0,0.0,0.0,0.0,0.0,0.0,0.0,0.0,1500,1500,0.0,0.0,40.048377,-88.2330926667,0.0,0.0,0.0,0.0,0.0,0.0,0.0,0.0,0.0,0.0,0.0,0,0.0,0.0,0.0,0.0,90.0,90.0,90.0,89.3177566528,90.01803588870001,89.7633895874,45.445999145500004,14.879241943399999,1.6400001049000001,0,2,25,1,223,18
5,1530631589336,3502336, RC,0,39.9586186,-88.445067899,0,0.0,0.0,0.0,0.0,0.0,0.0,0.0,0.0,0.0,0.0,0.0,0.0,0.0,1500,1500,0.0,0.0,40.048377,-88.2330926667,0.0,0.0,0.0,0.0,0.0,0.0,0.0,0.0,0.0,0.0,0.0,0,0.0,0.0,0.0,0.0,90.0,90.0,90.0,89.3177566528,90.01803588870001,89.7633895874,45.445999145500004,14.879241943399999,1.6400001049000001,0,2,25,1,149,20
6,1530631589386,3502386, RC,0,39.9586186,-88.445067899,0,0.0,0.0,0.0,0.0,0.0,0.0,0.0,0.0,0.0,0.0,0.0,0.0,0.0,1500,1500,0.0,0.0,40.048377,-88.2330926667,0.0,0.0,0.0,0.0,0.0,0.0,0.0,0.0,0.0,0.0,0.0,0,0.0,0.0,0.0,0.0,90.0,90.0,90.0,89.3177566528,90.01803588870001,89.7633895874,45.445999145500004,14.879241943399999,1.6400001049000001,0,2,25,1,131,22
7,1530631589437,3502437, RC,0,39.9586186,-88.445067899,0,0.0,0.0,0.0,0.0,0.0,0.0,0.0,0.0,0.0,0.0,0.0,0.0,0.0,1500,1500,0.0,0.0,40.048377,-88.2330926667,0.0,0.0,0.0,0.0,0.0,0.0,0.0,0.0,0.0,0.0,0.0,0,0.0,0.0,0.0,0.0,90.0,90.0,90.0,89.3177566528,90.01803588870001,89.7633895874,45.445999145500004,14.879241943399999,1.6400001049000001,0,2,25,1,115,24
8,1530631589487,3502487, RC,0,39.9586186,-88.445067899,0,0.0,0.0,0.0,0.0,0.0,0.0,0.0,0.0,0.0,0.0,0.0,0.0,0.0,1500,1500,0.0,0.0,40.048377,-88.2330926667,0.0,0.0,0.0,0.0,0.0,0.0,0.0,0.0,0.0,0.0,0.0,0,0.0,0.0,0.0,0.0,90.0,90.0,90.0,89.25408935549999,90.01803588870001,89.6997299194,45.445999145500004,14.879241943399999,1.6400001049000001,0,2,25,1,110,26
9,1530631589537,3502537, RC,0,39.9586186,-88.445067899,0,0.0,0.0,0.0,0.0,0.0,0.0,0.0,0.0,0.0,0.0,0.0,0.0,0.0,1500,1500,0.0,0.0,40.048377,-88.2330926667,0.0,0.0,0.0,0.0,0.0,0.0,0.0,0.0,0.0,0.0,0.0,0,0.0,0.0,0.0,0.0,90.0,90.0,90.0,89.25408935549999,90.01803588870001,89.6997299194,45.445999145500004,14.8744487762,2.5199999809,0,2,25,1,101,28
10,1530631589588,3502588, RC,0,39.9586186,-88.445067899,0,0.0,0.0,0.0,0.0,0.0,0.0,0.0,0.0,0.0,0.0,0.0,0.0,0.0,1500,1500,0.0,0.0,40.048377,-88.2330926667,0.0,0.0,0.0,0.0,0.0,0.0,0.0,0.0,0.0,0.0,0.0,0,0.0,0.0,0.0,0.0,90.0,90.0,90.0,89.25408935549999,90.01803588870001,89.6997299194,45.445999145500004,14.8744487762,2.5199999809,0,2,25,1,100,30
11,1530631589638,3502638, RC,0,39.9586186,-88.445067899,0,0.0,0.0,0.0,0.0,0.0,0.0,0.0,0.0,0.0,0.0,0.0,0.0,0.0,1500,1500,0.0,0.0,40.048377,-88.2330926667,0.0,0.0,0.0,0.0,0.0,0.0,0.0,0.0,0.0,0.0,0.0,0,0.0,0.0,0.0,0.0,90.0,90.0,90.0,89.25408935549999,89.6997299194,89.6997299194,45.445999145500004,14.8744487762,2.5199999809,0,2,25,1,103,32
12,1530631589688,3502688, RC,0,39.9586186,-88.445067899,0,0.0,0.0,0.0,0.0,0.0,0.0,0.0,0.0,0.0,0.0,0.0,0.0,0.0,1500,1500,0.0,0.0,40.048377,-88.2330926667,0.0,0.0,0.0,0.0,0.0,0.0,0.0,0.0,0.0,0.0,0.0,0,0.0,0.0,0.0,0.0,90.0,90.0,90.0,89.25408935549999,89.63606262209998,89.6997299194,45.445999145500004,14.8744487762,2.5199999809,0,2,25,1,95,34
13,1530631589739,3502739, RC,0,39.9586186,-88.445067899,0,0.0,0.0,0.0,0.0,0.0,0.0,0.0,0.0,0.0,0.0,0.0,0.0,0.0,1500,1500,0.0,0.0,40.048377,-88.2330926667,0.0,0.0,0.0,0.0,0.0,0.0,0.0,0.0,0.0,0.0,0.0,0,0.0,0.0,0.0,0.0,90.0,90.0,90.0,89.25408935549999,89.63606262209998,89.6997299194,45.445999145500004,14.8744487762,2.5199999809,0,2,25,1,93,36
14,1530631589789,3502789, RC,0,39.9586186,-88.445067899,0,0.0,0.0,0.0,0.0,0.0,0.0,0.0,0.0,0.0,0.0,0.0,0.0,0.0,1500,1500,0.0,0.0,40.0483746667,-88.2330943333,0.0,0.0,0.0,0.0,0.0,0.0,0.0,0.0,0.0,0.0,0.0,0,0.0,0.0,0.0,0.0,90.0,90.0,90.0,89.44507598879999,89.6997299194,89.6997299194,45.445999145500004,14.8744487762,2.5199999809,0,2,25,1,95,37
15,1530631589839,3502839, RC,0,39.9586186,-88.445067899,0,0.0,0.0,0.0,0.0,0.0,0.0,0.0,0.0,0.0,0.0,0.0,0.0,0.0,1500,1500,0.0,0.0,40.0483746667,-88.2330943333,0.0,0.0,0.0,0.0,0.0,0.0,0.0,0.0,0.0,0.0,0.0,0,0.0,0.0,0.0,0.0,90.0,90.0,90.0,89.5724029541,89.6997299194,89.6997299194,45.445999145500004,14.8744487762,2.5199999809,0,2,25,1,112,39
16,1530631589890,3502890, RC,0,39.9586186,-88.445067899,0,0.0,0.0,0.0,0.0,0.0,0.0,0.0,0.0,0.0,0.0,0.0,0.0,0.0,1500,1500,0.0,0.0,40.0483746667,-88.2330943333,0.0,0.0,0.0,0.0,0.0,0.0,0.0,0.0,0.0,0.0,0.0,0,0.0,0.0,0.0,0.0,90.0,90.0,90.0,89.5724029541,89.6997299194,89.6997299194,45.445999145500004,14.8744487762,2.5199999809,0,2,25,1,118,41
17,1530631589940,3502940, RC,0,39.9586186,-88.445067899,0,0.0,0.0,0.0,0.0,0.0,0.0,0.0,0.0,0.0,0.0,0.0,0.0,0.0,1500,1500,0.0,0.0,40.0483746667,-88.2330943333,0.0,0.0,0.0,0.0,0.0,0.0,0.0,0.0,0.0,0.0,0.0,0,0.0,0.0,0.0,0.0,90.0,90.0,90.0,89.5724029541,89.6997299194,89.6997299194,45.445999145500004,14.8744487762,2.5199999809,0,2,25,1,138,43
18,1530631589990,3502990, RC,0,39.9586186,-88.445067899,0,0.0,0.0,0.0,0.0,0.0,0.0,0.0,0.0,0.0,0.0,0.0,0.0,0.0,1500,1500,0.0,0.0,40.0483746667,-88.2330943333,0.0,0.0,0.0,0.0,0.0,0.0,0.0,0.0,0.0,0.0,0.0,0,0.0,0.0,0.0,0.0,90.0,90.0,90.0,89.5724029541,89.63606262209998,89.6997299194,45.445999145500004,14.8744487762,2.5199999809,0,2,25,1,108,45
19,1530631590041,3503041, RC,0,39.9586186,-88.445067899,0,0.0,0.0,0.0,0.0,0.0,0.0,0.0,0.0,0.0,0.0,0.0,0.0,0.0,1500,1500,0.0,0.0,40.0483746667,-88.2330943333,0.0,0.0,0.0,0.0,0.0,0.0,0.0,0.0,0.0,0.0,0.0,0,0.0,0.0,0.0,0.0,90.0,90.0,90.0,89.5724029541,89.63606262209998,89.6997299194,45.445999145500004,14.8744487762,2.5199999809,0,2,25,1,130,47
20,1530631590091,3503091, RC,0,39.9586186,-88.445067899,0,0.0,0.0,0.0,0.0,0.0,0.0,0.0,0.0,0.0,0.0,0.0,0.0,0.0,1500,1500,0.0,0.0,40.0483746667,-88.2330943333,0.0,0.0,0.0,0.0,0.0,0.0,0.0,0.0,0.0,0.0,0.0,0,0.0,0.0,0.0,0.0,90.0,90.0,90.0,89.5724029541,89.63606262209998,89.6997299194,45.445999145500004,14.8744487762,2.5199999809,0,2,25,1,119,49
21,1530631590141,3503141, RC,0,39.9586186,-88.445067899,0,0.0,0.0,0.0,0.0,0.0,0.0,0.0,0.0,0.0,0.0,0.0,0.0,0.0,1500,1500,0.0,0.0,40.0483746667,-88.2330943333,0.0,0.0,0.0,0.0,0.0,0.0,0.0,0.0,0.0,0.0,0.0,0,0.0,0.0,0.0,0.0,90.0,90.0,90.0,89.5724029541,89.63606262209998,89.6997299194,45.445999145500004,14.8744487762,2.5199999809,0,2,25,1,126,51
22,1530631590192,3503192, RC,0,39.9586186,-88.445067899,0,0.0,0.0,0.0,0.0,0.0,0.0,0.0,0.0,0.0,0.0,0.0,0.0,0.0,1500,1500,0.0,0.0,40.0483746667,-88.2330943333,0.0,0.0,0.0,0.0,0.0,0.0,0.0,0.0,0.0,0.0,0.0,0,0.0,0.0,0.0,0.0,90.0,90.0,90.0,89.5724029541,89.6997299194,89.6997299194,45.445999145500004,14.8744487762,2.5199999809,0,2,25,1,110,53
23,1530631590242,3503242, RC,0,39.9586186,-88.445067899,0,0.0,0.0,0.0,0.0,0.0,0.0,0.0,0.0,0.0,0.0,0.0,0.0,0.0,1500,1500,0.0,0.0,40.0483746667,-88.2330943333,0.0,0.0,0.0,0.0,0.0,0.0,0.0,0.0,0.0,0.0,0.0,0,0.0,0.0,0.0,0.0,90.0,90.0,90.0,89.5724029541,89.63606262209998,89.6997299194,45.445999145500004,14.8744487762,2.5199999809,0,2,25,1,129,55
24,1530631590292,3503292, RC,0,39.9586186,-88.445067899,0,0.0,0.0,0.0,0.0,0.0,0.0,0.0,0.0,0.0,0.0,0.0,0.0,0.0,1500,1500,0.0,0.0,40.0483746667,-88.2330943333,0.0,0.0,0.0,0.0,0.0,0.0,0.0,0.0,0.0,0.0,0.0,0,0.0,0.0,0.0,0.0,90.0,90.0,90.0,89.5724029541,89.63606262209998,89.6997299194,45.445999145500004,14.8744487762,2.5199999809,0,2,25,1,150,57
25,1530631590343,3503343, RC,0,39.9586186,-88.445067899,0,0.0,0.0,0.0,0.0,0.0,0.0,0.0,0.0,0.0,0.0,0.0,0.0,0.0,1500,1500,0.0,0.0,40.0483746667,-88.2330943333,0.0,0.0,0.0,0.0,0.0,0.0,0.0,0.0,0.0,0.0,0.0,0,0.0,0.0,0.0,0.0,90.0,90.0,90.0,89.5724029541,89.63606262209998,89.6997299194,45.445999145500004,14.8744487762,2.5199999809,0,2,25,1,146,59
26,1530631590393,3503393, RC,0,39.9586186,-88.445067899,0,0.0,0.0,0.0,0.0,0.0,0.0,0.0,0.0,0.0,0.0,0.0,0.0,0.0,1500,1500,0.0,0.0,40.0483746667,-88.2330943333,0.0,0.0,0.0,0.0,0.0,0.0,0.0,0.0,0.0,0.0,0.0,0,0.0,0.0,0.0,0.0,90.0,90.0,90.0,89.5724029541,89.63606262209998,89.6997299194,45.445999145500004,14.8744487762,2.5199999809,0,2,25,1,146,61
27,1530631590443,3503443, RC,0,39.9586186,-88.445067899,0,0.0,0.0,0.0,0.0,0.0,0.0,0.0,0.0,0.0,0.0,0.0,0.0,0.0,1500,1500,0.0,0.0,40.0483746667,-88.2330943333,0.0,0.0,0.0,0.0,0.0,0.0,0.0,0.0,0.0,0.0,0.0,0,0.0,0.0,0.0,0.0,90.0,90.0,90.0,89.5724029541,89.6997299194,89.6997299194,45.445999145500004,14.8744487762,2.5199999809,0,2,25,1,135,62
28,1530631590494,3503494, RC,0,39.9586186,-88.445067899,0,0.0,0.0,0.0,0.0,0.0,0.0,0.0,0.0,0.0,0.0,0.0,0.0,0.0,1500,1500,0.0,0.0,40.0483746667,-88.2330943333,0.0,0.0,0.0,0.0,0.0,0.0,0.0,0.0,0.0,0.0,0.0,0,0.0,0.0,0.0,0.0,90.0,90.0,90.0,89.5724029541,89.6997299194,89.6997299194,45.445999145500004,14.8744487762,2.5199999809,0,2,25,1,144,64
29,1530631590544,3503544, RC,0,39.9586186,-88.445067899,0,0.0,0.0,0.0,0.0,0.0,0.0,0.0,0.0,0.0,0.0,0.0,0.0,0.0,1500,1500,0.0,0.0,40.0483746667,-88.2330943333,0.0,0.0,0.0,0.0,0.0,0.0,0.0,0.0,0.0,0.0,0.0,0,0.0,0.0,0.0,0.0,90.0,90.0,90.0,89.5724029541,89.63606262209998,89.6997299194,45.445999145500004,14.869667053199999,2.5699999332,0,2,25,1,161,66
30,1530631590594,3503594, RC,0,39.9586186,-88.445067899,0,0.0,0.0,0.0,0.0,0.0,0.0,0.0,0.0,0.0,0.0,0.0,0.0,0.0,1500,1500,0.0,0.0,40.0483746667,-88.2330943333,0.0,0.0,0.0,0.0,0.0,0.0,0.0,0.0,0.0,0.0,0.0,0,0.0,0.0,0.0,0.0,90.0,90.0,90.0,89.5724029541,89.63606262209998,89.6997299194,45.445999145500004,14.869667053199999,2.5699999332,0,2,25,1,165,68
31,1530631590645,3503645, RC,0,39.9586186,-88.445067899,0,0.0,0.0,0.0,0.0,0.0,0.0,0.0,0.0,0.0,0.0,0.0,0.0,0.0,1500,1500,0.0,0.0,40.0483746667,-88.2330943333,0.0,0.0,0.0,0.0,0.0,0.0,0.0,0.0,0.0,0.0,0.0,0,0.0,0.0,0.0,0.0,90.0,90.0,90.0,89.5724029541,89.63606262209998,89.6997299194,45.445999145500004,14.869667053199999,2.5699999332,0,2,25,1,114,70
32,1530631590695,3503695, RC,0,39.9586186,-88.445067899,0,0.0,0.0,0.0,0.0,0.0,0.0,0.0,0.0,0.0,0.0,0.0,0.0,0.0,1500,1500,0.0,0.0,40.0483746667,-88.2330943333,0.0,0.0,0.0,0.0,0.0,0.0,0.0,0.0,0.0,0.0,0.0,0,0.0,0.0,0.0,0.0,90.0,90.0,90.0,89.5724029541,89.63606262209998,89.6997299194,45.445999145500004,14.869667053199999,2.5699999332,0,2,25,1,121,72
33,1530631590745,3503745, RC,0,39.9586186,-88.445067899,0,0.0,0.0,0.0,0.0,0.0,0.0,0.0,0.0,0.0,0.0,0.0,0.0,0.0,1500,1500,0.0,0.0,40.0483746667,-88.2330943333,0.0,0.0,0.0,0.0,0.0,0.0,0.0,0.0,0.0,0.0,0.0,0,0.0,0.0,0.0,0.0,90.0,90.0,90.0,89.5724029541,89.63606262209998,89.6997299194,45.445999145500004,14.869667053199999,2.5699999332,0,2,25,1,116,74
34,1530631590796,3503796, RC,0,39.9586186,-88.445067899,0,0.0,0.0,0.0,0.0,0.0,0.0,0.0,0.0,0.0,0.0,0.0,0.0,0.0,1500,1500,0.0,0.0,40.0483725,-88.2330966667,0.0,0.0,0.0,0.0,0.0,0.0,0.0,0.0,0.0,0.0,0.0,0,0.0,0.0,0.0,0.0,90.0,90.0,90.0,89.5724029541,89.63606262209998,89.6997299194,45.445999145500004,14.869667053199999,2.5699999332,0,2,25,1,111,75
35,1530631590846,3503846, RC,0,39.9586186,-88.445067899,0,0.0,0.0,0.0,0.0,0.0,0.0,0.0,0.0,0.0,0.0,0.0,0.0,0.0,1500,1500,0.0,0.0,40.0483725,-88.2330966667,0.0,0.0,0.0,0.0,0.0,0.0,0.0,0.0,0.0,0.0,0.0,0,0.0,0.0,0.0,0.0,90.0,90.0,90.0,89.5724029541,89.63606262209998,89.6997299194,45.445999145500004,14.869667053199999,2.5699999332,0,2,25,1,126,77
36,1530631590896,3503896, RC,0,39.9586186,-88.445067899,0,0.0,0.0,0.0,0.0,0.0,0.0,0.0,0.0,0.0,0.0,0.0,0.0,0.0,1500,1500,0.0,0.0,40.0483725,-88.2330966667,0.0,0.0,0.0,0.0,0.0,0.0,0.0,0.0,0.0,0.0,0.0,0,0.0,0.0,0.0,0.0,90.0,90.0,90.0,89.5724029541,89.63606262209998,89.6997299194,45.445999145500004,14.869667053199999,2.5699999332,0,2,25,1,115,79
37,1530631590947,3503947, RC,0,39.9586186,-88.445067899,0,0.0,0.0,0.0,0.0,0.0,0.0,0.0,0.0,0.0,0.0,0.0,0.0,0.0,1500,1500,0.0,0.0,40.0483725,-88.2330966667,0.0,0.0,0.0,0.0,0.0,0.0,0.0,0.0,0.0,0.0,0.0,0,0.0,0.0,0.0,0.0,90.0,90.0,90.0,89.5724029541,89.63606262209998,89.6997299194,45.445999145500004,14.869667053199999,2.5699999332,0,2,25,1,117,81
38,1530631590997,3503997, RC,0,39.9586186,-88.445067899,0,0.0,0.0,0.0,0.0,0.0,0.0,0.0,0.0,0.0,0.0,0.0,0.0,0.0,1500,1500,0.0,0.0,40.0483725,-88.2330966667,0.0,0.0,0.0,0.0,0.0,0.0,0.0,0.0,0.0,0.0,0.0,0,0.0,0.0,0.0,0.0,90.0,90.0,90.0,89.5724029541,89.63606262209998,89.6997299194,45.445999145500004,14.869667053199999,2.5699999332,0,2,25,1,97,83
39,1530631591048,3504048, RC,0,39.9586186,-88.445067899,0,0.0,0.0,0.0,0.0,0.0,0.0,0.0,0.0,0.0,0.0,0.0,0.0,0.0,1500,1500,0.0,0.0,40.0483725,-88.2330966667,0.0,0.0,0.0,0.0,0.0,0.0,0.0,0.0,0.0,0.0,0.0,0,0.0,0.0,0.0,0.0,90.0,90.0,90.0,89.5724029541,89.63606262209998,89.6997299194,45.445999145500004,14.869667053199999,2.5699999332,0,2,25,1,104,84
40,1530631591098,3504098, RC,0,39.9586186,-88.445067899,0,0.0,0.0,0.0,0.0,0.0,0.0,0.0,0.0,0.0,0.0,0.0,0.0,0.0,1500,1500,0.0,0.0,40.0483725,-88.2330966667,0.0,0.0,0.0,0.0,0.0,0.0,0.0,0.0,0.0,0.0,0.0,0,0.0,0.0,0.0,0.0,90.0,90.0,90.0,89.5724029541,89.63606262209998,89.6997299194,45.445999145500004,14.869667053199999,2.5699999332,0,2,25,1,108,86
41,1530631591148,3504148, RC,0,39.9586186,-88.445067899,0,0.0,0.0,0.0,0.0,0.0,0.0,0.0,0.0,0.0,0.0,0.0,0.0,0.0,1500,1500,0.0,0.0,40.0483725,-88.2330966667,0.0,0.0,0.0,0.0,0.0,0.0,0.0,0.0,0.0,0.0,0.0,0,0.0,0.0,0.0,0.0,90.0,90.0,90.0,89.5724029541,89.63606262209998,89.6997299194,45.445999145500004,14.869667053199999,2.5699999332,0,2,25,1,111,88
42,1530631591199,3504199, RC,0,39.9586186,-88.445067899,0,0.0,0.0,0.0,0.0,0.0,0.0,0.0,0.0,0.0,0.0,0.0,0.0,0.0,1500,1500,0.0,0.0,40.0483725,-88.2330966667,0.0,0.0,0.0,0.0,0.0,0.0,0.0,0.0,0.0,0.0,0.0,0,0.0,0.0,0.0,0.0,90.0,90.0,90.0,89.5724029541,89.63606262209998,89.6997299194,45.445999145500004,14.869667053199999,2.5699999332,0,2,25,1,131,90
43,1530631591249,3504249, RC,0,39.9586186,-88.445067899,0,0.0,0.0,0.0,0.0,0.0,0.0,0.0,0.0,0.0,0.0,0.0,0.0,0.0,1500,1500,0.0,0.0,40.0483725,-88.2330966667,0.0,0.0,0.0,0.0,0.0,0.0,0.0,0.0,0.0,0.0,0.0,0,0.0,0.0,0.0,0.0,90.0,90.0,90.0,89.5724029541,89.63606262209998,89.6997299194,45.445999145500004,14.869667053199999,2.5699999332,0,2,25,1,152,92
44,1530631591299,3504299, RC,0,39.9586186,-88.445067899,0,0.0,0.0,0.0,0.0,0.0,0.0,0.0,0.0,0.0,0.0,0.0,0.0,0.0,1500,1500,0.0,0.0,40.0483725,-88.2330966667,0.0,0.0,0.0,0.0,0.0,0.0,0.0,0.0,0.0,0.0,0.0,0,0.0,0.0,0.0,0.0,90.0,90.0,90.0,89.5724029541,89.63606262209998,89.6997299194,45.445999145500004,14.869667053199999,2.5699999332,0,2,25,1,137,93
45,1530631591350,3504350, RC,0,39.9586186,-88.445067899,0,0.0,0.0,0.0,0.0,0.0,0.0,0.0,0.0,0.0,0.0,0.0,0.0,0.0,1500,1500,0.0,0.0,40.0483725,-88.2330966667,0.0,0.0,0.0,0.0,0.0,0.0,0.0,0.0,0.0,0.0,0.0,0,0.0,0.0,0.0,0.0,90.0,90.0,90.0,89.5724029541,89.63606262209998,89.6997299194,45.445999145500004,14.869667053199999,2.5699999332,0,2,25,1,159,95
46,1530631591400,3504400, RC,0,39.9586186,-88.445067899,0,0.0,0.0,0.0,0.0,0.0,0.0,0.0,0.0,0.0,0.0,0.0,0.0,0.0,1500,1500,0.0,0.0,40.0483725,-88.2330966667,0.0,0.0,0.0,0.0,0.0,0.0,0.0,0.0,0.0,0.0,0.0,0,0.0,0.0,0.0,0.0,90.0,90.0,90.0,89.5724029541,89.63606262209998,89.6997299194,45.445999145500004,14.869667053199999,2.5699999332,0,2,25,1,175,97
47,1530631591450,3504450, RC,0,39.9586186,-88.445067899,0,0.0,0.0,0.0,0.0,0.0,0.0,0.0,0.0,0.0,0.0,0.0,0.0,0.0,1500,1500,0.0,0.0,40.0483725,-88.2330966667,0.0,0.0,0.0,0.0,0.0,0.0,0.0,0.0,0.0,0.0,0.0,0,0.0,0.0,0.0,0.0,90.0,90.0,90.0,89.5724029541,89.63606262209998,89.6997299194,45.445999145500004,14.869667053199999,2.5699999332,0,2,25,1,190,98
48,1530631591501,3504501, RC,0,39.9586186,-88.445067899,0,0.0,0.0,0.0,0.0,0.0,0.0,0.0,0.0,0.0,0.0,0.0,0.0,0.0,1500,1500,0.0,0.0,40.0483725,-88.2330966667,0.0,0.0,0.0,0.0,0.0,0.0,0.0,0.0,0.0,0.0,0.0,0,0.0,0.0,0.0,0.0,90.0,90.0,90.0,89.5724029541,89.63606262209998,89.6997299194,45.445999145500004,14.869667053199999,2.5699999332,0,2,25,1,166,100
49,1530631591551,3504551, RC,0,39.9586186,-88.445067899,0,0.0,0.0,0.0,0.0,0.0,0.0,0.0,0.0,0.0,0.0,0.0,0.0,0.0,1500,1500,0.0,0.0,40.0483725,-88.2330966667,0.0,0.0,0.0,0.0,0.0,0.0,0.0,0.0,0.0,0.0,0.0,0,0.0,0.0,0.0,0.0,90.0,90.0,90.0,89.5724029541,89.63606262209998,89.6997299194,45.445999145500004,14.870022773699999,3.3399999142000003,0,2,25,1,153,102
50,1530631591602,3504602, RC,0,39.9586186,-88.445067899,0,0.0,0.0,0.0,0.0,0.0,0.0,0.0,0.0,0.0,0.0,0.0,0.0,0.0,1500,1500,0.0,0.0,40.0483725,-88.2330966667,0.0,0.0,0.0,0.0,0.0,0.0,0.0,0.0,0.0,0.0,0.0,0,0.0,0.0,0.0,0.0,90.0,90.0,90.0,89.5724029541,89.63606262209998,89.6997299194,45.445999145500004,14.870022773699999,3.3399999142000003,0,2,25,1,139,104
51,1530631591652,3504652, RC,0,39.9586186,-88.445067899,0,0.0,0.0,0.0,0.0,0.0,0.0,0.0,0.0,0.0,0.0,0.0,0.0,0.0,1500,1500,0.0,0.0,40.0483725,-88.2330966667,0.0,0.0,0.0,0.0,0.0,0.0,0.0,0.0,0.0,0.0,0.0,0,0.0,0.0,0.0,0.0,90.0,90.0,90.0,89.5724029541,89.63606262209998,89.6997299194,45.445999145500004,14.870022773699999,3.3399999142000003,0,2,25,1,130,106
52,1530631591702,3504702, RC,0,39.9586186,-88.445067899,0,0.0,0.0,0.0,0.0,0.0,0.0,0.0,0.0,0.0,0.0,0.0,0.0,0.0,1500,1500,0.0,0.0,40.0483725,-88.2330966667,0.0,0.0,0.0,0.0,0.0,0.0,0.0,0.0,0.0,0.0,0.0,0,0.0,0.0,0.0,0.0,90.0,90.0,90.0,89.5724029541,89.63606262209998,89.6997299194,45.445999145500004,14.870022773699999,3.3399999142000003,0,2,25,1,123,107
53,1530631591753,3504753, RC,0,39.9586186,-88.445067899,0,0.0,0.0,0.0,0.0,0.0,0.0,0.0,0.0,0.0,0.0,0.0,0.0,0.0,1500,1500,0.0,0.0,40.0483725,-88.2330966667,0.0,0.0,0.0,0.0,0.0,0.0,0.0,0.0,0.0,0.0,0.0,0,0.0,0.0,0.0,0.0,90.0,90.0,90.0,89.5724029541,89.63606262209998,89.6997299194,45.445999145500004,14.870022773699999,3.3399999142000003,0,2,25,1,113,109
54,1530631591803,3504803, RC,0,39.9586186,-88.445067899,0,0.0,0.0,0.0,0.0,0.0,0.0,0.0,0.0,0.0,0.0,0.0,0.0,0.0,1500,1500,0.0,0.0,40.0483673333,-88.2331008333,0.0,0.0,0.0,0.0,0.0,0.0,0.0,0.0,0.0,0.0,0.0,0,0.0,0.0,0.0,0.0,90.0,90.0,90.0,89.5724029541,89.63606262209998,89.6997299194,45.445999145500004,14.870022773699999,3.3399999142000003,0,2,25,1,93,111
55,1530631591853,3504853, RC,0,39.9586186,-88.445067899,0,0.0,0.0,0.0,0.0,0.0,0.0,0.0,0.0,0.0,0.0,0.0,0.0,0.0,1500,1500,0.0,0.0,40.0483673333,-88.2331008333,0.0,0.0,0.0,0.0,0.0,0.0,0.0,0.0,0.0,0.0,0.0,0,0.0,0.0,0.0,0.0,90.0,90.0,90.0,89.5724029541,89.63606262209998,89.6997299194,45.445999145500004,14.870022773699999,3.3399999142000003,0,2,25,1,73,113
56,1530631591904,3504904, RC,0,39.9586186,-88.445067899,0,0.0,0.0,0.0,0.0,0.0,0.0,0.0,0.0,0.0,0.0,0.0,0.0,0.0,1500,1500,0.0,0.0,40.0483673333,-88.2331008333,0.0,0.0,0.0,0.0,0.0,0.0,0.0,0.0,0.0,0.0,0.0,0,0.0,0.0,0.0,0.0,90.0,91.0,90.0,89.5724029541,89.63606262209998,89.6997299194,45.445999145500004,14.870022773699999,3.3399999142000003,0,2,25,1,76,114
57,1530631591954,3504954, RC,0,39.9586186,-88.445067899,0,0.0,0.0,0.0,0.0,0.0,0.0,0.0,0.0,0.0,0.0,0.0,0.0,0.0,1500,1500,0.0,0.0,40.0483673333,-88.2331008333,0.0,0.0,0.0,0.0,0.0,0.0,0.0,0.0,0.0,0.0,0.0,0,0.0,0.0,0.0,0.0,90.0,91.0,90.0,89.5724029541,89.63606262209998,89.6997299194,45.445999145500004,14.870022773699999,3.3399999142000003,0,2,25,1,75,116
58,1530631592004,3505004, RC,0,39.9586186,-88.445067899,0,0.0,0.0,0.0,0.0,0.0,0.0,0.0,0.0,0.0,0.0,0.0,0.0,0.0,1500,1500,0.0,0.0,40.0483673333,-88.2331008333,0.0,0.0,0.0,0.0,0.0,0.0,0.0,0.0,0.0,0.0,0.0,0,0.0,0.0,0.0,0.0,90.0,90.0,90.0,89.5724029541,89.63606262209998,89.6997299194,45.445999145500004,14.870022773699999,3.3399999142000003,0,2,25,1,78,118
59,1530631592055,3505055, RC,0,39.9586186,-88.445067899,0,0.0,0.0,0.0,0.0,0.0,0.0,0.0,0.0,0.0,0.0,0.0,0.0,0.0,1500,1500,0.0,0.0,40.0483673333,-88.2331008333,0.0,0.0,0.0,0.0,0.0,0.0,0.0,0.0,0.0,0.0,0.0,0,0.0,0.0,0.0,0.0,90.0,90.0,90.0,89.5724029541,89.9543762207,89.6997299194,45.445999145500004,14.870022773699999,3.3399999142000003,0,2,25,1,92,120
60,1530631592105,3505105, RC,0,39.9586186,-88.445067899,0,0.0,0.0,0.0,0.0,0.0,0.0,0.0,0.0,0.0,0.0,0.0,0.0,0.0,1500,1500,0.0,0.0,40.0483673333,-88.2331008333,0.0,0.0,0.0,0.0,0.0,0.0,0.0,0.0,0.0,0.0,0.0,0,0.0,0.0,0.0,0.0,90.0,88.0,90.0,89.5724029541,89.8907089233,89.6997299194,45.445999145500004,14.870022773699999,3.3399999142000003,0,2,25,1,95,121
61,1530631592155,3505155, RC,0,39.9586186,-88.445067899,0,0.0,0.0,0.0,0.0,0.0,0.0,0.0,0.0,0.0,0.0,0.0,0.0,0.0,1500,1500,0.0,0.0,40.0483673333,-88.2331008333,0.0,0.0,0.0,0.0,0.0,0.0,0.0,0.0,0.0,0.0,0.0,0,0.0,0.0,0.0,0.0,90.0,88.0,90.0,89.5724029541,90.8456420898,89.6997299194,45.445999145500004,14.870022773699999,3.3399999142000003,0,2,25,1,93,123
62,1530631592206,3505206, RC,0,39.9586186,-88.445067899,0,0.0,0.0,0.0,0.0,0.0,0.0,0.0,0.0,0.0,0.0,0.0,0.0,0.0,1500,1500,0.0,0.0,40.0483673333,-88.2331008333,0.0,0.0,0.0,0.0,0.0,0.0,0.0,0.0,0.0,0.0,0.0,0,0.0,0.0,0.0,0.0,90.0,84.0,90.0,89.5724029541,92.4371948242,89.6997299194,45.445999145500004,14.870022773699999,3.3399999142000003,0,2,25,1,94,125
63,1530631592256,3505256, RC,0,39.9586186,-88.445067899,0,0.0,0.0,0.0,0.0,0.0,0.0,0.0,0.0,0.0,0.0,0.0,0.0,0.0,1500,1500,0.0,0.0,40.0483673333,-88.2331008333,0.0,0.0,0.0,0.0,0.0,0.0,0.0,0.0,0.0,0.0,0.0,0,0.0,0.0,0.0,0.0,90.0,84.0,90.0,89.5724029541,92.9464874268,89.6997299194,45.445999145500004,14.870022773699999,3.3399999142000003,0,2,25,1,99,127
64,1530631592307,3505307, RC,0,39.9586186,-88.445067899,0,0.0,0.0,0.0,0.0,0.0,0.0,0.0,0.0,0.0,0.0,0.0,0.0,0.0,1500,1500,0.0,0.0,40.0483673333,-88.2331008333,0.0,0.0,0.0,0.0,0.0,0.0,0.0,0.0,0.0,0.0,0.0,0,0.0,0.0,0.0,0.0,90.0,81.0,90.0,89.5724029541,96.12958526610001,89.6997299194,45.445999145500004,14.870022773699999,3.3399999142000003,0,2,25,1,101,128
65,1530631592357,3505357, RC,0,39.9586186,-88.445067899,0,0.0,0.0,0.0,0.0,0.0,0.0,0.0,0.0,0.0,0.0,0.0,0.0,0.0,1500,1500,0.0,0.0,40.0483673333,-88.2331008333,0.0,0.0,0.0,0.0,0.0,0.0,0.0,0.0,0.0,0.0,0.0,0,0.0,0.0,0.0,0.0,90.0,81.0,90.0,89.5724029541,96.95719146729999,89.6997299194,45.445999145500004,14.870022773699999,3.3399999142000003,0,2,25,1,107,130
66,1530631592407,3505407, RC,0,39.9586186,-88.445067899,0,0.0,0.0,0.0,0.0,0.0,0.0,0.0,0.0,0.0,0.0,0.0,0.0,0.0,1500,1500,0.0,0.0,40.0483673333,-88.2331008333,0.0,0.0,0.0,0.0,0.0,0.0,0.0,0.0,0.0,0.0,0.0,0,0.0,0.0,0.0,0.0,90.0,76.0,90.0,89.5724029541,98.1031036377,89.6997299194,45.445999145500004,14.870022773699999,3.3399999142000003,0,2,25,1,94,132
67,1530631592458,3505458, RC,0,39.9586186,-88.445067899,0,0.0,0.0,0.0,0.0,0.0,0.0,0.0,0.0,0.0,0.0,0.0,0.0,0.0,1500,1500,0.0,0.0,40.0483673333,-88.2331008333,0.0,0.0,0.0,0.0,0.0,0.0,0.0,0.0,0.0,0.0,0.0,0,0.0,0.0,0.0,0.0,90.0,76.0,90.0,89.5724029541,99.88564300540001,89.6997299194,45.445999145500004,14.870022773699999,3.3399999142000003,0,2,25,1,94,134
68,1530631592508,3505508, RC,0,39.9586186,-88.445067899,0,0.0,0.0,0.0,0.0,0.0,0.0,0.0,0.0,0.0,0.0,0.0,0.0,0.0,1500,1500,0.0,0.0,40.0483673333,-88.2331008333,0.0,0.0,0.0,0.0,0.0,0.0,0.0,0.0,0.0,0.0,0.0,0,0.0,0.0,0.0,0.0,90.0,69.0,90.0,89.5724029541,104.02367401120001,89.6997299194,45.445999145500004,14.870254516600001,2.7400000094999997,0,2,25,1,97,135
69,1530631592558,3505558, RC,0,39.9586186,-88.445067899,0,0.0,0.0,0.0,0.0,0.0,0.0,0.0,0.0,0.0,0.0,0.0,0.0,0.0,1500,1500,0.0,0.0,40.0483673333,-88.2331008333,0.0,0.0,0.0,0.0,0.0,0.0,0.0,0.0,0.0,0.0,0.0,0,0.0,0.0,0.0,0.0,90.0,69.0,90.0,89.5724029541,106.57015228270001,89.6997299194,45.445999145500004,14.870254516600001,2.7400000094999997,0,2,25,1,115,137
70,1530631592609,3505609, RC,0,39.9586186,-88.445067899,0,0.0,0.0,0.0,0.0,0.0,0.0,0.0,0.0,0.0,0.0,0.0,0.0,0.0,1500,1500,0.0,0.0,40.0483673333,-88.2331008333,0.0,0.0,0.0,0.0,0.0,0.0,0.0,0.0,0.0,0.0,0.0,0,0.0,0.0,0.0,0.0,90.0,69.0,90.0,89.5724029541,111.726776123,89.6997299194,45.445999145500004,14.870254516600001,2.7400000094999997,0,2,25,1,105,139
71,1530631592659,3505659, RC,0,39.9586186,-88.445067899,0,0.0,0.0,0.0,0.0,0.0,0.0,0.0,0.0,0.0,0.0,0.0,0.0,0.0,1500,1500,0.0,0.0,40.0483673333,-88.2331008333,0.0,0.0,0.0,0.0,0.0,0.0,0.0,0.0,0.0,0.0,0.0,0,0.0,0.0,0.0,0.0,90.0,69.0,90.0,89.5724029541,111.9814147949,89.6997299194,45.445999145500004,14.870254516600001,2.7400000094999997,0,2,25,1,101,141
72,1530631592710,3505710, RC,0,39.9586186,-88.445067899,0,0.0,0.0,0.0,0.0,0.0,0.0,0.0,0.0,0.0,0.0,0.0,0.0,0.0,1500,1500,0.0,0.0,40.0483673333,-88.2331008333,0.0,0.0,0.0,0.0,0.0,0.0,0.0,0.0,0.0,0.0,0.0,0,0.0,0.0,0.0,0.0,90.0,69.0,90.0,89.5724029541,110.0078964233,89.6997299194,45.445999145500004,14.870254516600001,2.7400000094999997,0,2,25,1,96,142
73,1530631592760,3505760, RC,0,39.9586186,-88.445067899,0,0.0,0.0,0.0,0.0,0.0,0.0,0.0,0.0,0.0,0.0,0.0,0.0,0.0,1500,1500,0.0,0.0,40.0483673333,-88.2331008333,0.0,0.0,0.0,0.0,0.0,0.0,0.0,0.0,0.0,0.0,0.0,0,0.0,0.0,0.0,0.0,90.0,69.0,90.0,89.5724029541,109.880569458,89.6997299194,45.445999145500004,14.870254516600001,2.7400000094999997,0,2,25,1,91,144
74,1530631592810,3505810, RC,0,39.9586186,-88.445067899,0,0.0,0.0,0.0,0.0,0.0,0.0,0.0,0.0,0.0,0.0,0.0,0.0,0.0,1500,1500,0.0,0.0,40.0483655,-88.2331051667,0.0,0.0,0.0,0.0,0.0,0.0,0.0,0.0,0.0,0.0,0.0,0,0.0,0.0,0.0,0.0,90.0,67.0,90.0,89.5724029541,110.0078964233,89.6997299194,45.445999145500004,14.870254516600001,2.7400000094999997,0,2,25,1,99,146
75,1530631592861,3505861, RC,0,39.9586186,-88.445067899,0,0.0,0.0,0.0,0.0,0.0,0.0,0.0,0.0,0.0,0.0,0.0,0.0,0.0,1500,1500,0.0,0.0,40.0483655,-88.2331051667,0.0,0.0,0.0,0.0,0.0,0.0,0.0,0.0,0.0,0.0,0.0,0,0.0,0.0,0.0,0.0,90.0,67.0,90.0,89.5724029541,110.77183532709999,89.6997299194,45.445999145500004,14.870254516600001,2.7400000094999997,0,2,25,1,95,148
76,1530631592911,3505911, RC,0,39.9586186,-88.445067899,0,0.0,0.0,0.0,0.0,0.0,0.0,0.0,0.0,0.0,0.0,0.0,0.0,0.0,1500,1500,0.0,0.0,40.0483655,-88.2331051667,0.0,0.0,0.0,0.0,0.0,0.0,0.0,0.0,0.0,0.0,0.0,0,0.0,0.0,0.0,0.0,90.0,66.0,90.0,89.5724029541,112.6817016602,89.6997299194,45.445999145500004,14.870254516600001,2.7400000094999997,0,2,25,1,96,149
77,1530631592961,3505961, RC,0,39.9586186,-88.445067899,0,0.0,0.0,0.0,0.0,0.0,0.0,0.0,0.0,0.0,0.0,0.0,0.0,0.0,1500,1500,0.0,0.0,40.0483655,-88.2331051667,0.0,0.0,0.0,0.0,0.0,0.0,0.0,0.0,0.0,0.0,0.0,0,0.0,0.0,0.0,0.0,90.0,66.0,90.0,89.5724029541,113.0636749268,89.6997299194,45.445999145500004,14.870254516600001,2.7400000094999997,0,2,25,1,85,151
78,1530631593012,3506012, RC,0,39.9586186,-88.445067899,0,0.0,0.0,0.0,0.0,0.0,0.0,0.0,0.0,0.0,0.0,0.0,0.0,0.0,1500,1500,0.0,0.0,40.0483655,-88.2331051667,0.0,0.0,0.0,0.0,0.0,0.0,0.0,0.0,0.0,0.0,0.0,0,0.0,0.0,0.0,0.0,90.0,66.0,90.0,89.5724029541,113.0636749268,89.6997299194,45.445999145500004,14.870254516600001,2.7400000094999997,0,2,25,1,94,153
79,1530631593062,3506062, RC,0,39.9586186,-88.445067899,0,0.0,0.0,0.0,0.0,0.0,0.0,0.0,0.0,0.0,0.0,0.0,0.0,0.0,1500,1500,0.0,0.0,40.0483655,-88.2331051667,0.0,0.0,0.0,0.0,0.0,0.0,0.0,0.0,0.0,0.0,0.0,0,0.0,0.0,0.0,0.0,90.0,66.0,90.0,89.5724029541,113.8276138306,89.6997299194,45.445999145500004,14.870254516600001,2.7400000094999997,0,2,25,1,108,155
80,1530631593112,3506112, RC,0,39.9586186,-88.445067899,0,0.0,0.0,0.0,0.0,0.0,0.0,0.0,0.0,0.0,0.0,0.0,0.0,0.0,1500,1500,0.0,0.0,40.0483655,-88.2331051667,0.0,0.0,0.0,0.0,0.0,0.0,0.0,0.0,0.0,0.0,0.0,0,0.0,0.0,0.0,0.0,90.0,64.0,90.0,89.5724029541,113.89128112790002,89.6997299194,45.445999145500004,14.870254516600001,2.7400000094999997,0,2,25,1,112,156
81,1530631593163,3506163, RC,0,39.9586186,-88.445067899,0,0.0,0.0,0.0,0.0,0.0,0.0,0.0,0.0,0.0,0.0,0.0,0.0,0.0,1500,1500,0.0,0.0,40.0483655,-88.2331051667,0.0,0.0,0.0,0.0,0.0,0.0,0.0,0.0,0.0,0.0,0.0,0,0.0,0.0,0.0,0.0,90.0,64.0,90.0,89.5724029541,114.59156036379999,89.6997299194,45.445999145500004,14.870254516600001,2.7400000094999997,0,2,25,1,127,158
82,1530631593213,3506213, RC,0,39.9586186,-88.445067899,0,0.0,0.0,0.0,0.0,0.0,0.0,0.0,0.0,0.0,0.0,0.0,0.0,0.0,1500,1500,0.0,0.0,40.0483655,-88.2331051667,0.0,0.0,0.0,0.0,0.0,0.0,0.0,0.0,0.0,0.0,0.0,0,0.0,0.0,0.0,0.0,90.0,64.0,90.0,89.5724029541,115.4191589355,89.6997299194,45.445999145500004,14.870254516600001,2.7400000094999997,0,2,25,1,159,160
83,1530631593264,3506264, RC,0,39.9586186,-88.445067899,0,0.0,0.0,0.0,0.0,0.0,0.0,0.0,0.0,0.0,0.0,0.0,0.0,0.0,1500,1500,0.0,0.0,40.0483655,-88.2331051667,0.0,0.0,0.0,0.0,0.0,0.0,0.0,0.0,0.0,0.0,0.0,0,0.0,0.0,0.0,0.0,90.0,64.0,90.0,89.5724029541,115.67381286620001,89.6997299194,45.445999145500004,14.870254516600001,2.7400000094999997,0,2,25,1,173,162
84,1530631593314,3506314, RC,0,39.9586186,-88.445067899,0,0.0,0.0,0.0,0.0,0.0,0.0,0.0,0.0,0.0,0.0,0.0,0.0,0.0,1500,1500,0.0,0.0,40.0483655,-88.2331051667,0.0,0.0,0.0,0.0,0.0,0.0,0.0,0.0,0.0,0.0,0.0,0,0.0,0.0,0.0,0.0,90.0,63.0,90.0,89.5724029541,115.67381286620001,89.6997299194,45.445999145500004,14.870254516600001,2.7400000094999997,0,2,25,1,170,163
85,1530631593364,3506364, RC,0,39.9586186,-88.445067899,0,0.0,0.0,0.0,0.0,0.0,0.0,0.0,0.0,0.0,0.0,0.0,0.0,0.0,1500,1500,0.0,0.0,40.0483655,-88.2331051667,0.0,0.0,0.0,0.0,0.0,0.0,0.0,0.0,0.0,0.0,0.0,0,0.0,0.0,0.0,0.0,90.0,63.0,90.0,89.5724029541,115.67381286620001,89.6997299194,45.445999145500004,14.870254516600001,2.7400000094999997,0,2,25,1,192,165
86,1530631593415,3506415, RC,0,39.9586186,-88.445067899,0,0.0,0.0,0.0,0.0,0.0,0.0,0.0,0.0,0.0,0.0,0.0,0.0,0.0,1500,1500,0.0,0.0,40.0483655,-88.2331051667,0.0,0.0,0.0,0.0,0.0,0.0,0.0,0.0,0.0,0.0,0.0,0,0.0,0.0,0.0,0.0,90.0,63.0,90.0,89.5724029541,116.1194458008,89.6997299194,45.445999145500004,14.870254516600001,2.7400000094999997,0,2,25,1,170,167
87,1530631593465,3506465, RC,0,39.9586186,-88.445067899,0,0.0,0.0,0.0,0.0,0.0,0.0,0.0,0.0,0.0,0.0,0.0,0.0,0.0,1500,1500,0.0,0.0,40.0483655,-88.2331051667,0.0,0.0,0.0,0.0,0.0,0.0,0.0,0.0,0.0,0.0,0.0,0,0.0,0.0,0.0,0.0,90.0,63.0,90.0,89.5724029541,116.1831054688,89.6997299194,45.445999145500004,14.870254516600001,2.7400000094999997,0,2,25,1,174,169
88,1530631593515,3506515, RC,0,39.9586186,-88.445067899,0,0.0,0.0,0.0,0.0,0.0,0.0,0.0,0.0,0.0,0.0,0.0,0.0,0.0,1500,1500,0.0,0.0,40.0483655,-88.2331051667,0.0,0.0,0.0,0.0,0.0,0.0,0.0,0.0,0.0,0.0,0.0,0,0.0,0.0,0.0,0.0,90.0,60.0,90.0,89.5724029541,116.1831054688,89.6997299194,45.445999145500004,14.860545158399999,2.7400000094999997,0,2,25,1,180,170
89,1530631593566,3506566, RC,0,39.9586186,-88.445067899,0,0.0,0.0,0.0,0.0,0.0,0.0,0.0,0.0,0.0,0.0,0.0,0.0,0.0,1500,1500,0.0,0.0,40.0483655,-88.2331051667,0.0,0.0,0.0,0.0,0.0,0.0,0.0,0.0,0.0,0.0,0.0,0,0.0,0.0,0.0,0.0,90.0,60.0,90.0,89.5724029541,118.856918335,89.6997299194,45.445999145500004,14.860545158399999,2.7400000094999997,0,2,25,1,182,172
90,1530631593616,3506616, RC,0,39.9586186,-88.445067899,0,0.0,0.0,0.0,0.0,0.0,0.0,0.0,0.0,0.0,0.0,0.0,0.0,0.0,1500,1500,0.0,0.0,40.0483655,-88.2331051667,0.0,0.0,0.0,0.0,0.0,0.0,0.0,0.0,0.0,0.0,0.0,0,0.0,0.0,0.0,0.0,90.0,60.0,90.0,89.5724029541,120.0664901733,89.6997299194,45.445999145500004,14.860545158399999,2.7400000094999997,0,2,25,1,162,174
91,1530631593666,3506666, RC,0,39.9586186,-88.445067899,0,0.0,0.0,0.0,0.0,0.0,0.0,0.0,0.0,0.0,0.0,0.0,0.0,0.0,1500,1500,0.0,0.0,40.0483655,-88.2331051667,0.0,0.0,0.0,0.0,0.0,0.0,0.0,0.0,0.0,0.0,0.0,0,0.0,0.0,0.0,0.0,90.0,60.0,90.0,89.5724029541,120.00283050540001,89.6997299194,45.445999145500004,14.860545158399999,2.7400000094999997,0,2,25,1,153,176
92,1530631593717,3506717, RC,0,39.9586186,-88.445067899,0,0.0,0.0,0.0,0.0,0.0,0.0,0.0,0.0,0.0,0.0,0.0,0.0,0.0,1500,1500,0.0,0.0,40.0483655,-88.2331051667,0.0,0.0,0.0,0.0,0.0,0.0,0.0,0.0,0.0,0.0,0.0,0,0.0,0.0,0.0,0.0,90.0,60.0,90.0,89.5724029541,120.00283050540001,89.6997299194,45.445999145500004,14.860545158399999,2.7400000094999997,0,2,25,1,133,177
93,1530631593767,3506767, RC,0,39.9586186,-88.445067899,0,0.0,0.0,0.0,0.0,0.0,0.0,0.0,0.0,0.0,0.0,0.0,0.0,0.0,1500,1500,0.0,0.0,40.0483655,-88.2331051667,0.0,0.0,0.0,0.0,0.0,0.0,0.0,0.0,0.0,0.0,0.0,0,0.0,0.0,0.0,0.0,90.0,60.0,90.0,89.5724029541,120.00283050540001,89.6997299194,45.445999145500004,14.860545158399999,2.7400000094999997,0,2,25,1,112,179
94,1530631593817,3506817, RC,0,39.9586186,-88.445067899,0,0.0,0.0,0.0,0.0,0.0,0.0,0.0,0.0,0.0,0.0,0.0,0.0,0.0,1500,1500,0.0,0.0,40.048362,-88.2331135,0.0,0.0,0.0,0.0,0.0,0.0,0.0,0.0,0.0,0.0,0.0,0,0.0,0.0,0.0,0.0,90.0,60.0,90.0,89.5724029541,120.00283050540001,89.6997299194,45.445999145500004,14.860545158399999,2.7400000094999997,0,2,25,1,116,181
95,1530631593868,3506868, RC,0,39.9586186,-88.445067899,0,0.0,0.0,0.0,0.0,0.0,0.0,0.0,0.0,0.0,0.0,0.0,0.0,0.0,1500,1500,0.0,0.0,40.048362,-88.2331135,0.0,0.0,0.0,0.0,0.0,0.0,0.0,0.0,0.0,0.0,0.0,0,0.0,0.0,0.0,0.0,90.0,60.0,90.0,89.5724029541,119.6845169067,89.6997299194,45.445999145500004,14.860545158399999,2.7400000094999997,0,2,25,1,139,183
96,1530631593918,3506918, RC,0,39.9586186,-88.445067899,0,0.0,0.0,0.0,0.0,0.0,0.0,0.0,0.0,0.0,0.0,0.0,0.0,0.0,1500,1500,0.0,0.0,40.048362,-88.2331135,0.0,0.0,0.0,0.0,0.0,0.0,0.0,0.0,0.0,0.0,0.0,0,0.0,0.0,0.0,0.0,90.0,60.0,90.0,89.5724029541,119.7481765747,89.6997299194,45.445999145500004,14.860545158399999,2.7400000094999997,0,2,25,1,151,184
97,1530631593968,3506968, RC,0,39.9586186,-88.445067899,0,0.0,0.0,0.0,0.0,0.0,0.0,0.0,0.0,0.0,0.0,0.0,0.0,0.0,1500,1500,0.0,0.0,40.048362,-88.2331135,0.0,0.0,0.0,0.0,0.0,0.0,0.0,0.0,0.0,0.0,0.0,0,0.0,0.0,0.0,0.0,90.0,60.0,90.0,89.5724029541,119.7481765747,89.6997299194,45.445999145500004,14.860545158399999,2.7400000094999997,0,2,25,1,171,186
98,1530631594019,3507019, RC,0,39.9586186,-88.445067899,0,0.0,0.0,0.0,0.0,0.0,0.0,0.0,0.0,0.0,0.0,0.0,0.0,0.0,1500,1500,0.0,0.0,40.048362,-88.2331135,0.0,0.0,0.0,0.0,0.0,0.0,0.0,0.0,0.0,0.0,0.0,0,0.0,0.0,0.0,0.0,90.0,60.0,90.0,89.5724029541,119.7481765747,89.6997299194,45.445999145500004,14.860545158399999,2.7400000094999997,0,2,25,1,180,188
99,1530631594069,3507069, RC,0,39.9586186,-88.445067899,0,0.0,0.0,0.0,0.0,0.0,0.0,0.0,0.0,0.0,0.0,0.0,0.0,0.0,1500,1500,0.0,0.0,40.048362,-88.2331135,0.0,0.0,0.0,0.0,0.0,0.0,0.0,0.0,0.0,0.0,0.0,0,0.0,0.0,0.0,0.0,90.0,60.0,90.0,89.5724029541,119.6845169067,89.6997299194,45.445999145500004,14.860545158399999,2.7400000094999997,0,2,25,1,209,190
100,1530631594120,3507120, RC,0,39.9586186,-88.445067899,0,0.0,0.0,0.0,0.0,0.0,0.0,0.0,0.0,0.0,0.0,0.0,0.0,0.0,1500,1500,0.0,0.0,40.048362,-88.2331135,0.0,0.0,0.0,0.0,0.0,0.0,0.0,0.0,0.0,0.0,0.0,0,0.0,0.0,0.0,0.0,90.0,60.0,90.0,89.5724029541,119.6845169067,89.6997299194,45.445999145500004,14.860545158399999,2.7400000094999997,0,2,25,1,178,191
101,1530631594171,3507171, RC,0,39.9586186,-88.445067899,0,0.0,0.0,0.0,0.0,0.0,0.0,0.0,0.0,0.0,0.0,0.0,0.0,0.0,1500,1500,0.0,0.0,40.048362,-88.2331135,0.0,0.0,0.0,0.0,0.0,0.0,0.0,0.0,0.0,0.0,0.0,0,0.0,0.0,0.0,0.0,90.0,60.0,90.0,89.5724029541,119.6845169067,89.6997299194,45.445999145500004,14.860545158399999,2.7400000094999997,0,2,25,1,155,193
102,1530631594221,3507221, RC,0,39.9586186,-88.445067899,0,0.0,0.0,0.0,0.0,0.0,0.0,0.0,0.0,0.0,0.0,0.0,0.0,0.0,1500,1500,0.0,0.0,40.048362,-88.2331135,0.0,0.0,0.0,0.0,0.0,0.0,0.0,0.0,0.0,0.0,0.0,0,0.0,0.0,0.0,0.0,90.0,60.0,90.0,89.5724029541,119.6845169067,89.6997299194,45.445999145500004,14.860545158399999,2.7400000094999997,0,2,25,1,227,195
103,1530631594272,3507272, RC,0,39.9586186,-88.445067899,0,0.0,0.0,0.0,0.0,0.0,0.0,0.0,0.0,0.0,0.0,0.0,0.0,0.0,1500,1500,0.0,0.0,40.048362,-88.2331135,0.0,0.0,0.0,0.0,0.0,0.0,0.0,0.0,0.0,0.0,0.0,0,0.0,0.0,0.0,0.0,90.0,60.0,90.0,89.5724029541,119.6845169067,89.6997299194,45.445999145500004,14.860545158399999,2.7400000094999997,0,2,25,1,231,197
104,1530631594323,3507323, RC,0,39.9586186,-88.445067899,0,0.0,0.0,0.0,0.0,0.0,0.0,0.0,0.0,0.0,0.0,0.0,0.0,0.0,1500,1500,0.0,0.0,40.048362,-88.2331135,0.0,0.0,0.0,0.0,0.0,0.0,0.0,0.0,0.0,0.0,0.0,0,0.0,0.0,0.0,0.0,90.0,60.0,90.0,89.5724029541,119.6845169067,89.6997299194,45.445999145500004,14.860545158399999,2.7400000094999997,0,2,25,1,262,198
105,1530631594380,3507380, RC,0,39.9586186,-88.445067899,0,0.0,0.0,0.0,0.0,0.0,0.0,0.0,0.0,0.0,0.0,0.0,0.0,0.0,1500,1500,0.0,0.0,40.048362,-88.2331135,0.0,0.0,0.0,0.0,0.0,0.0,0.0,0.0,0.0,0.0,0.0,0,0.0,0.0,0.0,0.0,90.0,60.0,90.0,89.5724029541,119.6845169067,89.6997299194,45.445999145500004,14.860545158399999,2.7400000094999997,0,2,25,1,314,200
106,1530631594432,3507432, RC,0,39.9586186,-88.445067899,0,0.0,0.0,0.0,0.0,0.0,0.0,0.0,0.0,0.0,0.0,0.0,0.0,0.0,1500,1500,0.0,0.0,40.048362,-88.2331135,0.0,0.0,0.0,0.0,0.0,0.0,0.0,0.0,0.0,0.0,0.0,0,0.0,0.0,0.0,0.0,90.0,60.0,90.0,89.5724029541,119.7481765747,89.6997299194,45.445999145500004,14.860545158399999,2.7400000094999997,0,2,25,1,307,202
107,1530631594482,3507482, RC,0,39.9586186,-88.445067899,0,0.0,0.0,0.0,0.0,0.0,0.0,0.0,0.0,0.0,0.0,0.0,0.0,0.0,1500,1500,0.0,0.0,40.048362,-88.2331135,0.0,0.0,0.0,0.0,0.0,0.0,0.0,0.0,0.0,0.0,0.0,0,0.0,0.0,0.0,0.0,90.0,60.0,90.0,89.5724029541,119.7481765747,89.6997299194,45.9840011597,14.860545158399999,2.7400000094999997,0,2,25,1,307,204
108,1530631594533,3507533, RC,0,39.9586186,-88.445067899,0,0.0,0.0,0.0,0.0,0.0,0.0,0.0,0.0,0.0,0.0,0.0,0.0,0.0,1500,1500,0.0,0.0,40.048362,-88.2331135,0.0,0.0,0.0,0.0,0.0,0.0,0.0,0.0,0.0,0.0,0.0,0,0.0,0.0,0.0,0.0,90.0,60.0,90.0,89.5724029541,119.7481765747,89.6997299194,45.9840011597,14.8605699539,1.8599998950999999,0,2,25,1,305,206
109,1530631594583,3507583, RC,0,39.9586186,-88.445067899,0,0.0,0.0,0.0,0.0,0.0,0.0,0.0,0.0,0.0,0.0,0.0,0.0,0.0,1500,1500,0.0,0.0,40.048362,-88.2331135,0.0,0.0,0.0,0.0,0.0,0.0,0.0,0.0,0.0,0.0,0.0,0,0.0,0.0,0.0,0.0,90.0,60.0,90.0,89.5724029541,119.7481765747,89.6997299194,45.9840011597,14.8605699539,1.8599998950999999,0,2,25,1,318,208
110,1530631594633,3507633, RC,0,39.9586186,-88.445067899,0,0.0,0.0,0.0,0.0,0.0,0.0,0.0,0.0,0.0,0.0,0.0,0.0,0.0,1500,1500,0.0,0.0,40.048362,-88.2331135,0.0,0.0,0.0,0.0,0.0,0.0,0.0,0.0,0.0,0.0,0.0,0,0.0,0.0,0.0,0.0,90.0,60.0,91.0,89.5724029541,119.7481765747,89.6997299194,45.9840011597,14.8605699539,1.8599998950999999,0,2,25,1,320,209
111,1530631594684,3507684, RC,0,39.9586186,-88.445067899,0,0.0,0.0,0.0,0.0,0.0,0.0,0.0,0.0,0.0,0.0,0.0,0.0,0.0,1500,1500,0.0,0.0,40.048362,-88.2331135,0.0,0.0,0.0,0.0,0.0,0.0,0.0,0.0,0.0,0.0,0.0,0,0.0,0.0,0.0,0.0,90.0,60.0,91.0,89.5724029541,119.7481765747,89.6997299194,45.9840011597,14.8605699539,1.8599998950999999,0,2,25,1,170,211
112,1530631594734,3507734, RC,0,39.9586186,-88.445067899,0,0.0,0.0,0.0,0.0,0.0,0.0,0.0,0.0,0.0,0.0,0.0,0.0,0.0,1500,1500,0.0,0.0,40.048362,-88.2331135,0.0,0.0,0.0,0.0,0.0,0.0,0.0,0.0,0.0,0.0,0.0,0,0.0,0.0,0.0,0.0,90.0,60.0,91.0,89.5724029541,119.7481765747,89.5087432861,45.9840011597,14.8605699539,1.8599998950999999,0,2,25,1,154,213
113,1530631594784,3507784, RC,0,39.9586186,-88.445067899,0,0.0,0.0,0.0,0.0,0.0,0.0,0.0,0.0,0.0,0.0,0.0,0.0,0.0,1500,1500,0.0,0.0,40.0483623333,-88.233116,0.0,0.0,0.0,0.0,0.0,0.0,0.0,0.0,0.0,0.0,0.0,0,0.0,0.0,0.0,0.0,90.0,60.0,91.0,89.5724029541,119.7481765747,89.25408935549999,45.9840011597,14.8605699539,1.8599998950999999,0,2,25,1,153,215
114,1530631594835,3507835, RC,0,39.9586186,-88.445067899,0,0.0,0.0,0.0,0.0,0.0,0.0,0.0,0.0,0.0,0.0,0.0,0.0,0.0,1500,1500,0.0,0.0,40.0483623333,-88.233116,0.0,0.0,0.0,0.0,0.0,0.0,0.0,0.0,0.0,0.0,0.0,0,0.0,0.0,0.0,0.0,90.0,60.0,87.0,89.5724029541,119.7481765747,88.93578338620001,45.9840011597,14.8605699539,1.8599998950999999,0,2,25,1,155,217
115,1530631594885,3507885, RC,0,39.9586186,-88.445067899,0,0.0,0.0,0.0,0.0,0.0,0.0,0.0,0.0,0.0,0.0,0.0,0.0,0.0,1500,1500,0.0,0.0,40.0483623333,-88.233116,0.0,0.0,0.0,0.0,0.0,0.0,0.0,0.0,0.0,0.0,0.0,0,0.0,0.0,0.0,0.0,90.0,60.0,87.0,89.5724029541,119.6845169067,89.25408935549999,45.9840011597,14.8605699539,1.8599998950999999,0,2,25,1,180,219
116,1530631594936,3507936, RC,0,39.9586186,-88.445067899,0,0.0,0.0,0.0,0.0,0.0,0.0,0.0,0.0,0.0,0.0,0.0,0.0,0.0,1500,1500,0.0,0.0,40.0483623333,-88.233116,0.0,0.0,0.0,0.0,0.0,0.0,0.0,0.0,0.0,0.0,0.0,0,0.0,0.0,0.0,0.0,90.0,60.0,77.0,89.5724029541,119.7481765747,92.1825408936,45.9840011597,14.8605699539,1.8599998950999999,0,2,25,1,289,221
117,1530631594986,3507986, RC,0,39.9586186,-88.445067899,0,0.0,0.0,0.0,0.0,0.0,0.0,0.0,0.0,0.0,0.0,0.0,0.0,0.0,1500,1500,0.0,0.0,40.0483623333,-88.233116,0.0,0.0,0.0,0.0,0.0,0.0,0.0,0.0,0.0,0.0,0.0,0,0.0,0.0,0.0,0.0,90.0,60.0,77.0,89.5724029541,119.6845169067,101.668182373,45.9840011597,14.8605699539,1.8599998950999999,0,2,25,1,181,224
118,1530631595037,3508037, RC,0,39.9586186,-88.445067899,0,0.0,0.0,0.0,0.0,0.0,0.0,0.0,0.0,0.0,0.0,0.0,0.0,0.0,1500,1500,0.0,0.0,40.0483623333,-88.233116,0.0,0.0,0.0,0.0,0.0,0.0,0.0,0.0,0.0,0.0,0.0,0,0.0,0.0,0.0,0.0,90.0,60.0,72.0,89.5724029541,119.6845169067,104.02367401120001,45.9840011597,14.8605699539,1.8599998950999999,0,2,25,1,121,226
119,1530631595087,3508087, RC,0,39.9586186,-88.445067899,0,0.0,0.0,0.0,0.0,0.0,0.0,0.0,0.0,0.0,0.0,0.0,0.0,0.0,1500,1500,0.0,0.0,40.0483623333,-88.233116,0.0,0.0,0.0,0.0,0.0,0.0,0.0,0.0,0.0,0.0,0.0,0,0.0,0.0,0.0,0.0,90.0,60.0,72.0,89.5724029541,119.6845169067,104.02367401120001,45.9840011597,14.8605699539,1.8599998950999999,0,2,25,1,140,229
120,1530631595137,3508137, RC,0,39.9586186,-88.445067899,0,0.0,0.0,0.0,0.0,0.0,0.0,0.0,0.0,0.0,0.0,0.0,0.0,0.0,1500,1500,0.0,0.0,40.0483623333,-88.233116,0.0,0.0,0.0,0.0,0.0,0.0,0.0,0.0,0.0,0.0,0.0,0,0.0,0.0,0.0,0.0,90.0,60.0,67.0,89.5724029541,119.7481765747,107.4614181519,45.9840011597,14.8605699539,1.8599998950999999,0,2,25,1,97,232
121,1530631595188,3508188, RC,0,39.9586186,-88.445067899,0,0.0,0.0,0.0,0.0,0.0,0.0,0.0,0.0,0.0,0.0,0.0,0.0,0.0,1500,1500,0.0,0.0,40.0483623333,-88.233116,0.0,0.0,0.0,0.0,0.0,0.0,0.0,0.0,0.0,0.0,0.0,0,0.0,0.0,0.0,0.0,90.0,60.0,64.0,89.5724029541,119.7481765747,110.0078964233,45.9840011597,14.8605699539,1.8599998950999999,0,2,25,1,86,234
122,1530631595238,3508238, RC,0,39.9586186,-88.445067899,0,0.0,0.0,0.0,0.0,0.0,0.0,0.0,0.0,0.0,0.0,0.0,0.0,0.0,1500,1500,0.0,0.0,40.0483623333,-88.233116,0.0,0.0,0.0,0.0,0.0,0.0,0.0,0.0,0.0,0.0,0.0,0,0.0,0.0,0.0,0.0,90.0,60.0,64.0,89.5724029541,119.7481765747,113.3183135986,45.9840011597,14.8605699539,1.8599998950999999,0,2,25,1,110,237
123,1530631595289,3508289, RC,0,39.9586186,-88.445067899,0,0.0,0.0,0.0,0.0,0.0,0.0,0.0,0.0,0.0,0.0,0.0,0.0,0.0,1500,1500,0.0,0.0,40.0483623333,-88.233116,0.0,0.0,0.0,0.0,0.0,0.0,0.0,0.0,0.0,0.0,0.0,0,0.0,0.0,0.0,0.0,90.0,60.0,64.0,89.5724029541,119.6845169067,115.0371856689,45.9840011597,14.8605699539,1.8599998950999999,0,2,25,1,104,240
124,1530631595339,3508339, RC,0,39.9586186,-88.445067899,0,0.0,0.0,0.0,0.0,0.0,0.0,0.0,0.0,0.0,0.0,0.0,0.0,0.0,1500,1500,0.0,0.0,40.0483623333,-88.233116,0.0,0.0,0.0,0.0,0.0,0.0,0.0,0.0,0.0,0.0,0.0,0,0.0,0.0,0.0,0.0,90.0,60.0,64.0,89.5724029541,119.6845169067,116.24677276610001,45.9840011597,14.8605699539,1.8599998950999999,0,2,25,1,121,242
125,1530631595389,3508389, RC,0,39.9586186,-88.445067899,0,0.0,0.0,0.0,0.0,0.0,0.0,0.0,0.0,0.0,0.0,0.0,0.0,0.0,1500,1500,0.0,0.0,40.0483623333,-88.233116,0.0,0.0,0.0,0.0,0.0,0.0,0.0,0.0,0.0,0.0,0.0,0,0.0,0.0,0.0,0.0,90.0,60.0,64.0,89.5724029541,119.6845169067,116.24677276610001,45.9840011597,14.8605699539,1.8599998950999999,0,2,25,1,130,245
126,1530631595440,3508440, RC,0,39.9586186,-88.445067899,0,0.0,0.0,0.0,0.0,0.0,0.0,0.0,0.0,0.0,0.0,0.0,0.0,0.0,1500,1500,0.0,0.0,40.0483623333,-88.233116,0.0,0.0,0.0,0.0,0.0,0.0,0.0,0.0,0.0,0.0,0.0,0,0.0,0.0,0.0,0.0,90.0,60.0,64.0,89.5724029541,119.6845169067,116.24677276610001,45.9840011597,14.8605699539,1.8599998950999999,0,2,25,1,131,247
127,1530631595490,3508490, RC,0,39.9586186,-88.445067899,0,0.0,0.0,0.0,0.0,0.0,0.0,0.0,0.0,0.0,0.0,0.0,0.0,0.0,1500,1500,0.0,0.0,40.0483623333,-88.233116,0.0,0.0,0.0,0.0,0.0,0.0,0.0,0.0,0.0,0.0,0.0,0,0.0,0.0,0.0,0.0,90.0,60.0,63.0,89.5724029541,119.7481765747,116.24677276610001,45.9840011597,14.8605699539,1.8599998950999999,0,2,25,1,132,250
128,1530631595540,3508540, RC,0,39.9586186,-88.445067899,0,0.0,0.0,0.0,0.0,0.0,0.0,0.0,0.0,0.0,0.0,0.0,0.0,0.0,1500,1500,0.0,0.0,40.0483623333,-88.233116,0.0,0.0,0.0,0.0,0.0,0.0,0.0,0.0,0.0,0.0,0.0,0,0.0,0.0,0.0,0.0,90.0,60.0,63.0,89.5724029541,119.7481765747,116.24677276610001,45.9840011597,14.855900764500001,3.0199999808999998,0,2,25,1,128,253
129,1530631595591,3508591, RC,0,39.9586186,-88.445067899,0,0.0,0.0,0.0,0.0,0.0,0.0,0.0,0.0,0.0,0.0,0.0,0.0,0.0,1500,1500,0.0,0.0,40.0483623333,-88.233116,0.0,0.0,0.0,0.0,0.0,0.0,0.0,0.0,0.0,0.0,0.0,0,0.0,0.0,0.0,0.0,90.0,60.0,58.0,89.5724029541,119.7481765747,116.24677276610001,45.9840011597,14.855900764500001,3.0199999808999998,0,2,25,1,127,255
130,1530631595641,3508641, RC,0,39.9586186,-88.445067899,0,0.0,0.0,0.0,0.0,0.0,0.0,0.0,0.0,0.0,0.0,0.0,0.0,0.0,1500,1500,0.0,0.0,40.0483623333,-88.233116,0.0,0.0,0.0,0.0,0.0,0.0,0.0,0.0,0.0,0.0,0.0,0,0.0,0.0,0.0,0.0,90.0,60.0,58.0,89.5724029541,119.7481765747,116.24677276610001,45.9840011597,14.855900764500001,3.0199999808999998,0,2,25,1,128,258
131,1530631595691,3508691, RC,0,39.9586186,-88.445067899,0,0.0,0.0,0.0,0.0,0.0,0.0,0.0,0.0,0.0,0.0,0.0,0.0,0.0,1500,1500,0.0,0.0,40.0483623333,-88.233116,0.0,0.0,0.0,0.0,0.0,0.0,0.0,0.0,0.0,0.0,0.0,0,0.0,0.0,0.0,0.0,90.0,60.0,58.0,89.5724029541,119.7481765747,118.34761810299999,45.9840011597,14.855900764500001,3.0199999808999998,0,2,25,1,125,261
132,1530631595742,3508742, RC,0,39.9586186,-88.445067899,0,0.0,0.0,0.0,0.0,0.0,0.0,0.0,0.0,0.0,0.0,0.0,0.0,0.0,1500,1500,0.0,0.0,40.0483623333,-88.233116,0.0,0.0,0.0,0.0,0.0,0.0,0.0,0.0,0.0,0.0,0.0,0,0.0,0.0,0.0,0.0,90.0,60.0,58.0,89.5724029541,119.7481765747,121.467048645,45.9840011597,14.855900764500001,3.0199999808999998,0,2,25,1,137,263
133,1530631595792,3508792, RC,0,39.9586186,-88.445067899,0,0.0,0.0,0.0,0.0,0.0,0.0,0.0,0.0,0.0,0.0,0.0,0.0,0.0,1500,1500,0.0,0.0,40.048359,-88.2331198333,0.0,0.0,0.0,0.0,0.0,0.0,0.0,0.0,0.0,0.0,0.0,0,0.0,0.0,0.0,0.0,90.0,60.0,57.0,89.5724029541,119.7481765747,121.467048645,45.9840011597,14.855900764500001,3.0199999808999998,0,2,25,1,147,266
134,1530631595842,3508842, RC,0,39.9586186,-88.445067899,0,0.0,0.0,0.0,0.0,0.0,0.0,0.0,0.0,0.0,0.0,0.0,0.0,0.0,1500,1500,0.0,0.0,40.048359,-88.2331198333,0.0,0.0,0.0,0.0,0.0,0.0,0.0,0.0,0.0,0.0,0.0,0,0.0,0.0,0.0,0.0,90.0,60.0,57.0,89.5724029541,119.7481765747,121.467048645,45.9840011597,14.855900764500001,3.0199999808999998,0,2,25,1,142,268
135,1530631595893,3508893, RC,0,39.9586186,-88.445067899,0,0.0,0.0,0.0,0.0,0.0,0.0,0.0,0.0,0.0,0.0,0.0,0.0,0.0,1500,1500,0.0,0.0,40.048359,-88.2331198333,0.0,0.0,0.0,0.0,0.0,0.0,0.0,0.0,0.0,0.0,0.0,0,0.0,0.0,0.0,0.0,90.0,60.0,57.0,89.5724029541,119.7481765747,121.5307159424,45.9840011597,14.855900764500001,3.0199999808999998,0,2,25,1,147,271
136,1530631595943,3508943, RC,0,39.9586186,-88.445067899,0,0.0,0.0,0.0,0.0,0.0,0.0,0.0,0.0,0.0,0.0,0.0,0.0,0.0,1500,1500,0.0,0.0,40.048359,-88.2331198333,0.0,0.0,0.0,0.0,0.0,0.0,0.0,0.0,0.0,0.0,0.0,0,0.0,0.0,0.0,0.0,90.0,60.0,57.0,89.5724029541,119.7481765747,121.5307159424,45.9840011597,14.855900764500001,3.0199999808999998,0,2,25,1,146,273
137,1530631595994,3508994, RC,0,39.9586186,-88.445067899,0,0.0,0.0,0.0,0.0,0.0,0.0,0.0,0.0,0.0,0.0,0.0,0.0,0.0,1500,1500,0.0,0.0,40.048359,-88.2331198333,0.0,0.0,0.0,0.0,0.0,0.0,0.0,0.0,0.0,0.0,0.0,0,0.0,0.0,0.0,0.0,90.0,60.0,57.0,89.5724029541,119.7481765747,121.5307159424,45.9840011597,14.855900764500001,3.0199999808999998,0,2,25,1,144,276
138,1530631596044,3509044, RC,0,39.9586186,-88.445067899,0,0.0,0.0,0.0,0.0,0.0,0.0,0.0,0.0,0.0,0.0,0.0,0.0,0.0,1500,1500,0.0,0.0,40.048359,-88.2331198333,0.0,0.0,0.0,0.0,0.0,0.0,0.0,0.0,0.0,0.0,0.0,0,0.0,0.0,0.0,0.0,90.0,60.0,57.0,89.5724029541,119.7481765747,121.5307159424,45.9840011597,14.855900764500001,3.0199999808999998,0,2,25,1,145,278
139,1530631596094,3509094, RC,0,39.9586186,-88.445067899,0,0.0,0.0,0.0,0.0,0.0,0.0,0.0,0.0,0.0,0.0,0.0,0.0,0.0,1500,1500,0.0,0.0,40.048359,-88.2331198333,0.0,0.0,0.0,0.0,0.0,0.0,0.0,0.0,0.0,0.0,0.0,0,0.0,0.0,0.0,0.0,90.0,60.0,57.0,89.5724029541,119.7481765747,121.5307159424,45.9840011597,14.855900764500001,3.0199999808999998,0,2,25,1,144,281
140,1530631596145,3509145, RC,0,39.9586186,-88.445067899,0,0.0,0.0,0.0,0.0,0.0,0.0,0.0,0.0,0.0,0.0,0.0,0.0,0.0,1500,1500,0.0,0.0,40.048359,-88.2331198333,0.0,0.0,0.0,0.0,0.0,0.0,0.0,0.0,0.0,0.0,0.0,0,0.0,0.0,0.0,0.0,90.0,60.0,57.0,89.5724029541,119.7481765747,121.5307159424,45.9840011597,14.855900764500001,3.0199999808999998,0,2,25,1,142,283
141,1530631596195,3509195, RC,0,39.9586186,-88.445067899,0,0.0,0.0,0.0,0.0,0.0,0.0,0.0,0.0,0.0,0.0,0.0,0.0,0.0,1500,1500,0.0,0.0,40.048359,-88.2331198333,0.0,0.0,0.0,0.0,0.0,0.0,0.0,0.0,0.0,0.0,0.0,0,0.0,0.0,0.0,0.0,90.0,60.0,57.0,89.5724029541,119.7481765747,121.84902954100001,45.9840011597,14.855900764500001,3.0199999808999998,0,2,25,1,141,286
142,1530631596245,3509245, RC,0,39.9586186,-88.445067899,0,0.0,0.0,0.0,0.0,0.0,0.0,0.0,0.0,0.0,0.0,0.0,0.0,0.0,1500,1500,0.0,0.0,40.048359,-88.2331198333,0.0,0.0,0.0,0.0,0.0,0.0,0.0,0.0,0.0,0.0,0.0,0,0.0,0.0,0.0,0.0,90.0,60.0,57.0,89.5724029541,119.7481765747,121.84902954100001,45.9840011597,14.855900764500001,3.0199999808999998,0,2,25,1,138,288
143,1530631596296,3509296, RC,0,39.9586186,-88.445067899,0,0.0,0.0,0.0,0.0,0.0,0.0,0.0,0.0,0.0,0.0,0.0,0.0,0.0,1500,1500,0.0,0.0,40.048359,-88.2331198333,0.0,0.0,0.0,0.0,0.0,0.0,0.0,0.0,0.0,0.0,0.0,0,0.0,0.0,0.0,0.0,90.0,60.0,57.0,89.5724029541,119.7481765747,121.84902954100001,45.9840011597,14.855900764500001,3.0199999808999998,0,2,25,1,143,291
144,1530631596346,3509346, RC,0,39.9586186,-88.445067899,0,0.0,0.0,0.0,0.0,0.0,0.0,0.0,0.0,0.0,0.0,0.0,0.0,0.0,1500,1500,0.0,0.0,40.048359,-88.2331198333,0.0,0.0,0.0,0.0,0.0,0.0,0.0,0.0,0.0,0.0,0.0,0,0.0,0.0,0.0,0.0,90.0,60.0,57.0,89.5724029541,119.7481765747,121.91268920899999,45.9840011597,14.855900764500001,3.0199999808999998,0,2,25,1,135,293
145,1530631596396,3509396, RC,0,39.9586186,-88.445067899,0,0.0,0.0,0.0,0.0,0.0,0.0,0.0,0.0,0.0,0.0,0.0,0.0,0.0,1500,1500,0.0,0.0,40.048359,-88.2331198333,0.0,0.0,0.0,0.0,0.0,0.0,0.0,0.0,0.0,0.0,0.0,0,0.0,0.0,0.0,0.0,90.0,60.0,58.0,89.5724029541,119.7481765747,122.5493011475,45.9840011597,14.855900764500001,3.0199999808999998,0,2,25,1,126,296
146,1530631596447,3509447, RC,0,39.9586186,-88.445067899,0,0.0,0.0,0.0,0.0,0.0,0.0,0.0,0.0,0.0,0.0,0.0,0.0,0.0,1500,1500,0.0,0.0,40.048359,-88.2331198333,0.0,0.0,0.0,0.0,0.0,0.0,0.0,0.0,0.0,0.0,0.0,0,0.0,0.0,0.0,0.0,90.0,60.0,58.0,89.5724029541,119.7481765747,122.5493011475,45.9840011597,14.855900764500001,3.0199999808999998,0,2,25,1,153,299
147,1530631596497,3509497, RC,0,39.9586186,-88.445067899,0,0.0,0.0,0.0,0.0,0.0,0.0,0.0,0.0,0.0,0.0,0.0,0.0,0.0,1500,1500,0.0,0.0,40.048359,-88.2331198333,0.0,0.0,0.0,0.0,0.0,0.0,0.0,0.0,0.0,0.0,0.0,0,0.0,0.0,0.0,0.0,90.0,60.0,58.0,89.5724029541,119.7481765747,122.5493011475,45.9840011597,14.855900764500001,3.0199999808999998,0,2,25,1,142,301
148,1530631596548,3509548, RC,0,39.9586186,-88.445067899,0,0.0,0.0,0.0,0.0,0.0,0.0,0.0,0.0,0.0,0.0,0.0,0.0,0.0,1500,1500,0.0,0.0,40.048359,-88.2331198333,0.0,0.0,0.0,0.0,0.0,0.0,0.0,0.0,0.0,0.0,0.0,0,0.0,0.0,0.0,0.0,90.0,60.0,58.0,89.5724029541,119.7481765747,122.5493011475,45.9840011597,14.855970382699999,2.0299999713999997,0,2,25,1,132,304
149,1530631596598,3509598, RC,0,39.9586186,-88.445067899,0,0.0,0.0,0.0,0.0,0.0,0.0,0.0,0.0,0.0,0.0,0.0,0.0,0.0,1500,1500,0.0,0.0,40.048359,-88.2331198333,0.0,0.0,0.0,0.0,0.0,0.0,0.0,0.0,0.0,0.0,0.0,0,0.0,0.0,0.0,0.0,90.0,60.0,58.0,89.5724029541,119.7481765747,122.5493011475,45.9840011597,14.855970382699999,2.0299999713999997,0,2,25,1,134,306
150,1530631596648,3509648, RC,0,39.9586186,-88.445067899,0,0.0,0.0,0.0,0.0,0.0,0.0,0.0,0.0,0.0,0.0,0.0,0.0,0.0,1500,1500,0.0,0.0,40.048359,-88.2331198333,0.0,0.0,0.0,0.0,0.0,0.0,0.0,0.0,0.0,0.0,0.0,0,0.0,0.0,0.0,0.0,90.0,60.0,58.0,89.5724029541,119.7481765747,122.5493011475,45.9840011597,14.855970382699999,2.0299999713999997,0,2,25,1,135,309
151,1530631596699,3509699, RC,0,39.9586186,-88.445067899,0,0.0,0.0,0.0,0.0,0.0,0.0,0.0,0.0,0.0,0.0,0.0,0.0,0.0,1500,1500,0.0,0.0,40.048359,-88.2331198333,0.0,0.0,0.0,0.0,0.0,0.0,0.0,0.0,0.0,0.0,0.0,0,0.0,0.0,0.0,0.0,90.0,60.0,60.0,89.5724029541,119.7481765747,122.5493011475,45.9840011597,14.855970382699999,2.0299999713999997,0,2,25,1,137,311
152,1530631596749,3509749, RC,0,39.9586186,-88.445067899,0,0.0,0.0,0.0,0.0,0.0,0.0,0.0,0.0,0.0,0.0,0.0,0.0,0.0,1500,1500,0.0,0.0,40.048359,-88.2331198333,0.0,0.0,0.0,0.0,0.0,0.0,0.0,0.0,0.0,0.0,0.0,0,0.0,0.0,0.0,0.0,90.0,60.0,60.0,89.5724029541,119.7481765747,122.48564910889999,45.9840011597,14.855970382699999,2.0299999713999997,0,2,25,1,138,313
153,1530631596799,3509799, RC,0,39.9586186,-88.445067899,0,0.0,0.0,0.0,0.0,0.0,0.0,0.0,0.0,0.0,0.0,0.0,0.0,0.0,1500,1500,0.0,0.0,40.0483575,-88.2331186667,0.0,0.0,0.0,0.0,0.0,0.0,0.0,0.0,0.0,0.0,0.0,0,0.0,0.0,0.0,0.0,90.0,60.0,60.0,89.5724029541,119.7481765747,122.10367584229999,45.9840011597,14.855970382699999,2.0299999713999997,0,2,25,1,147,316
154,1530631596850,3509850, RC,0,39.9586186,-88.445067899,0,0.0,0.0,0.0,0.0,0.0,0.0,0.0,0.0,0.0,0.0,0.0,0.0,0.0,1500,1500,0.0,0.0,40.0483575,-88.2331186667,0.0,0.0,0.0,0.0,0.0,0.0,0.0,0.0,0.0,0.0,0.0,0,0.0,0.0,0.0,0.0,90.0,60.0,60.0,89.5724029541,119.7481765747,121.2124023438,45.9840011597,14.855970382699999,2.0299999713999997,0,2,25,1,136,319
155,1530631596900,3509900, RC,0,39.9586186,-88.445067899,0,0.0,0.0,0.0,0.0,0.0,0.0,0.0,0.0,0.0,0.0,0.0,0.0,0.0,1500,1500,0.0,0.0,40.0483575,-88.2331186667,0.0,0.0,0.0,0.0,0.0,0.0,0.0,0.0,0.0,0.0,0.0,0,0.0,0.0,0.0,0.0,90.0,60.0,60.0,89.5724029541,119.7481765747,120.38480377200001,45.9840011597,14.855970382699999,2.0299999713999997,0,2,25,1,139,321
156,1530631596951,3509951, RC,0,39.9586186,-88.445067899,0,0.0,0.0,0.0,0.0,0.0,0.0,0.0,0.0,0.0,0.0,0.0,0.0,0.0,1500,1500,0.0,0.0,40.0483575,-88.2331186667,0.0,0.0,0.0,0.0,0.0,0.0,0.0,0.0,0.0,0.0,0.0,0,0.0,0.0,0.0,0.0,90.0,60.0,60.0,89.5724029541,119.7481765747,119.7481765747,45.9840011597,14.855970382699999,2.0299999713999997,0,2,25,1,131,324
157,1530631597001,3510001, RC,0,39.9586186,-88.445067899,0,0.0,0.0,0.0,0.0,0.0,0.0,0.0,0.0,0.0,0.0,0.0,0.0,0.0,1500,1500,0.0,0.0,40.0483575,-88.2331186667,0.0,0.0,0.0,0.0,0.0,0.0,0.0,0.0,0.0,0.0,0.0,0,0.0,0.0,0.0,0.0,90.0,60.0,60.0,89.5724029541,119.7481765747,119.5571899414,45.9840011597,14.855970382699999,2.0299999713999997,0,2,25,1,144,326
158,1530631597052,3510052, RC,0,39.9586186,-88.445067899,0,0.0,0.0,0.0,0.0,0.0,0.0,0.0,0.0,0.0,0.0,0.0,0.0,0.0,1500,1500,0.0,0.0,40.0483575,-88.2331186667,0.0,0.0,0.0,0.0,0.0,0.0,0.0,0.0,0.0,0.0,0.0,0,0.0,0.0,0.0,0.0,90.0,60.0,60.0,89.5724029541,119.7481765747,119.4935302734,45.9840011597,14.855970382699999,2.0299999713999997,0,2,25,1,138,329
159,1530631597102,3510102, RC,0,39.9586186,-88.445067899,0,0.0,0.0,0.0,0.0,0.0,0.0,0.0,0.0,0.0,0.0,0.0,0.0,0.0,1500,1500,0.0,0.0,40.0483575,-88.2331186667,0.0,0.0,0.0,0.0,0.0,0.0,0.0,0.0,0.0,0.0,0.0,0,0.0,0.0,0.0,0.0,90.0,60.0,60.0,89.5724029541,119.7481765747,119.4935302734,45.9840011597,14.855970382699999,2.0299999713999997,0,2,25,1,156,331
160,1530631597152,3510152, RC,0,39.9586186,-88.445067899,0,0.0,0.0,0.0,0.0,0.0,0.0,0.0,0.0,0.0,0.0,0.0,0.0,0.0,1500,1500,0.0,0.0,40.0483575,-88.2331186667,0.0,0.0,0.0,0.0,0.0,0.0,0.0,0.0,0.0,0.0,0.0,0,0.0,0.0,0.0,0.0,90.0,60.0,60.0,89.5724029541,119.7481765747,119.4935302734,45.9840011597,14.855970382699999,2.0299999713999997,0,2,25,1,144,334
161,1530631597203,3510203, RC,0,39.9586186,-88.445067899,0,0.0,0.0,0.0,0.0,0.0,0.0,0.0,0.0,0.0,0.0,0.0,0.0,0.0,1500,1500,0.0,0.0,40.0483575,-88.2331186667,0.0,0.0,0.0,0.0,0.0,0.0,0.0,0.0,0.0,0.0,0.0,0,0.0,0.0,0.0,0.0,90.0,60.0,60.0,89.5724029541,119.7481765747,119.42987060549999,45.9840011597,14.855970382699999,2.0299999713999997,0,2,25,1,145,336
162,1530631597253,3510253, RC,0,39.9586186,-88.445067899,0,0.0,0.0,0.0,0.0,0.0,0.0,0.0,0.0,0.0,0.0,0.0,0.0,0.0,1500,1500,0.0,0.0,40.0483575,-88.2331186667,0.0,0.0,0.0,0.0,0.0,0.0,0.0,0.0,0.0,0.0,0.0,0,0.0,0.0,0.0,0.0,90.0,60.0,60.0,89.5724029541,119.7481765747,119.42987060549999,45.9840011597,14.855970382699999,2.0299999713999997,0,2,25,1,144,339
163,1530631597303,3510303, RC,0,39.9586186,-88.445067899,0,0.0,0.0,0.0,0.0,0.0,0.0,0.0,0.0,0.0,0.0,0.0,0.0,0.0,1500,1500,0.0,0.0,40.0483575,-88.2331186667,0.0,0.0,0.0,0.0,0.0,0.0,0.0,0.0,0.0,0.0,0.0,0,0.0,0.0,0.0,0.0,90.0,60.0,64.0,89.5724029541,119.7481765747,119.42987060549999,45.9840011597,14.855970382699999,2.0299999713999997,0,2,25,1,141,341
164,1530631597354,3510354, RC,0,39.9586186,-88.445067899,0,0.0,0.0,0.0,0.0,0.0,0.0,0.0,0.0,0.0,0.0,0.0,0.0,0.0,1500,1500,0.0,0.0,40.0483575,-88.2331186667,0.0,0.0,0.0,0.0,0.0,0.0,0.0,0.0,0.0,0.0,0.0,0,0.0,0.0,0.0,0.0,90.0,60.0,64.0,89.5724029541,119.7481765747,119.42987060549999,45.9840011597,14.855970382699999,2.0299999713999997,0,2,25,1,129,344
165,1530631597404,3510404, RC,0,39.9586186,-88.445067899,0,0.0,0.0,0.0,0.0,0.0,0.0,0.0,0.0,0.0,0.0,0.0,0.0,0.0,1500,1500,0.0,0.0,40.0483575,-88.2331186667,0.0,0.0,0.0,0.0,0.0,0.0,0.0,0.0,0.0,0.0,0.0,0,0.0,0.0,0.0,0.0,90.0,60.0,64.0,89.5724029541,119.7481765747,117.4563446045,45.9840011597,14.855970382699999,2.0299999713999997,0,2,25,1,102,346
166,1530631597455,3510455, RC,0,39.9586186,-88.445067899,0,0.0,0.0,0.0,0.0,0.0,0.0,0.0,0.0,0.0,0.0,0.0,0.0,0.0,1500,1500,0.0,0.0,40.0483575,-88.2331186667,0.0,0.0,0.0,0.0,0.0,0.0,0.0,0.0,0.0,0.0,0.0,0,0.0,0.0,0.0,0.0,90.0,60.0,64.0,89.5724029541,119.7481765747,113.6366271973,45.9840011597,14.855970382699999,2.0299999713999997,0,2,25,1,121,349
167,1530631597505,3510505, RC,0,39.9586186,-88.445067899,0,0.0,0.0,0.0,0.0,0.0,0.0,0.0,0.0,0.0,0.0,0.0,0.0,0.0,1500,1500,0.0,0.0,40.0483575,-88.2331186667,0.0,0.0,0.0,0.0,0.0,0.0,0.0,0.0,0.0,0.0,0.0,0,0.0,0.0,0.0,0.0,90.0,60.0,64.0,89.5724029541,119.7481765747,113.6366271973,45.9840011597,14.855970382699999,2.0299999713999997,0,2,25,1,116,351
