,(0)linux time (ms),    (1)uptime  (ms),      (2)drive mode,(3)mpc step counter,(4)mpc origin latitude  (deg),(5)mpc origin longitude  (deg),(6)closest trajectory point index to robot,(7)mpc error x (W;E)  (m),(8)mpc error y (W;E)  (m),(9)abs mpc error (m),(10)input [x] for mhe (m),(11)input [y] for mhe (m),(12)input [speed] for mhe (m/s),(13)input [vyaw] for mhe (rad/s),(14)mhe output x  (m),(15)mhe output y  (m),(16)mhe output speed  (m/s),(17)mhe output yaw  (rad),(18)mpc reference heading (rad),(19)mpc turn rate command (rad/s),(20)turn rate command as PWM,(21)throttle command as PWM,(22)primary gps latitude (deg),(23)primary gps longitude (deg),(24)secondary gps latitude  (deg),(25)secondary gps longitude (deg),(26)accelerometer x (m/s^2),(27)accelerometer y (m/s^2),(28)accelerometer z (m/s^2),(29)gyro yaw rate (rad/s),(30)gyro pitch rate   (rad/s),(31)gyro roll rate (rad/s),      (32)yaw (rad),  (33)pitch   (rad),     (34)roll (rad),(35)sonar1 measurement (m),(36)ultrasonic sensor measurement (m),(37)primary gps time (s),(38)normalized turn rate command,(39)normalized throttle command,(40)speed calculation from encoder left (m/s),(41)speed calculation from encoder right (m/s),(42)front gimbal target angle (degrees from straight down),(43)left gimbal target angle  (degrees from straight down),(44)right gimbal target angle  (degrees from straight down),(45)front gimbal measured angle  (degrees from straight down),(46)left gimbal measured angle    (degrees from straight down),(47)right gimbal measured angle  (degrees from straight down),(48)internal temperature (C),(49)battery voltage (V),(50)primary gps type,(51)secondary gps type,    (52)MPC R value, (53)MPC Q[0] value,Unnamed: 54,weed_num,start
0,1530630976534,2889534, RC,0,39.9586186,-88.445067899,0,0.0,0.0,0.0,0.0,0.0,0.0,0.0,0.0,0.0,0.0,0.0,0.0,0.0,1500,1500,0.0,0.0,40.048294,-88.2327386667,0.0,0.0,0.0,0.0,0.0,0.0,0.0,0.0,0.0,0.0,0.0,0,0.0,0.0,0.0,0.0,90.0,90.0,90.0,90.3363494873,91.29127502440001,88.8084564209,42.7559967041,15.004460334800001,2.9600000381,0,2,25,1,74,6
1,1530630976585,2889585, RC,0,39.9586186,-88.445067899,0,0.0,0.0,0.0,0.0,0.0,0.0,0.0,0.0,0.0,0.0,0.0,0.0,0.0,1500,1500,0.0,0.0,40.048294,-88.2327386667,0.0,0.0,0.0,0.0,0.0,0.0,0.0,0.0,0.0,0.0,0.0,0,0.0,0.0,0.0,0.0,90.0,90.0,90.0,90.3363494873,89.9543762207,88.8084564209,42.7559967041,15.004460334800001,2.9600000381,0,2,25,1,80,9
2,1530630976635,2889635, RC,0,39.9586186,-88.445067899,0,0.0,0.0,0.0,0.0,0.0,0.0,0.0,0.0,0.0,0.0,0.0,0.0,0.0,1500,1500,0.0,0.0,40.048294,-88.2327386667,0.0,0.0,0.0,0.0,0.0,0.0,0.0,0.0,0.0,0.0,0.0,0,0.0,0.0,0.0,0.0,90.0,90.0,90.0,90.3363494873,90.01803588870001,88.8084564209,43.8320007324,15.004460334800001,2.9600000381,0,2,25,1,99,12
3,1530630976685,2889685, RC,0,39.9586186,-88.445067899,0,0.0,0.0,0.0,0.0,0.0,0.0,0.0,0.0,0.0,0.0,0.0,0.0,0.0,1500,1500,0.0,0.0,40.048294,-88.2327386667,0.0,0.0,0.0,0.0,0.0,0.0,0.0,0.0,0.0,0.0,0.0,0,0.0,0.0,0.0,0.0,90.0,90.0,90.0,90.3363494873,90.01803588870001,88.8084564209,43.8320007324,15.004460334800001,2.9600000381,0,2,25,1,106,16
4,1530630976736,2889736, RC,0,39.9586186,-88.445067899,0,0.0,0.0,0.0,0.0,0.0,0.0,0.0,0.0,0.0,0.0,0.0,0.0,0.0,1500,1500,0.0,0.0,40.048294,-88.2327386667,0.0,0.0,0.0,0.0,0.0,0.0,0.0,0.0,0.0,0.0,0.0,0,0.0,0.0,0.0,0.0,90.0,85.0,90.0,90.3363494873,90.01803588870001,88.8084564209,43.8320007324,15.004460334800001,2.9600000381,0,2,25,1,115,19
5,1530630976786,2889786, RC,0,39.9586186,-88.445067899,0,0.0,0.0,0.0,0.0,0.0,0.0,0.0,0.0,0.0,0.0,0.0,0.0,0.0,1500,1500,0.0,0.0,40.0482938333,-88.2327338333,0.0,0.0,0.0,0.0,0.0,0.0,0.0,0.0,0.0,0.0,0.0,0,0.0,0.0,0.0,0.0,90.0,85.0,90.0,90.3363494873,92.11888122559999,88.8084564209,43.8320007324,15.004460334800001,2.9600000381,0,2,25,1,127,22
6,1530630976837,2889837, RC,0,39.9586186,-88.445067899,0,0.0,0.0,0.0,0.0,0.0,0.0,0.0,0.0,0.0,0.0,0.0,0.0,0.0,1500,1500,0.0,0.0,40.0482938333,-88.2327338333,0.0,0.0,0.0,0.0,0.0,0.0,0.0,0.0,0.0,0.0,0.0,0,0.0,0.0,0.0,0.0,90.0,81.0,90.0,90.3363494873,94.6016998291,88.8084564209,43.8320007324,15.004460334800001,2.9600000381,0,2,25,1,141,24
7,1530630976887,2889887, RC,0,39.9586186,-88.445067899,0,0.0,0.0,0.0,0.0,0.0,0.0,0.0,0.0,0.0,0.0,0.0,0.0,0.0,1500,1500,0.0,0.0,40.0482938333,-88.2327338333,0.0,0.0,0.0,0.0,0.0,0.0,0.0,0.0,0.0,0.0,0.0,0,0.0,0.0,0.0,0.0,90.0,81.0,90.0,90.3363494873,96.0659179688,88.8084564209,43.8320007324,15.004460334800001,2.9600000381,0,2,25,1,157,27
8,1530630976937,2889937, RC,0,39.9586186,-88.445067899,0,0.0,0.0,0.0,0.0,0.0,0.0,0.0,0.0,0.0,0.0,0.0,0.0,0.0,1500,1500,0.0,0.0,40.0482938333,-88.2327338333,0.0,0.0,0.0,0.0,0.0,0.0,0.0,0.0,0.0,0.0,0.0,0,0.0,0.0,0.0,0.0,90.0,76.0,90.0,90.3363494873,98.1031036377,88.8084564209,43.8320007324,15.004460334800001,2.9600000381,0,2,25,1,135,29
9,1530630976988,2889988, RC,0,39.9586186,-88.445067899,0,0.0,0.0,0.0,0.0,0.0,0.0,0.0,0.0,0.0,0.0,0.0,0.0,0.0,1500,1500,0.0,0.0,40.0482938333,-88.2327338333,0.0,0.0,0.0,0.0,0.0,0.0,0.0,0.0,0.0,0.0,0.0,0,0.0,0.0,0.0,0.0,90.0,76.0,90.0,90.3363494873,101.2225418091,88.8084564209,43.8320007324,15.004460334800001,2.9600000381,0,2,25,1,155,32
10,1530630977038,2890038, RC,0,39.9586186,-88.445067899,0,0.0,0.0,0.0,0.0,0.0,0.0,0.0,0.0,0.0,0.0,0.0,0.0,0.0,1500,1500,0.0,0.0,40.0482938333,-88.2327338333,0.0,0.0,0.0,0.0,0.0,0.0,0.0,0.0,0.0,0.0,0.0,0,0.0,0.0,0.0,0.0,90.0,75.0,90.0,90.3363494873,104.02367401120001,88.8084564209,43.8320007324,15.004460334800001,2.9600000381,0,2,25,1,144,34
11,1530630977088,2890088, RC,0,39.9586186,-88.445067899,0,0.0,0.0,0.0,0.0,0.0,0.0,0.0,0.0,0.0,0.0,0.0,0.0,0.0,1500,1500,0.0,0.0,40.0482938333,-88.2327338333,0.0,0.0,0.0,0.0,0.0,0.0,0.0,0.0,0.0,0.0,0.0,0,0.0,0.0,0.0,0.0,90.0,75.0,90.0,90.3363494873,103.83268737790002,88.8084564209,43.8320007324,15.004460334800001,2.9600000381,0,2,25,1,150,37
12,1530630977139,2890139, RC,0,39.9586186,-88.445067899,0,0.0,0.0,0.0,0.0,0.0,0.0,0.0,0.0,0.0,0.0,0.0,0.0,0.0,1500,1500,0.0,0.0,40.0482938333,-88.2327338333,0.0,0.0,0.0,0.0,0.0,0.0,0.0,0.0,0.0,0.0,0.0,0,0.0,0.0,0.0,0.0,90.0,70.0,90.0,90.3363494873,103.9600067139,88.8084564209,43.8320007324,15.004460334800001,2.9600000381,0,2,25,1,149,39
13,1530630977189,2890189, RC,0,39.9586186,-88.445067899,0,0.0,0.0,0.0,0.0,0.0,0.0,0.0,0.0,0.0,0.0,0.0,0.0,0.0,1500,1500,0.0,0.0,40.0482938333,-88.2327338333,0.0,0.0,0.0,0.0,0.0,0.0,0.0,0.0,0.0,0.0,0.0,0,0.0,0.0,0.0,0.0,90.0,70.0,90.0,90.3363494873,104.6602935791,88.8084564209,43.8320007324,15.004460334800001,2.9600000381,0,2,25,1,157,42
14,1530630977239,2890239, RC,0,39.9586186,-88.445067899,0,0.0,0.0,0.0,0.0,0.0,0.0,0.0,0.0,0.0,0.0,0.0,0.0,0.0,1500,1500,0.0,0.0,40.0482938333,-88.2327338333,0.0,0.0,0.0,0.0,0.0,0.0,0.0,0.0,0.0,0.0,0.0,0,0.0,0.0,0.0,0.0,90.0,69.0,90.0,90.3363494873,110.13522338870001,88.8084564209,43.8320007324,15.004460334800001,2.9600000381,0,2,25,1,140,44
15,1530630977290,2890290, RC,0,39.9586186,-88.445067899,0,0.0,0.0,0.0,0.0,0.0,0.0,0.0,0.0,0.0,0.0,0.0,0.0,0.0,1500,1500,0.0,0.0,40.0482938333,-88.2327338333,0.0,0.0,0.0,0.0,0.0,0.0,0.0,0.0,0.0,0.0,0.0,0,0.0,0.0,0.0,0.0,90.0,69.0,90.0,90.3363494873,112.1087417603,88.8084564209,43.8320007324,15.004774093599998,3.0199999808999998,0,2,25,1,145,47
16,1530630977340,2890340, RC,0,39.9586186,-88.445067899,0,0.0,0.0,0.0,0.0,0.0,0.0,0.0,0.0,0.0,0.0,0.0,0.0,0.0,1500,1500,0.0,0.0,40.0482938333,-88.2327338333,0.0,0.0,0.0,0.0,0.0,0.0,0.0,0.0,0.0,0.0,0.0,0,0.0,0.0,0.0,0.0,90.0,69.0,90.0,90.3363494873,109.6895904541,88.8084564209,43.8320007324,15.004774093599998,3.0199999808999998,0,2,25,1,155,49
17,1530630977390,2890390, RC,0,39.9586186,-88.445067899,0,0.0,0.0,0.0,0.0,0.0,0.0,0.0,0.0,0.0,0.0,0.0,0.0,0.0,1500,1500,0.0,0.0,40.0482938333,-88.2327338333,0.0,0.0,0.0,0.0,0.0,0.0,0.0,0.0,0.0,0.0,0.0,0,0.0,0.0,0.0,0.0,90.0,69.0,90.0,90.3363494873,109.81690979,88.8084564209,43.8320007324,15.004774093599998,3.0199999808999998,0,2,25,1,156,52
18,1530630977441,2890441, RC,0,39.9586186,-88.445067899,0,0.0,0.0,0.0,0.0,0.0,0.0,0.0,0.0,0.0,0.0,0.0,0.0,0.0,1500,1500,0.0,0.0,40.0482938333,-88.2327338333,0.0,0.0,0.0,0.0,0.0,0.0,0.0,0.0,0.0,0.0,0.0,0,0.0,0.0,0.0,0.0,90.0,69.0,90.0,90.3363494873,110.83550262450001,88.8084564209,43.8320007324,15.004774093599998,3.0199999808999998,0,2,25,1,166,54
19,1530630977491,2890491, RC,0,39.9586186,-88.445067899,0,0.0,0.0,0.0,0.0,0.0,0.0,0.0,0.0,0.0,0.0,0.0,0.0,0.0,1500,1500,0.0,0.0,40.0482938333,-88.2327338333,0.0,0.0,0.0,0.0,0.0,0.0,0.0,0.0,0.0,0.0,0.0,0,0.0,0.0,0.0,0.0,90.0,69.0,90.0,90.3363494873,111.0901489258,88.8084564209,43.8320007324,15.004774093599998,3.0199999808999998,0,2,25,1,140,56
20,1530630977541,2890541, RC,0,39.9586186,-88.445067899,0,0.0,0.0,0.0,0.0,0.0,0.0,0.0,0.0,0.0,0.0,0.0,0.0,0.0,1500,1500,0.0,0.0,40.0482938333,-88.2327338333,0.0,0.0,0.0,0.0,0.0,0.0,0.0,0.0,0.0,0.0,0.0,0,0.0,0.0,0.0,0.0,90.0,69.0,90.0,90.3363494873,111.0901489258,88.8084564209,43.8320007324,15.004774093599998,3.0199999808999998,0,2,25,1,140,58
21,1530630977592,2890592, RC,0,39.9586186,-88.445067899,0,0.0,0.0,0.0,0.0,0.0,0.0,0.0,0.0,0.0,0.0,0.0,0.0,0.0,1500,1500,0.0,0.0,40.0482938333,-88.2327338333,0.0,0.0,0.0,0.0,0.0,0.0,0.0,0.0,0.0,0.0,0.0,0,0.0,0.0,0.0,0.0,90.0,69.0,90.0,90.3363494873,111.0901489258,88.8721160889,43.8320007324,15.004774093599998,3.0199999808999998,0,2,25,1,151,60
22,1530630977642,2890642, RC,0,39.9586186,-88.445067899,0,0.0,0.0,0.0,0.0,0.0,0.0,0.0,0.0,0.0,0.0,0.0,0.0,0.0,1500,1500,0.0,0.0,40.0482938333,-88.2327338333,0.0,0.0,0.0,0.0,0.0,0.0,0.0,0.0,0.0,0.0,0.0,0,0.0,0.0,0.0,0.0,90.0,69.0,90.0,90.3363494873,110.83550262450001,88.8721160889,43.8320007324,15.004774093599998,3.0199999808999998,0,2,25,1,150,62
23,1530630977692,2890692, RC,0,39.9586186,-88.445067899,0,0.0,0.0,0.0,0.0,0.0,0.0,0.0,0.0,0.0,0.0,0.0,0.0,0.0,1500,1500,0.0,0.0,40.0482938333,-88.2327338333,0.0,0.0,0.0,0.0,0.0,0.0,0.0,0.0,0.0,0.0,0.0,0,0.0,0.0,0.0,0.0,90.0,69.0,90.0,90.3363494873,110.8991622925,88.8721160889,43.8320007324,15.004774093599998,3.0199999808999998,0,2,25,1,142,64
24,1530630977743,2890743, RC,0,39.9586186,-88.445067899,0,0.0,0.0,0.0,0.0,0.0,0.0,0.0,0.0,0.0,0.0,0.0,0.0,0.0,1500,1500,0.0,0.0,40.0482938333,-88.2327338333,0.0,0.0,0.0,0.0,0.0,0.0,0.0,0.0,0.0,0.0,0.0,0,0.0,0.0,0.0,0.0,90.0,67.0,90.0,90.3363494873,110.8991622925,88.8721160889,43.8320007324,15.004774093599998,3.0199999808999998,0,2,25,1,154,66
25,1530630977793,2890793, RC,0,39.9586186,-88.445067899,0,0.0,0.0,0.0,0.0,0.0,0.0,0.0,0.0,0.0,0.0,0.0,0.0,0.0,1500,1500,0.0,0.0,40.0482938333,-88.2327338333,0.0,0.0,0.0,0.0,0.0,0.0,0.0,0.0,0.0,0.0,0.0,0,0.0,0.0,0.0,0.0,90.0,67.0,90.0,90.3363494873,110.83550262450001,88.8721160889,43.8320007324,15.004774093599998,3.0199999808999998,0,2,25,1,154,68
26,1530630977843,2890843, RC,0,39.9586186,-88.445067899,0,0.0,0.0,0.0,0.0,0.0,0.0,0.0,0.0,0.0,0.0,0.0,0.0,0.0,1500,1500,0.0,0.0,40.048292833299996,-88.2327313333,0.0,0.0,0.0,0.0,0.0,0.0,0.0,0.0,0.0,0.0,0.0,0,0.0,0.0,0.0,0.0,90.0,67.0,90.0,90.3363494873,111.9814147949,89.12677001950001,43.8320007324,15.004774093599998,3.0199999808999998,0,2,25,1,150,70
27,1530630977894,2890894, RC,0,39.9586186,-88.445067899,0,0.0,0.0,0.0,0.0,0.0,0.0,0.0,0.0,0.0,0.0,0.0,0.0,0.0,1500,1500,0.0,0.0,40.048292833299996,-88.2327313333,0.0,0.0,0.0,0.0,0.0,0.0,0.0,0.0,0.0,0.0,0.0,0,0.0,0.0,0.0,0.0,90.0,67.0,90.0,90.3363494873,112.6817016602,89.1904296875,43.8320007324,15.004774093599998,3.0199999808999998,0,2,25,1,146,72
28,1530630977944,2890944, RC,0,39.9586186,-88.445067899,0,0.0,0.0,0.0,0.0,0.0,0.0,0.0,0.0,0.0,0.0,0.0,0.0,0.0,1500,1500,0.0,0.0,40.048292833299996,-88.2327313333,0.0,0.0,0.0,0.0,0.0,0.0,0.0,0.0,0.0,0.0,0.0,0,0.0,0.0,0.0,0.0,90.0,66.0,90.0,90.3363494873,112.6817016602,89.1904296875,43.8320007324,15.004774093599998,3.0199999808999998,0,2,25,1,169,75
29,1530630977994,2890994, RC,0,39.9586186,-88.445067899,0,0.0,0.0,0.0,0.0,0.0,0.0,0.0,0.0,0.0,0.0,0.0,0.0,0.0,1500,1500,0.0,0.0,40.048292833299996,-88.2327313333,0.0,0.0,0.0,0.0,0.0,0.0,0.0,0.0,0.0,0.0,0.0,0,0.0,0.0,0.0,0.0,90.0,66.0,90.0,90.3363494873,112.6817016602,89.5087432861,43.8320007324,15.004774093599998,3.0199999808999998,0,2,25,1,156,77
30,1530630978045,2891045, RC,0,39.9586186,-88.445067899,0,0.0,0.0,0.0,0.0,0.0,0.0,0.0,0.0,0.0,0.0,0.0,0.0,0.0,1500,1500,0.0,0.0,40.048292833299996,-88.2327313333,0.0,0.0,0.0,0.0,0.0,0.0,0.0,0.0,0.0,0.0,0.0,0,0.0,0.0,0.0,0.0,90.0,66.0,90.0,90.3363494873,113.0636749268,89.5087432861,43.8320007324,15.004774093599998,3.0199999808999998,0,2,25,1,152,79
31,1530630978095,2891095, RC,0,39.9586186,-88.445067899,0,0.0,0.0,0.0,0.0,0.0,0.0,0.0,0.0,0.0,0.0,0.0,0.0,0.0,1500,1500,0.0,0.0,40.048292833299996,-88.2327313333,0.0,0.0,0.0,0.0,0.0,0.0,0.0,0.0,0.0,0.0,0.0,0,0.0,0.0,0.0,0.0,90.0,66.0,90.0,90.3363494873,113.7639541626,89.5087432861,43.8320007324,15.004774093599998,3.0199999808999998,0,2,25,1,155,81
32,1530630978145,2891145, RC,0,39.9586186,-88.445067899,0,0.0,0.0,0.0,0.0,0.0,0.0,0.0,0.0,0.0,0.0,0.0,0.0,0.0,1500,1500,0.0,0.0,40.048292833299996,-88.2327313333,0.0,0.0,0.0,0.0,0.0,0.0,0.0,0.0,0.0,0.0,0.0,0,0.0,0.0,0.0,0.0,90.0,66.0,90.0,90.3363494873,113.7639541626,89.5087432861,43.8320007324,15.004774093599998,3.0199999808999998,0,2,25,1,141,83
33,1530630978196,2891196, RC,0,39.9586186,-88.445067899,0,0.0,0.0,0.0,0.0,0.0,0.0,0.0,0.0,0.0,0.0,0.0,0.0,0.0,1500,1500,0.0,0.0,40.048292833299996,-88.2327313333,0.0,0.0,0.0,0.0,0.0,0.0,0.0,0.0,0.0,0.0,0.0,0,0.0,0.0,0.0,0.0,90.0,66.0,90.0,90.3363494873,113.7639541626,89.5087432861,43.8320007324,15.004774093599998,3.0199999808999998,0,2,25,1,137,85
34,1530630978246,2891246, RC,0,39.9586186,-88.445067899,0,0.0,0.0,0.0,0.0,0.0,0.0,0.0,0.0,0.0,0.0,0.0,0.0,0.0,1500,1500,0.0,0.0,40.048292833299996,-88.2327313333,0.0,0.0,0.0,0.0,0.0,0.0,0.0,0.0,0.0,0.0,0.0,0,0.0,0.0,0.0,0.0,90.0,66.0,90.0,90.3363494873,113.7639541626,89.5087432861,43.8320007324,15.004774093599998,3.0199999808999998,0,2,25,1,145,87
35,1530630978296,2891296, RC,0,39.9586186,-88.445067899,0,0.0,0.0,0.0,0.0,0.0,0.0,0.0,0.0,0.0,0.0,0.0,0.0,0.0,1500,1500,0.0,0.0,40.048292833299996,-88.2327313333,0.0,0.0,0.0,0.0,0.0,0.0,0.0,0.0,0.0,0.0,0.0,0,0.0,0.0,0.0,0.0,90.0,66.0,90.0,90.3363494873,113.7639541626,89.5087432861,43.8320007324,15.0051469803,3.1199998856,0,2,25,1,147,89
36,1530630978347,2891347, RC,0,39.9586186,-88.445067899,0,0.0,0.0,0.0,0.0,0.0,0.0,0.0,0.0,0.0,0.0,0.0,0.0,0.0,1500,1500,0.0,0.0,40.048292833299996,-88.2327313333,0.0,0.0,0.0,0.0,0.0,0.0,0.0,0.0,0.0,0.0,0.0,0,0.0,0.0,0.0,0.0,90.0,64.0,90.0,90.3363494873,113.7639541626,89.5087432861,43.8320007324,15.0051469803,3.1199998856,0,2,25,1,145,91
37,1530630978397,2891397, RC,0,39.9586186,-88.445067899,0,0.0,0.0,0.0,0.0,0.0,0.0,0.0,0.0,0.0,0.0,0.0,0.0,0.0,1500,1500,0.0,0.0,40.048292833299996,-88.2327313333,0.0,0.0,0.0,0.0,0.0,0.0,0.0,0.0,0.0,0.0,0.0,0,0.0,0.0,0.0,0.0,90.0,64.0,90.0,90.3363494873,114.27325439450001,89.5087432861,43.8320007324,15.0051469803,3.1199998856,0,2,25,1,152,94
38,1530630978447,2891447, RC,0,39.9586186,-88.445067899,0,0.0,0.0,0.0,0.0,0.0,0.0,0.0,0.0,0.0,0.0,0.0,0.0,0.0,1500,1500,0.0,0.0,40.048292833299996,-88.2327313333,0.0,0.0,0.0,0.0,0.0,0.0,0.0,0.0,0.0,0.0,0.0,0,0.0,0.0,0.0,0.0,90.0,63.0,90.0,90.3363494873,116.24677276610001,89.5087432861,43.8320007324,15.0051469803,3.1199998856,0,2,25,1,137,97
39,1530630978498,2891498, RC,0,39.9586186,-88.445067899,0,0.0,0.0,0.0,0.0,0.0,0.0,0.0,0.0,0.0,0.0,0.0,0.0,0.0,1500,1500,0.0,0.0,40.048292833299996,-88.2327313333,0.0,0.0,0.0,0.0,0.0,0.0,0.0,0.0,0.0,0.0,0.0,0,0.0,0.0,0.0,0.0,90.0,63.0,90.0,90.3363494873,116.24677276610001,89.5087432861,43.8320007324,15.0051469803,3.1199998856,0,2,25,1,149,100
40,1530630978548,2891548, RC,0,39.9586186,-88.445067899,0,0.0,0.0,0.0,0.0,0.0,0.0,0.0,0.0,0.0,0.0,0.0,0.0,0.0,1500,1500,0.0,0.0,40.048292833299996,-88.2327313333,0.0,0.0,0.0,0.0,0.0,0.0,0.0,0.0,0.0,0.0,0.0,0,0.0,0.0,0.0,0.0,90.0,63.0,90.0,90.3363494873,116.62874603270001,89.5087432861,43.8320007324,15.0051469803,3.1199998856,0,2,25,1,150,104
41,1530630978598,2891598, RC,0,39.9586186,-88.445067899,0,0.0,0.0,0.0,0.0,0.0,0.0,0.0,0.0,0.0,0.0,0.0,0.0,0.0,1500,1500,0.0,0.0,40.048292833299996,-88.2327313333,0.0,0.0,0.0,0.0,0.0,0.0,0.0,0.0,0.0,0.0,0.0,0,0.0,0.0,0.0,0.0,90.0,63.0,90.0,90.3363494873,116.62874603270001,89.5087432861,43.8320007324,15.0051469803,3.1199998856,0,2,25,1,143,107
42,1530630978649,2891649, RC,0,39.9586186,-88.445067899,0,0.0,0.0,0.0,0.0,0.0,0.0,0.0,0.0,0.0,0.0,0.0,0.0,0.0,1500,1500,0.0,0.0,40.048292833299996,-88.2327313333,0.0,0.0,0.0,0.0,0.0,0.0,0.0,0.0,0.0,0.0,0.0,0,0.0,0.0,0.0,0.0,90.0,63.0,90.0,90.3363494873,116.62874603270001,89.5087432861,43.8320007324,15.0051469803,3.1199998856,0,2,25,1,143,109
43,1530630978699,2891699, RC,0,39.9586186,-88.445067899,0,0.0,0.0,0.0,0.0,0.0,0.0,0.0,0.0,0.0,0.0,0.0,0.0,0.0,1500,1500,0.0,0.0,40.048292833299996,-88.2327313333,0.0,0.0,0.0,0.0,0.0,0.0,0.0,0.0,0.0,0.0,0.0,0,0.0,0.0,0.0,0.0,90.0,63.0,90.0,90.3363494873,116.62874603270001,89.5087432861,43.8320007324,15.0051469803,3.1199998856,0,2,25,1,149,112
44,1530630978749,2891749, RC,0,39.9586186,-88.445067899,0,0.0,0.0,0.0,0.0,0.0,0.0,0.0,0.0,0.0,0.0,0.0,0.0,0.0,1500,1500,0.0,0.0,40.048292833299996,-88.2327313333,0.0,0.0,0.0,0.0,0.0,0.0,0.0,0.0,0.0,0.0,0.0,0,0.0,0.0,0.0,0.0,90.0,63.0,90.0,90.3363494873,116.62874603270001,89.5087432861,43.8320007324,15.0051469803,3.1199998856,0,2,25,1,151,114
45,1530630978800,2891800, RC,0,39.9586186,-88.445067899,0,0.0,0.0,0.0,0.0,0.0,0.0,0.0,0.0,0.0,0.0,0.0,0.0,0.0,1500,1500,0.0,0.0,40.0482926667,-88.23273066670001,0.0,0.0,0.0,0.0,0.0,0.0,0.0,0.0,0.0,0.0,0.0,0,0.0,0.0,0.0,0.0,90.0,63.0,90.0,90.3363494873,116.62874603270001,89.5087432861,43.8320007324,15.0051469803,3.1199998856,0,2,25,1,141,117
46,1530630978850,2891850, RC,0,39.9586186,-88.445067899,0,0.0,0.0,0.0,0.0,0.0,0.0,0.0,0.0,0.0,0.0,0.0,0.0,0.0,1500,1500,0.0,0.0,40.0482926667,-88.23273066670001,0.0,0.0,0.0,0.0,0.0,0.0,0.0,0.0,0.0,0.0,0.0,0,0.0,0.0,0.0,0.0,90.0,60.0,90.0,90.3363494873,116.62874603270001,89.5087432861,43.8320007324,15.0051469803,3.1199998856,0,2,25,1,128,119
47,1530630978900,2891900, RC,0,39.9586186,-88.445067899,0,0.0,0.0,0.0,0.0,0.0,0.0,0.0,0.0,0.0,0.0,0.0,0.0,0.0,1500,1500,0.0,0.0,40.0482926667,-88.23273066670001,0.0,0.0,0.0,0.0,0.0,0.0,0.0,0.0,0.0,0.0,0.0,0,0.0,0.0,0.0,0.0,90.0,60.0,90.0,90.3363494873,117.5200195312,89.5087432861,43.8320007324,15.0051469803,3.1199998856,0,2,25,1,127,122
48,1530630978951,2891951, RC,0,39.9586186,-88.445067899,0,0.0,0.0,0.0,0.0,0.0,0.0,0.0,0.0,0.0,0.0,0.0,0.0,0.0,1500,1500,0.0,0.0,40.0482926667,-88.23273066670001,0.0,0.0,0.0,0.0,0.0,0.0,0.0,0.0,0.0,0.0,0.0,0,0.0,0.0,0.0,0.0,90.0,58.0,90.0,90.3363494873,119.939163208,89.5087432861,43.8320007324,15.0051469803,3.1199998856,0,2,25,1,140,124
49,1530630979001,2892001, RC,0,39.9586186,-88.445067899,0,0.0,0.0,0.0,0.0,0.0,0.0,0.0,0.0,0.0,0.0,0.0,0.0,0.0,1500,1500,0.0,0.0,40.0482926667,-88.23273066670001,0.0,0.0,0.0,0.0,0.0,0.0,0.0,0.0,0.0,0.0,0.0,0,0.0,0.0,0.0,0.0,90.0,58.0,90.0,90.3363494873,120.6394424438,89.5087432861,43.8320007324,15.0051469803,3.1199998856,0,2,25,1,145,127
50,1530630979051,2892051, RC,0,39.9586186,-88.445067899,0,0.0,0.0,0.0,0.0,0.0,0.0,0.0,0.0,0.0,0.0,0.0,0.0,0.0,1500,1500,0.0,0.0,40.0482926667,-88.23273066670001,0.0,0.0,0.0,0.0,0.0,0.0,0.0,0.0,0.0,0.0,0.0,0,0.0,0.0,0.0,0.0,90.0,58.0,90.0,90.3363494873,120.83042907709999,89.5087432861,43.8320007324,15.0051469803,3.1199998856,0,2,25,1,147,129
51,1530630979102,2892102, RC,0,39.9586186,-88.445067899,0,0.0,0.0,0.0,0.0,0.0,0.0,0.0,0.0,0.0,0.0,0.0,0.0,0.0,1500,1500,0.0,0.0,40.0482926667,-88.23273066670001,0.0,0.0,0.0,0.0,0.0,0.0,0.0,0.0,0.0,0.0,0.0,0,0.0,0.0,0.0,0.0,90.0,58.0,90.0,90.3363494873,120.8940887451,89.5087432861,43.8320007324,15.0051469803,3.1199998856,0,2,25,1,147,132
52,1530630979152,2892152, RC,0,39.9586186,-88.445067899,0,0.0,0.0,0.0,0.0,0.0,0.0,0.0,0.0,0.0,0.0,0.0,0.0,0.0,1500,1500,0.0,0.0,40.0482926667,-88.23273066670001,0.0,0.0,0.0,0.0,0.0,0.0,0.0,0.0,0.0,0.0,0.0,0,0.0,0.0,0.0,0.0,90.0,58.0,90.0,90.3363494873,121.2124023438,89.5087432861,43.8320007324,15.0051469803,3.1199998856,0,2,25,1,147,134
53,1530630979203,2892203, RC,0,39.9586186,-88.445067899,0,0.0,0.0,0.0,0.0,0.0,0.0,0.0,0.0,0.0,0.0,0.0,0.0,0.0,1500,1500,0.0,0.0,40.0482926667,-88.23273066670001,0.0,0.0,0.0,0.0,0.0,0.0,0.0,0.0,0.0,0.0,0.0,0,0.0,0.0,0.0,0.0,90.0,58.0,90.0,90.3363494873,121.5307159424,89.5087432861,43.8320007324,15.0051469803,3.1199998856,0,2,25,1,141,137
54,1530630979254,2892254, RC,0,39.9586186,-88.445067899,0,0.0,0.0,0.0,0.0,0.0,0.0,0.0,0.0,0.0,0.0,0.0,0.0,0.0,1500,1500,0.0,0.0,40.0482926667,-88.23273066670001,0.0,0.0,0.0,0.0,0.0,0.0,0.0,0.0,0.0,0.0,0.0,0,0.0,0.0,0.0,0.0,90.0,58.0,90.0,90.3363494873,121.5307159424,89.5087432861,43.8320007324,15.0051469803,3.1199998856,0,2,25,1,154,139
55,1530630979304,2892304, RC,0,39.9586186,-88.445067899,0,0.0,0.0,0.0,0.0,0.0,0.0,0.0,0.0,0.0,0.0,0.0,0.0,0.0,1500,1500,0.0,0.0,40.0482926667,-88.23273066670001,0.0,0.0,0.0,0.0,0.0,0.0,0.0,0.0,0.0,0.0,0.0,0,0.0,0.0,0.0,0.0,90.0,58.0,90.0,90.3363494873,121.5307159424,89.5087432861,43.8320007324,15.0056171417,3.5099999905000003,0,2,25,1,147,142
56,1530630979355,2892355, RC,0,39.9586186,-88.445067899,0,0.0,0.0,0.0,0.0,0.0,0.0,0.0,0.0,0.0,0.0,0.0,0.0,0.0,1500,1500,0.0,0.0,40.0482926667,-88.23273066670001,0.0,0.0,0.0,0.0,0.0,0.0,0.0,0.0,0.0,0.0,0.0,0,0.0,0.0,0.0,0.0,90.0,58.0,90.0,90.3363494873,121.5307159424,89.5087432861,43.8320007324,15.0056171417,3.5099999905000003,0,2,25,1,143,144
57,1530630979405,2892405, RC,0,39.9586186,-88.445067899,0,0.0,0.0,0.0,0.0,0.0,0.0,0.0,0.0,0.0,0.0,0.0,0.0,0.0,1500,1500,0.0,0.0,40.0482926667,-88.23273066670001,0.0,0.0,0.0,0.0,0.0,0.0,0.0,0.0,0.0,0.0,0.0,0,0.0,0.0,0.0,0.0,90.0,58.0,90.0,90.3363494873,121.5307159424,89.5087432861,43.8320007324,15.0056171417,3.5099999905000003,0,2,25,1,149,147
58,1530630979456,2892456, RC,0,39.9586186,-88.445067899,0,0.0,0.0,0.0,0.0,0.0,0.0,0.0,0.0,0.0,0.0,0.0,0.0,0.0,1500,1500,0.0,0.0,40.0482926667,-88.23273066670001,0.0,0.0,0.0,0.0,0.0,0.0,0.0,0.0,0.0,0.0,0.0,0,0.0,0.0,0.0,0.0,90.0,58.0,90.0,90.3363494873,121.5307159424,89.5087432861,43.8320007324,15.0056171417,3.5099999905000003,0,2,25,1,149,149
59,1530630979506,2892506, RC,0,39.9586186,-88.445067899,0,0.0,0.0,0.0,0.0,0.0,0.0,0.0,0.0,0.0,0.0,0.0,0.0,0.0,1500,1500,0.0,0.0,40.0482926667,-88.23273066670001,0.0,0.0,0.0,0.0,0.0,0.0,0.0,0.0,0.0,0.0,0.0,0,0.0,0.0,0.0,0.0,90.0,58.0,90.0,90.3363494873,121.5307159424,89.5087432861,43.8320007324,15.0056171417,3.5099999905000003,0,2,25,1,140,152
60,1530630979557,2892557, RC,0,39.9586186,-88.445067899,0,0.0,0.0,0.0,0.0,0.0,0.0,0.0,0.0,0.0,0.0,0.0,0.0,0.0,1500,1500,0.0,0.0,40.0482926667,-88.23273066670001,0.0,0.0,0.0,0.0,0.0,0.0,0.0,0.0,0.0,0.0,0.0,0,0.0,0.0,0.0,0.0,90.0,58.0,90.0,90.3363494873,121.5307159424,89.5087432861,43.8320007324,15.0056171417,3.5099999905000003,0,2,25,1,141,154
61,1530630979608,2892608, RC,0,39.9586186,-88.445067899,0,0.0,0.0,0.0,0.0,0.0,0.0,0.0,0.0,0.0,0.0,0.0,0.0,0.0,1500,1500,0.0,0.0,40.0482926667,-88.23273066670001,0.0,0.0,0.0,0.0,0.0,0.0,0.0,0.0,0.0,0.0,0.0,0,0.0,0.0,0.0,0.0,90.0,58.0,90.0,90.3363494873,121.5307159424,89.5087432861,43.8320007324,15.0056171417,3.5099999905000003,0,2,25,1,150,157
62,1530630979658,2892658, RC,0,39.9586186,-88.445067899,0,0.0,0.0,0.0,0.0,0.0,0.0,0.0,0.0,0.0,0.0,0.0,0.0,0.0,1500,1500,0.0,0.0,40.0482926667,-88.23273066670001,0.0,0.0,0.0,0.0,0.0,0.0,0.0,0.0,0.0,0.0,0.0,0,0.0,0.0,0.0,0.0,90.0,58.0,90.0,90.3363494873,121.5307159424,89.5087432861,43.8320007324,15.0056171417,3.5099999905000003,0,2,25,1,154,159
63,1530630979709,2892709, RC,0,39.9586186,-88.445067899,0,0.0,0.0,0.0,0.0,0.0,0.0,0.0,0.0,0.0,0.0,0.0,0.0,0.0,1500,1500,0.0,0.0,40.0482926667,-88.23273066670001,0.0,0.0,0.0,0.0,0.0,0.0,0.0,0.0,0.0,0.0,0.0,0,0.0,0.0,0.0,0.0,90.0,58.0,90.0,90.3363494873,121.5307159424,89.5087432861,43.8320007324,15.0056171417,3.5099999905000003,0,2,25,1,133,162
64,1530630979760,2892760, RC,0,39.9586186,-88.445067899,0,0.0,0.0,0.0,0.0,0.0,0.0,0.0,0.0,0.0,0.0,0.0,0.0,0.0,1500,1500,0.0,0.0,40.0482926667,-88.23273066670001,0.0,0.0,0.0,0.0,0.0,0.0,0.0,0.0,0.0,0.0,0.0,0,0.0,0.0,0.0,0.0,90.0,58.0,90.0,90.3363494873,121.467048645,89.5087432861,43.8320007324,15.0056171417,3.5099999905000003,0,2,25,1,144,165
65,1530630979810,2892810, RC,0,39.9586186,-88.445067899,0,0.0,0.0,0.0,0.0,0.0,0.0,0.0,0.0,0.0,0.0,0.0,0.0,0.0,1500,1500,0.0,0.0,40.0482921667,-88.2327293333,0.0,0.0,0.0,0.0,0.0,0.0,0.0,0.0,0.0,0.0,0.0,0,0.0,0.0,0.0,0.0,90.0,58.0,90.0,90.3363494873,121.467048645,89.5087432861,43.8320007324,15.0056171417,3.5099999905000003,0,2,25,1,123,167
66,1530630979861,2892861, RC,0,39.9586186,-88.445067899,0,0.0,0.0,0.0,0.0,0.0,0.0,0.0,0.0,0.0,0.0,0.0,0.0,0.0,1500,1500,0.0,0.0,40.0482921667,-88.2327293333,0.0,0.0,0.0,0.0,0.0,0.0,0.0,0.0,0.0,0.0,0.0,0,0.0,0.0,0.0,0.0,90.0,58.0,90.0,90.3363494873,121.467048645,89.5087432861,43.8320007324,15.0056171417,3.5099999905000003,0,2,25,1,141,169
67,1530630979911,2892911, RC,0,39.9586186,-88.445067899,0,0.0,0.0,0.0,0.0,0.0,0.0,0.0,0.0,0.0,0.0,0.0,0.0,0.0,1500,1500,0.0,0.0,40.0482921667,-88.2327293333,0.0,0.0,0.0,0.0,0.0,0.0,0.0,0.0,0.0,0.0,0.0,0,0.0,0.0,0.0,0.0,90.0,58.0,90.0,90.3363494873,121.5307159424,89.5087432861,43.8320007324,15.0056171417,3.5099999905000003,0,2,25,1,142,172
68,1530630979962,2892962, RC,0,39.9586186,-88.445067899,0,0.0,0.0,0.0,0.0,0.0,0.0,0.0,0.0,0.0,0.0,0.0,0.0,0.0,1500,1500,0.0,0.0,40.0482921667,-88.2327293333,0.0,0.0,0.0,0.0,0.0,0.0,0.0,0.0,0.0,0.0,0.0,0,0.0,0.0,0.0,0.0,90.0,58.0,90.0,90.3363494873,121.5307159424,89.5087432861,43.8320007324,15.0056171417,3.5099999905000003,0,2,25,1,152,175
69,1530630980012,2893012, RC,0,39.9586186,-88.445067899,0,0.0,0.0,0.0,0.0,0.0,0.0,0.0,0.0,0.0,0.0,0.0,0.0,0.0,1500,1500,0.0,0.0,40.0482921667,-88.2327293333,0.0,0.0,0.0,0.0,0.0,0.0,0.0,0.0,0.0,0.0,0.0,0,0.0,0.0,0.0,0.0,90.0,58.0,90.0,90.3363494873,121.5307159424,89.5087432861,43.8320007324,15.0056171417,3.5099999905000003,0,2,25,1,143,177
70,1530630980063,2893063, RC,0,39.9586186,-88.445067899,0,0.0,0.0,0.0,0.0,0.0,0.0,0.0,0.0,0.0,0.0,0.0,0.0,0.0,1500,1500,0.0,0.0,40.0482921667,-88.2327293333,0.0,0.0,0.0,0.0,0.0,0.0,0.0,0.0,0.0,0.0,0.0,0,0.0,0.0,0.0,0.0,90.0,60.0,90.0,90.3363494873,121.5307159424,89.5087432861,43.8320007324,15.0056171417,3.5099999905000003,0,2,25,1,158,180
71,1530630980114,2893114, RC,0,39.9586186,-88.445067899,0,0.0,0.0,0.0,0.0,0.0,0.0,0.0,0.0,0.0,0.0,0.0,0.0,0.0,1500,1500,0.0,0.0,40.0482921667,-88.2327293333,0.0,0.0,0.0,0.0,0.0,0.0,0.0,0.0,0.0,0.0,0.0,0,0.0,0.0,0.0,0.0,90.0,60.0,90.0,90.3363494873,121.2124023438,89.5087432861,43.8320007324,15.0056171417,3.5099999905000003,0,2,25,1,147,182
72,1530630980164,2893164, RC,0,39.9586186,-88.445067899,0,0.0,0.0,0.0,0.0,0.0,0.0,0.0,0.0,0.0,0.0,0.0,0.0,0.0,1500,1500,0.0,0.0,40.0482921667,-88.2327293333,0.0,0.0,0.0,0.0,0.0,0.0,0.0,0.0,0.0,0.0,0.0,0,0.0,0.0,0.0,0.0,90.0,60.0,90.0,90.3363494873,120.2574768066,89.5087432861,43.8320007324,15.0056171417,3.5099999905000003,0,2,25,1,144,185
73,1530630980215,2893215, RC,0,39.9586186,-88.445067899,0,0.0,0.0,0.0,0.0,0.0,0.0,0.0,0.0,0.0,0.0,0.0,0.0,0.0,1500,1500,0.0,0.0,40.0482921667,-88.2327293333,0.0,0.0,0.0,0.0,0.0,0.0,0.0,0.0,0.0,0.0,0.0,0,0.0,0.0,0.0,0.0,90.0,60.0,90.0,90.3363494873,120.32112884520001,89.5087432861,43.8320007324,15.0056171417,3.5099999905000003,0,2,25,1,146,187
74,1530630980265,2893265, RC,0,39.9586186,-88.445067899,0,0.0,0.0,0.0,0.0,0.0,0.0,0.0,0.0,0.0,0.0,0.0,0.0,0.0,1500,1500,0.0,0.0,40.0482921667,-88.2327293333,0.0,0.0,0.0,0.0,0.0,0.0,0.0,0.0,0.0,0.0,0.0,0,0.0,0.0,0.0,0.0,90.0,60.0,90.0,90.3363494873,120.32112884520001,89.5087432861,43.8320007324,15.0056171417,3.5099999905000003,0,2,25,1,148,190
75,1530630980316,2893316, RC,0,39.9586186,-88.445067899,0,0.0,0.0,0.0,0.0,0.0,0.0,0.0,0.0,0.0,0.0,0.0,0.0,0.0,1500,1500,0.0,0.0,40.0482921667,-88.2327293333,0.0,0.0,0.0,0.0,0.0,0.0,0.0,0.0,0.0,0.0,0.0,0,0.0,0.0,0.0,0.0,90.0,60.0,90.0,90.3363494873,120.00283050540001,89.5087432861,43.8320007324,15.005907058699998,3.1799998282999997,0,2,25,1,131,192
76,1530630980366,2893366, RC,0,39.9586186,-88.445067899,0,0.0,0.0,0.0,0.0,0.0,0.0,0.0,0.0,0.0,0.0,0.0,0.0,0.0,1500,1500,0.0,0.0,40.0482921667,-88.2327293333,0.0,0.0,0.0,0.0,0.0,0.0,0.0,0.0,0.0,0.0,0.0,0,0.0,0.0,0.0,0.0,90.0,60.0,90.0,90.3363494873,119.81184387209998,89.5087432861,43.8320007324,15.005907058699998,3.1799998282999997,0,2,25,1,139,195
77,1530630980417,2893417, RC,0,39.9586186,-88.445067899,0,0.0,0.0,0.0,0.0,0.0,0.0,0.0,0.0,0.0,0.0,0.0,0.0,0.0,1500,1500,0.0,0.0,40.0482921667,-88.2327293333,0.0,0.0,0.0,0.0,0.0,0.0,0.0,0.0,0.0,0.0,0.0,0,0.0,0.0,0.0,0.0,90.0,60.0,90.0,90.3363494873,119.62085723879999,89.5087432861,43.8320007324,15.005907058699998,3.1799998282999997,0,2,25,1,153,197
78,1530630980468,2893468, RC,0,39.9586186,-88.445067899,0,0.0,0.0,0.0,0.0,0.0,0.0,0.0,0.0,0.0,0.0,0.0,0.0,0.0,1500,1500,0.0,0.0,40.0482921667,-88.2327293333,0.0,0.0,0.0,0.0,0.0,0.0,0.0,0.0,0.0,0.0,0.0,0,0.0,0.0,0.0,0.0,90.0,60.0,90.0,90.3363494873,119.62085723879999,89.5087432861,43.8320007324,15.005907058699998,3.1799998282999997,0,2,25,1,148,200
79,1530630980518,2893518, RC,0,39.9586186,-88.445067899,0,0.0,0.0,0.0,0.0,0.0,0.0,0.0,0.0,0.0,0.0,0.0,0.0,0.0,1500,1500,0.0,0.0,40.0482921667,-88.2327293333,0.0,0.0,0.0,0.0,0.0,0.0,0.0,0.0,0.0,0.0,0.0,0,0.0,0.0,0.0,0.0,90.0,60.0,90.0,90.3363494873,119.62085723879999,89.5087432861,43.8320007324,15.005907058699998,3.1799998282999997,0,2,25,1,142,202
80,1530630980569,2893569, RC,0,39.9586186,-88.445067899,0,0.0,0.0,0.0,0.0,0.0,0.0,0.0,0.0,0.0,0.0,0.0,0.0,0.0,1500,1500,0.0,0.0,40.0482921667,-88.2327293333,0.0,0.0,0.0,0.0,0.0,0.0,0.0,0.0,0.0,0.0,0.0,0,0.0,0.0,0.0,0.0,90.0,63.0,90.0,90.3363494873,119.62085723879999,89.5087432861,43.8320007324,15.005907058699998,3.1799998282999997,0,2,25,1,149,205
81,1530630980619,2893619, RC,0,39.9586186,-88.445067899,0,0.0,0.0,0.0,0.0,0.0,0.0,0.0,0.0,0.0,0.0,0.0,0.0,0.0,1500,1500,0.0,0.0,40.0482921667,-88.2327293333,0.0,0.0,0.0,0.0,0.0,0.0,0.0,0.0,0.0,0.0,0.0,0,0.0,0.0,0.0,0.0,90.0,63.0,90.0,90.3363494873,118.53860473629999,89.5087432861,43.8320007324,15.005907058699998,3.1799998282999997,0,2,25,1,154,207
82,1530630980670,2893670, RC,0,39.9586186,-88.445067899,0,0.0,0.0,0.0,0.0,0.0,0.0,0.0,0.0,0.0,0.0,0.0,0.0,0.0,1500,1500,0.0,0.0,40.0482921667,-88.2327293333,0.0,0.0,0.0,0.0,0.0,0.0,0.0,0.0,0.0,0.0,0.0,0,0.0,0.0,0.0,0.0,90.0,63.0,90.0,90.3363494873,116.3740844727,89.5087432861,43.8320007324,15.005907058699998,3.1799998282999997,0,2,25,1,144,209
83,1530630980720,2893720, RC,0,39.9586186,-88.445067899,0,0.0,0.0,0.0,0.0,0.0,0.0,0.0,0.0,0.0,0.0,0.0,0.0,0.0,1500,1500,0.0,0.0,40.0482921667,-88.2327293333,0.0,0.0,0.0,0.0,0.0,0.0,0.0,0.0,0.0,0.0,0.0,0,0.0,0.0,0.0,0.0,90.0,63.0,90.0,90.3363494873,116.3740844727,89.5087432861,43.8320007324,15.005907058699998,3.1799998282999997,0,2,25,1,143,211
84,1530630980771,2893771, RC,0,39.9586186,-88.445067899,0,0.0,0.0,0.0,0.0,0.0,0.0,0.0,0.0,0.0,0.0,0.0,0.0,0.0,1500,1500,0.0,0.0,40.0482921667,-88.2327293333,0.0,0.0,0.0,0.0,0.0,0.0,0.0,0.0,0.0,0.0,0.0,0,0.0,0.0,0.0,0.0,90.0,63.0,90.0,90.3363494873,116.3740844727,89.5087432861,43.8320007324,15.005907058699998,3.1799998282999997,0,2,25,1,149,213
85,1530630980822,2893822, RC,0,39.9586186,-88.445067899,0,0.0,0.0,0.0,0.0,0.0,0.0,0.0,0.0,0.0,0.0,0.0,0.0,0.0,1500,1500,0.0,0.0,40.048293,-88.2327281667,0.0,0.0,0.0,0.0,0.0,0.0,0.0,0.0,0.0,0.0,0.0,0,0.0,0.0,0.0,0.0,90.0,63.0,90.0,90.3363494873,116.3740844727,89.5087432861,43.8320007324,15.005907058699998,3.1799998282999997,0,2,25,1,146,215
86,1530630980872,2893872, RC,0,39.9586186,-88.445067899,0,0.0,0.0,0.0,0.0,0.0,0.0,0.0,0.0,0.0,0.0,0.0,0.0,0.0,1500,1500,0.0,0.0,40.048293,-88.2327281667,0.0,0.0,0.0,0.0,0.0,0.0,0.0,0.0,0.0,0.0,0.0,0,0.0,0.0,0.0,0.0,90.0,63.0,90.0,90.3363494873,116.3740844727,89.5087432861,43.8320007324,15.005907058699998,3.1799998282999997,0,2,25,1,142,217
87,1530630980923,2893923, RC,0,39.9586186,-88.445067899,0,0.0,0.0,0.0,0.0,0.0,0.0,0.0,0.0,0.0,0.0,0.0,0.0,0.0,1500,1500,0.0,0.0,40.048293,-88.2327281667,0.0,0.0,0.0,0.0,0.0,0.0,0.0,0.0,0.0,0.0,0.0,0,0.0,0.0,0.0,0.0,90.0,63.0,90.0,90.3363494873,116.3740844727,89.5087432861,43.8320007324,15.005907058699998,3.1799998282999997,0,2,25,1,135,219
88,1530630980973,2893973, RC,0,39.9586186,-88.445067899,0,0.0,0.0,0.0,0.0,0.0,0.0,0.0,0.0,0.0,0.0,0.0,0.0,0.0,1500,1500,0.0,0.0,40.048293,-88.2327281667,0.0,0.0,0.0,0.0,0.0,0.0,0.0,0.0,0.0,0.0,0.0,0,0.0,0.0,0.0,0.0,90.0,63.0,87.0,90.3363494873,116.3740844727,89.5087432861,43.8320007324,15.005907058699998,3.1799998282999997,0,2,25,1,140,221
89,1530630981024,2894024, RC,0,39.9586186,-88.445067899,0,0.0,0.0,0.0,0.0,0.0,0.0,0.0,0.0,0.0,0.0,0.0,0.0,0.0,1500,1500,0.0,0.0,40.048293,-88.2327281667,0.0,0.0,0.0,0.0,0.0,0.0,0.0,0.0,0.0,0.0,0.0,0,0.0,0.0,0.0,0.0,90.0,63.0,87.0,90.3363494873,116.3740844727,90.20902252200001,43.8320007324,15.005907058699998,3.1799998282999997,0,2,25,1,133,225
90,1530630981075,2894075, RC,0,39.9586186,-88.445067899,0,0.0,0.0,0.0,0.0,0.0,0.0,0.0,0.0,0.0,0.0,0.0,0.0,0.0,1500,1500,0.0,0.0,40.048293,-88.2327281667,0.0,0.0,0.0,0.0,0.0,0.0,0.0,0.0,0.0,0.0,0.0,0,0.0,0.0,0.0,0.0,90.0,63.0,87.0,90.3363494873,116.3740844727,92.88282775879999,43.8320007324,15.005907058699998,3.1799998282999997,0,2,25,1,135,227
91,1530630981125,2894125, RC,0,39.9586186,-88.445067899,0,0.0,0.0,0.0,0.0,0.0,0.0,0.0,0.0,0.0,0.0,0.0,0.0,0.0,1500,1500,0.0,0.0,40.048293,-88.2327281667,0.0,0.0,0.0,0.0,0.0,0.0,0.0,0.0,0.0,0.0,0.0,0,0.0,0.0,0.0,0.0,90.0,63.0,87.0,90.3363494873,116.3740844727,92.88282775879999,43.8320007324,15.005907058699998,3.1799998282999997,0,2,25,1,131,229
92,1530630981176,2894176, RC,0,39.9586186,-88.445067899,0,0.0,0.0,0.0,0.0,0.0,0.0,0.0,0.0,0.0,0.0,0.0,0.0,0.0,1500,1500,0.0,0.0,40.048293,-88.2327281667,0.0,0.0,0.0,0.0,0.0,0.0,0.0,0.0,0.0,0.0,0.0,0,0.0,0.0,0.0,0.0,90.0,63.0,76.0,90.3363494873,116.3740844727,93.39212036129999,43.8320007324,15.005907058699998,3.1799998282999997,0,2,25,1,132,231
93,1530630981226,2894226, RC,0,39.9586186,-88.445067899,0,0.0,0.0,0.0,0.0,0.0,0.0,0.0,0.0,0.0,0.0,0.0,0.0,0.0,1500,1500,0.0,0.0,40.048293,-88.2327281667,0.0,0.0,0.0,0.0,0.0,0.0,0.0,0.0,0.0,0.0,0.0,0,0.0,0.0,0.0,0.0,90.0,63.0,76.0,90.3363494873,116.3740844727,101.349861145,43.8320007324,15.005907058699998,3.1799998282999997,0,2,25,1,112,233
94,1530630981277,2894277, RC,0,39.9586186,-88.445067899,0,0.0,0.0,0.0,0.0,0.0,0.0,0.0,0.0,0.0,0.0,0.0,0.0,0.0,1500,1500,0.0,0.0,40.048293,-88.2327281667,0.0,0.0,0.0,0.0,0.0,0.0,0.0,0.0,0.0,0.0,0.0,0,0.0,0.0,0.0,0.0,90.0,63.0,73.0,90.3363494873,116.3740844727,105.3605728149,43.8320007324,15.001234054600001,3.0099999905000003,0,2,25,1,80,235
95,1530630981327,2894327, RC,0,39.9586186,-88.445067899,0,0.0,0.0,0.0,0.0,0.0,0.0,0.0,0.0,0.0,0.0,0.0,0.0,0.0,1500,1500,0.0,0.0,40.048293,-88.2327281667,0.0,0.0,0.0,0.0,0.0,0.0,0.0,0.0,0.0,0.0,0.0,0,0.0,0.0,0.0,0.0,90.0,63.0,73.0,90.3363494873,116.3740844727,105.233253479,43.8320007324,15.001234054600001,3.0099999905000003,0,2,25,1,73,237
96,1530630981378,2894378, RC,0,39.9586186,-88.445067899,0,0.0,0.0,0.0,0.0,0.0,0.0,0.0,0.0,0.0,0.0,0.0,0.0,0.0,1500,1500,0.0,0.0,40.048293,-88.2327281667,0.0,0.0,0.0,0.0,0.0,0.0,0.0,0.0,0.0,0.0,0.0,0,0.0,0.0,0.0,0.0,90.0,63.0,69.0,90.3363494873,116.3740844727,105.2969055176,43.8320007324,15.001234054600001,3.0099999905000003,0,2,25,1,68,239
97,1530630981429,2894429, RC,0,39.9586186,-88.445067899,0,0.0,0.0,0.0,0.0,0.0,0.0,0.0,0.0,0.0,0.0,0.0,0.0,0.0,1500,1500,0.0,0.0,40.048293,-88.2327281667,0.0,0.0,0.0,0.0,0.0,0.0,0.0,0.0,0.0,0.0,0.0,0,0.0,0.0,0.0,0.0,90.0,63.0,69.0,90.3363494873,116.3740844727,108.6073303223,43.8320007324,15.001234054600001,3.0099999905000003,0,2,25,1,70,241
98,1530630981479,2894479, RC,0,39.9586186,-88.445067899,0,0.0,0.0,0.0,0.0,0.0,0.0,0.0,0.0,0.0,0.0,0.0,0.0,0.0,1500,1500,0.0,0.0,40.048293,-88.2327281667,0.0,0.0,0.0,0.0,0.0,0.0,0.0,0.0,0.0,0.0,0.0,0,0.0,0.0,0.0,0.0,90.0,63.0,66.0,90.3363494873,116.3740844727,111.21747589110001,43.8320007324,15.001234054600001,3.0099999905000003,0,2,25,1,70,243
99,1530630981530,2894530, RC,0,39.9586186,-88.445067899,0,0.0,0.0,0.0,0.0,0.0,0.0,0.0,0.0,0.0,0.0,0.0,0.0,0.0,1500,1500,0.0,0.0,40.048293,-88.2327281667,0.0,0.0,0.0,0.0,0.0,0.0,0.0,0.0,0.0,0.0,0.0,0,0.0,0.0,0.0,0.0,90.0,63.0,66.0,90.3363494873,116.3740844727,111.9814147949,43.8320007324,15.001234054600001,3.0099999905000003,0,2,25,1,76,245
100,1530630981580,2894580, RC,0,39.9586186,-88.445067899,0,0.0,0.0,0.0,0.0,0.0,0.0,0.0,0.0,0.0,0.0,0.0,0.0,0.0,1500,1500,0.0,0.0,40.048293,-88.2327281667,0.0,0.0,0.0,0.0,0.0,0.0,0.0,0.0,0.0,0.0,0.0,0,0.0,0.0,0.0,0.0,90.0,63.0,63.0,90.3363494873,116.3740844727,114.2095870972,43.8320007324,15.001234054600001,3.0099999905000003,0,2,25,1,65,247
101,1530630981631,2894631, RC,0,39.9586186,-88.445067899,0,0.0,0.0,0.0,0.0,0.0,0.0,0.0,0.0,0.0,0.0,0.0,0.0,0.0,1500,1500,0.0,0.0,40.048293,-88.2327281667,0.0,0.0,0.0,0.0,0.0,0.0,0.0,0.0,0.0,0.0,0.0,0,0.0,0.0,0.0,0.0,90.0,63.0,63.0,90.3363494873,116.3740844727,115.291847229,43.8320007324,15.001234054600001,3.0099999905000003,0,2,25,1,73,249
102,1530630981681,2894681, RC,0,39.9586186,-88.445067899,0,0.0,0.0,0.0,0.0,0.0,0.0,0.0,0.0,0.0,0.0,0.0,0.0,0.0,1500,1500,0.0,0.0,40.048293,-88.2327281667,0.0,0.0,0.0,0.0,0.0,0.0,0.0,0.0,0.0,0.0,0.0,0,0.0,0.0,0.0,0.0,90.0,63.0,60.0,90.3363494873,116.3740844727,116.1831054688,43.8320007324,15.001234054600001,3.0099999905000003,0,2,25,1,76,250
103,1530630981732,2894732, RC,0,39.9586186,-88.445067899,0,0.0,0.0,0.0,0.0,0.0,0.0,0.0,0.0,0.0,0.0,0.0,0.0,0.0,1500,1500,0.0,0.0,40.048293,-88.2327281667,0.0,0.0,0.0,0.0,0.0,0.0,0.0,0.0,0.0,0.0,0.0,0,0.0,0.0,0.0,0.0,90.0,63.0,60.0,90.3363494873,116.3740844727,118.9205703735,43.8320007324,15.001234054600001,3.0099999905000003,0,2,25,1,81,252
104,1530630981783,2894783, RC,0,39.9586186,-88.445067899,0,0.0,0.0,0.0,0.0,0.0,0.0,0.0,0.0,0.0,0.0,0.0,0.0,0.0,1500,1500,0.0,0.0,40.048293,-88.2327281667,0.0,0.0,0.0,0.0,0.0,0.0,0.0,0.0,0.0,0.0,0.0,0,0.0,0.0,0.0,0.0,90.0,63.0,60.0,90.3363494873,116.3740844727,119.1752166748,43.8320007324,15.001234054600001,3.0099999905000003,0,2,25,1,262,254
105,1530630981874,2894874, RC,0,39.9586186,-88.445067899,0,0.0,0.0,0.0,0.0,0.0,0.0,0.0,0.0,0.0,0.0,0.0,0.0,0.0,1500,1500,0.0,0.0,40.048289,-88.2327241667,0.0,0.0,0.0,0.0,0.0,0.0,0.0,0.0,0.0,0.0,0.0,0,0.0,0.0,0.0,0.0,90.0,63.0,54.0,90.3363494873,116.3740844727,119.1752166748,43.8320007324,15.001234054600001,3.0099999905000003,0,2,25,1,316,258
106,1530630981924,2894924, RC,0,39.9586186,-88.445067899,0,0.0,0.0,0.0,0.0,0.0,0.0,0.0,0.0,0.0,0.0,0.0,0.0,0.0,1500,1500,0.0,0.0,40.048289,-88.2327241667,0.0,0.0,0.0,0.0,0.0,0.0,0.0,0.0,0.0,0.0,0.0,0,0.0,0.0,0.0,0.0,90.0,63.0,54.0,90.3363494873,116.3740844727,120.4484634399,43.293998718299996,15.001234054600001,3.0099999905000003,0,2,25,1,339,260
107,1530630981975,2894975, RC,0,39.9586186,-88.445067899,0,0.0,0.0,0.0,0.0,0.0,0.0,0.0,0.0,0.0,0.0,0.0,0.0,0.0,1500,1500,0.0,0.0,40.048289,-88.2327241667,0.0,0.0,0.0,0.0,0.0,0.0,0.0,0.0,0.0,0.0,0.0,0,0.0,0.0,0.0,0.0,90.0,63.0,54.0,90.3363494873,116.3740844727,124.968460083,43.293998718299996,15.001234054600001,3.0099999905000003,0,2,25,1,290,262
108,1530630982025,2895025, RC,0,39.9586186,-88.445067899,0,0.0,0.0,0.0,0.0,0.0,0.0,0.0,0.0,0.0,0.0,0.0,0.0,0.0,1500,1500,0.0,0.0,40.048289,-88.2327241667,0.0,0.0,0.0,0.0,0.0,0.0,0.0,0.0,0.0,0.0,0.0,0,0.0,0.0,0.0,0.0,90.0,63.0,54.0,90.3363494873,116.3740844727,125.0957870483,43.293998718299996,15.001234054600001,3.0099999905000003,0,2,25,1,186,264
109,1530630982075,2895075, RC,0,39.9586186,-88.445067899,0,0.0,0.0,0.0,0.0,0.0,0.0,0.0,0.0,0.0,0.0,0.0,0.0,0.0,1500,1500,0.0,0.0,40.048289,-88.2327241667,0.0,0.0,0.0,0.0,0.0,0.0,0.0,0.0,0.0,0.0,0.0,0,0.0,0.0,0.0,0.0,90.0,63.0,54.0,90.3363494873,116.3740844727,125.0957870483,43.293998718299996,15.001234054600001,3.0099999905000003,0,2,25,1,49,266
110,1530630982126,2895126, RC,0,39.9586186,-88.445067899,0,0.0,0.0,0.0,0.0,0.0,0.0,0.0,0.0,0.0,0.0,0.0,0.0,0.0,1500,1500,0.0,0.0,40.048289,-88.2327241667,0.0,0.0,0.0,0.0,0.0,0.0,0.0,0.0,0.0,0.0,0.0,0,0.0,0.0,0.0,0.0,90.0,63.0,54.0,90.3363494873,116.3740844727,125.0957870483,43.293998718299996,15.001234054600001,3.0099999905000003,0,2,25,1,40,268
111,1530630982176,2895176, RC,0,39.9586186,-88.445067899,0,0.0,0.0,0.0,0.0,0.0,0.0,0.0,0.0,0.0,0.0,0.0,0.0,0.0,1500,1500,0.0,0.0,40.048289,-88.2327241667,0.0,0.0,0.0,0.0,0.0,0.0,0.0,0.0,0.0,0.0,0.0,0,0.0,0.0,0.0,0.0,90.0,63.0,54.0,90.3363494873,116.3740844727,125.0957870483,43.293998718299996,15.001234054600001,3.0099999905000003,0,2,25,1,37,270
112,1530630982226,2895226, RC,0,39.9586186,-88.445067899,0,0.0,0.0,0.0,0.0,0.0,0.0,0.0,0.0,0.0,0.0,0.0,0.0,0.0,1500,1500,0.0,0.0,40.048289,-88.2327241667,0.0,0.0,0.0,0.0,0.0,0.0,0.0,0.0,0.0,0.0,0.0,0,0.0,0.0,0.0,0.0,90.0,63.0,54.0,90.3363494873,116.3740844727,126.3053588867,43.293998718299996,15.001234054600001,3.0099999905000003,0,2,25,1,37,272
113,1530630982277,2895277, RC,0,39.9586186,-88.445067899,0,0.0,0.0,0.0,0.0,0.0,0.0,0.0,0.0,0.0,0.0,0.0,0.0,0.0,1500,1500,0.0,0.0,40.048289,-88.2327241667,0.0,0.0,0.0,0.0,0.0,0.0,0.0,0.0,0.0,0.0,0.0,0,0.0,0.0,0.0,0.0,90.0,63.0,54.0,90.3363494873,116.3740844727,126.3053588867,43.293998718299996,15.0015659332,3.1300001144,0,2,25,1,39,274
114,1530630982327,2895327, RC,0,39.9586186,-88.445067899,0,0.0,0.0,0.0,0.0,0.0,0.0,0.0,0.0,0.0,0.0,0.0,0.0,0.0,1500,1500,0.0,0.0,40.048289,-88.2327241667,0.0,0.0,0.0,0.0,0.0,0.0,0.0,0.0,0.0,0.0,0.0,0,0.0,0.0,0.0,0.0,90.0,63.0,54.0,90.3363494873,116.3740844727,126.3053588867,43.293998718299996,15.0015659332,3.1300001144,0,2,25,1,32,276
115,1530630982377,2895377, RC,0,39.9586186,-88.445067899,0,0.0,0.0,0.0,0.0,0.0,0.0,0.0,0.0,0.0,0.0,0.0,0.0,0.0,1500,1500,0.0,0.0,40.048289,-88.2327241667,0.0,0.0,0.0,0.0,0.0,0.0,0.0,0.0,0.0,0.0,0.0,0,0.0,0.0,0.0,0.0,90.0,63.0,54.0,90.3363494873,116.3740844727,126.3053588867,43.293998718299996,15.0015659332,3.1300001144,0,2,25,1,38,277
116,1530630982428,2895428, RC,0,39.9586186,-88.445067899,0,0.0,0.0,0.0,0.0,0.0,0.0,0.0,0.0,0.0,0.0,0.0,0.0,0.0,1500,1500,0.0,0.0,40.048289,-88.2327241667,0.0,0.0,0.0,0.0,0.0,0.0,0.0,0.0,0.0,0.0,0.0,0,0.0,0.0,0.0,0.0,90.0,63.0,54.0,90.3363494873,116.3740844727,126.3053588867,43.293998718299996,15.0015659332,3.1300001144,0,2,25,1,40,279
117,1530630982478,2895478, RC,0,39.9586186,-88.445067899,0,0.0,0.0,0.0,0.0,0.0,0.0,0.0,0.0,0.0,0.0,0.0,0.0,0.0,1500,1500,0.0,0.0,40.048289,-88.2327241667,0.0,0.0,0.0,0.0,0.0,0.0,0.0,0.0,0.0,0.0,0.0,0,0.0,0.0,0.0,0.0,90.0,63.0,55.0,90.3363494873,116.3740844727,126.3053588867,43.293998718299996,15.0015659332,3.1300001144,0,2,25,1,34,281
118,1530630982528,2895528, RC,0,39.9586186,-88.445067899,0,0.0,0.0,0.0,0.0,0.0,0.0,0.0,0.0,0.0,0.0,0.0,0.0,0.0,1500,1500,0.0,0.0,40.048289,-88.2327241667,0.0,0.0,0.0,0.0,0.0,0.0,0.0,0.0,0.0,0.0,0.0,0,0.0,0.0,0.0,0.0,90.0,63.0,55.0,90.3363494873,116.3740844727,126.3053588867,43.293998718299996,15.0015659332,3.1300001144,0,2,25,1,42,283
119,1530630982579,2895579, RC,0,39.9586186,-88.445067899,0,0.0,0.0,0.0,0.0,0.0,0.0,0.0,0.0,0.0,0.0,0.0,0.0,0.0,1500,1500,0.0,0.0,40.048289,-88.2327241667,0.0,0.0,0.0,0.0,0.0,0.0,0.0,0.0,0.0,0.0,0.0,0,0.0,0.0,0.0,0.0,90.0,63.0,57.0,90.3363494873,116.3740844727,126.1143722534,43.293998718299996,15.0015659332,3.1300001144,0,2,25,1,44,285
120,1530630982629,2895629, RC,0,39.9586186,-88.445067899,0,0.0,0.0,0.0,0.0,0.0,0.0,0.0,0.0,0.0,0.0,0.0,0.0,0.0,1500,1500,0.0,0.0,40.048289,-88.2327241667,0.0,0.0,0.0,0.0,0.0,0.0,0.0,0.0,0.0,0.0,0.0,0,0.0,0.0,0.0,0.0,90.0,63.0,57.0,90.3363494873,116.3740844727,124.45915985110001,43.293998718299996,15.0015659332,3.1300001144,0,2,25,1,46,287
121,1530630982679,2895679, RC,0,39.9586186,-88.445067899,0,0.0,0.0,0.0,0.0,0.0,0.0,0.0,0.0,0.0,0.0,0.0,0.0,0.0,1500,1500,0.0,0.0,40.048289,-88.2327241667,0.0,0.0,0.0,0.0,0.0,0.0,0.0,0.0,0.0,0.0,0.0,0,0.0,0.0,0.0,0.0,90.0,63.0,57.0,90.3363494873,116.3740844727,123.8225479126,43.293998718299996,15.0015659332,3.1300001144,0,2,25,1,329,289
122,1530630982730,2895730, RC,0,39.9586186,-88.445067899,0,0.0,0.0,0.0,0.0,0.0,0.0,0.0,0.0,0.0,0.0,0.0,0.0,0.0,1500,1500,0.0,0.0,40.048289,-88.2327241667,0.0,0.0,0.0,0.0,0.0,0.0,0.0,0.0,0.0,0.0,0.0,0,0.0,0.0,0.0,0.0,90.0,63.0,57.0,90.3363494873,116.3740844727,123.75888824459999,43.293998718299996,15.0015659332,3.1300001144,0,2,25,1,322,291
123,1530630982780,2895780, RC,0,39.9586186,-88.445067899,0,0.0,0.0,0.0,0.0,0.0,0.0,0.0,0.0,0.0,0.0,0.0,0.0,0.0,1500,1500,0.0,0.0,40.048289,-88.2327241667,0.0,0.0,0.0,0.0,0.0,0.0,0.0,0.0,0.0,0.0,0.0,0,0.0,0.0,0.0,0.0,90.0,63.0,60.0,90.3363494873,116.3740844727,123.6315612793,43.293998718299996,15.0015659332,3.1300001144,0,2,25,1,339,293
124,1530630982830,2895830, RC,0,39.9586186,-88.445067899,0,0.0,0.0,0.0,0.0,0.0,0.0,0.0,0.0,0.0,0.0,0.0,0.0,0.0,1500,1500,0.0,0.0,40.0482883333,-88.2327231667,0.0,0.0,0.0,0.0,0.0,0.0,0.0,0.0,0.0,0.0,0.0,0,0.0,0.0,0.0,0.0,90.0,63.0,60.0,90.3363494873,116.3740844727,122.1673278809,43.293998718299996,15.0015659332,3.1300001144,0,2,25,1,348,295
125,1530630982881,2895881, RC,0,39.9586186,-88.445067899,0,0.0,0.0,0.0,0.0,0.0,0.0,0.0,0.0,0.0,0.0,0.0,0.0,0.0,1500,1500,0.0,0.0,40.0482883333,-88.2327231667,0.0,0.0,0.0,0.0,0.0,0.0,0.0,0.0,0.0,0.0,0.0,0,0.0,0.0,0.0,0.0,90.0,63.0,60.0,90.3363494873,116.3740844727,118.6659317017,43.293998718299996,15.0015659332,3.1300001144,0,2,25,1,297,297
126,1530630982931,2895931, RC,0,39.9586186,-88.445067899,0,0.0,0.0,0.0,0.0,0.0,0.0,0.0,0.0,0.0,0.0,0.0,0.0,0.0,1500,1500,0.0,0.0,40.0482883333,-88.2327231667,0.0,0.0,0.0,0.0,0.0,0.0,0.0,0.0,0.0,0.0,0.0,0,0.0,0.0,0.0,0.0,90.0,63.0,60.0,90.3363494873,116.3740844727,118.6022567749,43.293998718299996,15.0015659332,3.1300001144,0,2,25,1,293,299
127,1530630982981,2895981, RC,0,39.9586186,-88.445067899,0,0.0,0.0,0.0,0.0,0.0,0.0,0.0,0.0,0.0,0.0,0.0,0.0,0.0,1500,1500,0.0,0.0,40.0482883333,-88.2327231667,0.0,0.0,0.0,0.0,0.0,0.0,0.0,0.0,0.0,0.0,0.0,0,0.0,0.0,0.0,0.0,90.0,63.0,60.0,90.3363494873,116.3740844727,118.6022567749,43.293998718299996,15.0015659332,3.1300001144,0,2,25,1,309,301
128,1530630983032,2896032, RC,0,39.9586186,-88.445067899,0,0.0,0.0,0.0,0.0,0.0,0.0,0.0,0.0,0.0,0.0,0.0,0.0,0.0,1500,1500,0.0,0.0,40.0482883333,-88.2327231667,0.0,0.0,0.0,0.0,0.0,0.0,0.0,0.0,0.0,0.0,0.0,0,0.0,0.0,0.0,0.0,90.0,63.0,60.0,90.3363494873,116.3740844727,118.6022567749,43.293998718299996,15.0015659332,3.1300001144,0,2,25,1,337,303
129,1530630983082,2896082, RC,0,39.9586186,-88.445067899,0,0.0,0.0,0.0,0.0,0.0,0.0,0.0,0.0,0.0,0.0,0.0,0.0,0.0,1500,1500,0.0,0.0,40.0482883333,-88.2327231667,0.0,0.0,0.0,0.0,0.0,0.0,0.0,0.0,0.0,0.0,0.0,0,0.0,0.0,0.0,0.0,90.0,63.0,60.0,90.3363494873,116.3740844727,118.6022567749,43.293998718299996,15.0015659332,3.1300001144,0,2,25,1,339,305
130,1530630983132,2896132, RC,0,39.9586186,-88.445067899,0,0.0,0.0,0.0,0.0,0.0,0.0,0.0,0.0,0.0,0.0,0.0,0.0,0.0,1500,1500,0.0,0.0,40.0482883333,-88.2327231667,0.0,0.0,0.0,0.0,0.0,0.0,0.0,0.0,0.0,0.0,0.0,0,0.0,0.0,0.0,0.0,90.0,63.0,60.0,90.3363494873,116.3740844727,118.6022567749,43.293998718299996,15.0015659332,3.1300001144,0,2,25,1,333,307
131,1530630983183,2896183, RC,0,39.9586186,-88.445067899,0,0.0,0.0,0.0,0.0,0.0,0.0,0.0,0.0,0.0,0.0,0.0,0.0,0.0,1500,1500,0.0,0.0,40.0482883333,-88.2327231667,0.0,0.0,0.0,0.0,0.0,0.0,0.0,0.0,0.0,0.0,0.0,0,0.0,0.0,0.0,0.0,90.0,63.0,60.0,90.3363494873,116.3740844727,118.6022567749,43.293998718299996,15.0015659332,3.1300001144,0,2,25,1,333,309
132,1530630983233,2896233, RC,0,39.9586186,-88.445067899,0,0.0,0.0,0.0,0.0,0.0,0.0,0.0,0.0,0.0,0.0,0.0,0.0,0.0,1500,1500,0.0,0.0,40.0482883333,-88.2327231667,0.0,0.0,0.0,0.0,0.0,0.0,0.0,0.0,0.0,0.0,0.0,0,0.0,0.0,0.0,0.0,90.0,63.0,60.0,90.3363494873,116.3740844727,118.6022567749,43.293998718299996,15.0015659332,3.1300001144,0,2,25,1,336,312
133,1530630983283,2896283, RC,0,39.9586186,-88.445067899,0,0.0,0.0,0.0,0.0,0.0,0.0,0.0,0.0,0.0,0.0,0.0,0.0,0.0,1500,1500,0.0,0.0,40.0482883333,-88.2327231667,0.0,0.0,0.0,0.0,0.0,0.0,0.0,0.0,0.0,0.0,0.0,0,0.0,0.0,0.0,0.0,90.0,63.0,60.0,90.3363494873,116.3740844727,118.6022567749,43.293998718299996,15.0021162033,3.4600000381,0,2,25,1,320,314
134,1530630983334,2896334, RC,0,39.9586186,-88.445067899,0,0.0,0.0,0.0,0.0,0.0,0.0,0.0,0.0,0.0,0.0,0.0,0.0,0.0,1500,1500,0.0,0.0,40.0482883333,-88.2327231667,0.0,0.0,0.0,0.0,0.0,0.0,0.0,0.0,0.0,0.0,0.0,0,0.0,0.0,0.0,0.0,90.0,63.0,60.0,90.3363494873,116.3740844727,118.6022567749,43.293998718299996,15.0021162033,3.4600000381,0,2,25,1,336,316
135,1530630983384,2896384, RC,0,39.9586186,-88.445067899,0,0.0,0.0,0.0,0.0,0.0,0.0,0.0,0.0,0.0,0.0,0.0,0.0,0.0,1500,1500,0.0,0.0,40.0482883333,-88.2327231667,0.0,0.0,0.0,0.0,0.0,0.0,0.0,0.0,0.0,0.0,0.0,0,0.0,0.0,0.0,0.0,90.0,63.0,61.0,90.3363494873,116.3740844727,118.6022567749,43.293998718299996,15.0021162033,3.4600000381,0,2,25,1,338,318
136,1530630983435,2896435, RC,0,39.9586186,-88.445067899,0,0.0,0.0,0.0,0.0,0.0,0.0,0.0,0.0,0.0,0.0,0.0,0.0,0.0,1500,1500,0.0,0.0,40.0482883333,-88.2327231667,0.0,0.0,0.0,0.0,0.0,0.0,0.0,0.0,0.0,0.0,0.0,0,0.0,0.0,0.0,0.0,90.0,63.0,61.0,90.3363494873,116.3740844727,118.6022567749,43.293998718299996,15.0021162033,3.4600000381,0,2,25,1,323,320
137,1530630983485,2896485, RC,0,39.9586186,-88.445067899,0,0.0,0.0,0.0,0.0,0.0,0.0,0.0,0.0,0.0,0.0,0.0,0.0,0.0,1500,1500,0.0,0.0,40.0482883333,-88.2327231667,0.0,0.0,0.0,0.0,0.0,0.0,0.0,0.0,0.0,0.0,0.0,0,0.0,0.0,0.0,0.0,90.0,63.0,61.0,90.3363494873,116.3740844727,118.6022567749,43.293998718299996,15.0021162033,3.4600000381,0,2,25,1,312,322
138,1530630983535,2896535, RC,0,39.9586186,-88.445067899,0,0.0,0.0,0.0,0.0,0.0,0.0,0.0,0.0,0.0,0.0,0.0,0.0,0.0,1500,1500,0.0,0.0,40.0482883333,-88.2327231667,0.0,0.0,0.0,0.0,0.0,0.0,0.0,0.0,0.0,0.0,0.0,0,0.0,0.0,0.0,0.0,90.0,63.0,61.0,90.3363494873,116.3740844727,118.6022567749,43.293998718299996,15.0021162033,3.4600000381,0,2,25,1,322,324
139,1530630983586,2896586, RC,0,39.9586186,-88.445067899,0,0.0,0.0,0.0,0.0,0.0,0.0,0.0,0.0,0.0,0.0,0.0,0.0,0.0,1500,1500,0.0,0.0,40.0482883333,-88.2327231667,0.0,0.0,0.0,0.0,0.0,0.0,0.0,0.0,0.0,0.0,0.0,0,0.0,0.0,0.0,0.0,90.0,63.0,61.0,90.3363494873,116.3740844727,118.6022567749,43.293998718299996,15.0021162033,3.4600000381,0,2,25,1,342,326
140,1530630983636,2896636, RC,0,39.9586186,-88.445067899,0,0.0,0.0,0.0,0.0,0.0,0.0,0.0,0.0,0.0,0.0,0.0,0.0,0.0,1500,1500,0.0,0.0,40.0482883333,-88.2327231667,0.0,0.0,0.0,0.0,0.0,0.0,0.0,0.0,0.0,0.0,0.0,0,0.0,0.0,0.0,0.0,90.0,63.0,61.0,90.3363494873,116.3740844727,118.6022567749,43.293998718299996,15.0021162033,3.4600000381,0,2,25,1,323,328
141,1530630983686,2896686, RC,0,39.9586186,-88.445067899,0,0.0,0.0,0.0,0.0,0.0,0.0,0.0,0.0,0.0,0.0,0.0,0.0,0.0,1500,1500,0.0,0.0,40.0482883333,-88.2327231667,0.0,0.0,0.0,0.0,0.0,0.0,0.0,0.0,0.0,0.0,0.0,0,0.0,0.0,0.0,0.0,90.0,63.0,61.0,90.3363494873,116.3740844727,118.6022567749,43.293998718299996,15.0021162033,3.4600000381,0,2,25,1,345,330
142,1530630983737,2896737, RC,0,39.9586186,-88.445067899,0,0.0,0.0,0.0,0.0,0.0,0.0,0.0,0.0,0.0,0.0,0.0,0.0,0.0,1500,1500,0.0,0.0,40.0482883333,-88.2327231667,0.0,0.0,0.0,0.0,0.0,0.0,0.0,0.0,0.0,0.0,0.0,0,0.0,0.0,0.0,0.0,90.0,63.0,61.0,90.3363494873,116.3740844727,118.6022567749,43.293998718299996,15.0021162033,3.4600000381,0,2,25,1,337,332
143,1530630983787,2896787, RC,0,39.9586186,-88.445067899,0,0.0,0.0,0.0,0.0,0.0,0.0,0.0,0.0,0.0,0.0,0.0,0.0,0.0,1500,1500,0.0,0.0,40.0482883333,-88.2327231667,0.0,0.0,0.0,0.0,0.0,0.0,0.0,0.0,0.0,0.0,0.0,0,0.0,0.0,0.0,0.0,90.0,63.0,61.0,90.3363494873,116.3740844727,118.6659317017,43.293998718299996,15.0021162033,3.4600000381,0,2,25,1,332,335
144,1530630983837,2896837, RC,0,39.9586186,-88.445067899,0,0.0,0.0,0.0,0.0,0.0,0.0,0.0,0.0,0.0,0.0,0.0,0.0,0.0,1500,1500,0.0,0.0,40.048292,-88.2327255,0.0,0.0,0.0,0.0,0.0,0.0,0.0,0.0,0.0,0.0,0.0,0,0.0,0.0,0.0,0.0,90.0,63.0,61.0,90.3363494873,116.3740844727,118.6659317017,43.293998718299996,15.0021162033,3.4600000381,0,2,25,1,338,337
145,1530630983888,2896888, RC,0,39.9586186,-88.445067899,0,0.0,0.0,0.0,0.0,0.0,0.0,0.0,0.0,0.0,0.0,0.0,0.0,0.0,1500,1500,0.0,0.0,40.048292,-88.2327255,0.0,0.0,0.0,0.0,0.0,0.0,0.0,0.0,0.0,0.0,0.0,0,0.0,0.0,0.0,0.0,90.0,63.0,61.0,90.3363494873,116.3740844727,118.6659317017,43.293998718299996,15.0021162033,3.4600000381,0,2,25,1,331,339
146,1530630983938,2896938, RC,0,39.9586186,-88.445067899,0,0.0,0.0,0.0,0.0,0.0,0.0,0.0,0.0,0.0,0.0,0.0,0.0,0.0,1500,1500,0.0,0.0,40.048292,-88.2327255,0.0,0.0,0.0,0.0,0.0,0.0,0.0,0.0,0.0,0.0,0.0,0,0.0,0.0,0.0,0.0,90.0,63.0,61.0,90.3363494873,116.3740844727,118.6659317017,43.293998718299996,15.0021162033,3.4600000381,0,2,25,1,336,341
147,1530630983988,2896988, RC,0,39.9586186,-88.445067899,0,0.0,0.0,0.0,0.0,0.0,0.0,0.0,0.0,0.0,0.0,0.0,0.0,0.0,1500,1500,0.0,0.0,40.048292,-88.2327255,0.0,0.0,0.0,0.0,0.0,0.0,0.0,0.0,0.0,0.0,0.0,0,0.0,0.0,0.0,0.0,90.0,63.0,61.0,90.3363494873,116.3740844727,118.6659317017,43.293998718299996,15.0021162033,3.4600000381,0,2,25,1,315,343
148,1530630984039,2897039, RC,0,39.9586186,-88.445067899,0,0.0,0.0,0.0,0.0,0.0,0.0,0.0,0.0,0.0,0.0,0.0,0.0,0.0,1500,1500,0.0,0.0,40.048292,-88.2327255,0.0,0.0,0.0,0.0,0.0,0.0,0.0,0.0,0.0,0.0,0.0,0,0.0,0.0,0.0,0.0,90.0,63.0,61.0,90.3363494873,116.3740844727,118.6659317017,43.293998718299996,15.0021162033,3.4600000381,0,2,25,1,327,345
149,1530630984089,2897089, RC,0,39.9586186,-88.445067899,0,0.0,0.0,0.0,0.0,0.0,0.0,0.0,0.0,0.0,0.0,0.0,0.0,0.0,1500,1500,0.0,0.0,40.048292,-88.2327255,0.0,0.0,0.0,0.0,0.0,0.0,0.0,0.0,0.0,0.0,0.0,0,0.0,0.0,0.0,0.0,90.0,63.0,61.0,90.3363494873,116.3740844727,118.6659317017,43.293998718299996,15.0021162033,3.4600000381,0,2,25,1,343,347
150,1530630984140,2897140, RC,0,39.9586186,-88.445067899,0,0.0,0.0,0.0,0.0,0.0,0.0,0.0,0.0,0.0,0.0,0.0,0.0,0.0,1500,1500,0.0,0.0,40.048292,-88.2327255,0.0,0.0,0.0,0.0,0.0,0.0,0.0,0.0,0.0,0.0,0.0,0,0.0,0.0,0.0,0.0,90.0,63.0,61.0,90.3363494873,116.3740844727,118.6659317017,43.293998718299996,15.0021162033,3.4600000381,0,2,25,1,325,349
151,1530630984191,2897191, RC,0,39.9586186,-88.445067899,0,0.0,0.0,0.0,0.0,0.0,0.0,0.0,0.0,0.0,0.0,0.0,0.0,0.0,1500,1500,0.0,0.0,40.048292,-88.2327255,0.0,0.0,0.0,0.0,0.0,0.0,0.0,0.0,0.0,0.0,0.0,0,0.0,0.0,0.0,0.0,90.0,63.0,61.0,90.3363494873,116.3740844727,118.6659317017,43.293998718299996,15.0021162033,3.4600000381,0,2,25,1,331,351
152,1530630984241,2897241, RC,0,39.9586186,-88.445067899,0,0.0,0.0,0.0,0.0,0.0,0.0,0.0,0.0,0.0,0.0,0.0,0.0,0.0,1500,1500,0.0,0.0,40.048292,-88.2327255,0.0,0.0,0.0,0.0,0.0,0.0,0.0,0.0,0.0,0.0,0.0,0,0.0,0.0,0.0,0.0,90.0,63.0,61.0,90.3363494873,116.3740844727,118.6659317017,43.293998718299996,15.0021162033,3.4600000381,0,2,25,1,319,353
153,1530630984292,2897292, RC,0,39.9586186,-88.445067899,0,0.0,0.0,0.0,0.0,0.0,0.0,0.0,0.0,0.0,0.0,0.0,0.0,0.0,1500,1500,0.0,0.0,40.048292,-88.2327255,0.0,0.0,0.0,0.0,0.0,0.0,0.0,0.0,0.0,0.0,0.0,0,0.0,0.0,0.0,0.0,90.0,63.0,55.0,90.3363494873,116.3740844727,118.6659317017,43.293998718299996,15.0025129318,3.1799998282999997,0,2,25,1,328,355
154,1530630984342,2897342, RC,0,39.9586186,-88.445067899,0,0.0,0.0,0.0,0.0,0.0,0.0,0.0,0.0,0.0,0.0,0.0,0.0,0.0,1500,1500,0.0,0.0,40.048292,-88.2327255,0.0,0.0,0.0,0.0,0.0,0.0,0.0,0.0,0.0,0.0,0.0,0,0.0,0.0,0.0,0.0,90.0,63.0,55.0,90.3363494873,116.3740844727,118.7932434082,43.293998718299996,15.0025129318,3.1799998282999997,0,2,25,1,336,357
155,1530630984393,2897393, RC,0,39.9586186,-88.445067899,0,0.0,0.0,0.0,0.0,0.0,0.0,0.0,0.0,0.0,0.0,0.0,0.0,0.0,1500,1500,0.0,0.0,40.048292,-88.2327255,0.0,0.0,0.0,0.0,0.0,0.0,0.0,0.0,0.0,0.0,0.0,0,0.0,0.0,0.0,0.0,90.0,63.0,55.0,90.3363494873,116.3740844727,122.2310028076,43.293998718299996,15.0025129318,3.1799998282999997,0,2,25,1,308,359
156,1530630984443,2897443, RC,0,39.9586186,-88.445067899,0,0.0,0.0,0.0,0.0,0.0,0.0,0.0,0.0,0.0,0.0,0.0,0.0,0.0,1500,1500,0.0,0.0,40.048292,-88.2327255,0.0,0.0,0.0,0.0,0.0,0.0,0.0,0.0,0.0,0.0,0.0,0,0.0,0.0,0.0,0.0,90.0,63.0,55.0,90.3363494873,116.3740844727,126.36901855469999,43.293998718299996,15.0025129318,3.1799998282999997,0,2,25,1,281,362
157,1530630984494,2897494, RC,0,39.9586186,-88.445067899,0,0.0,0.0,0.0,0.0,0.0,0.0,0.0,0.0,0.0,0.0,0.0,0.0,0.0,1500,1500,0.0,0.0,40.048292,-88.2327255,0.0,0.0,0.0,0.0,0.0,0.0,0.0,0.0,0.0,0.0,0.0,0,0.0,0.0,0.0,0.0,90.0,63.0,55.0,90.3363494873,116.3740844727,126.8146591187,43.293998718299996,15.0025129318,3.1799998282999997,0,2,25,1,322,364
158,1530630984544,2897544, RC,0,39.9586186,-88.445067899,0,0.0,0.0,0.0,0.0,0.0,0.0,0.0,0.0,0.0,0.0,0.0,0.0,0.0,1500,1500,0.0,0.0,40.048292,-88.2327255,0.0,0.0,0.0,0.0,0.0,0.0,0.0,0.0,0.0,0.0,0.0,0,0.0,0.0,0.0,0.0,90.0,63.0,55.0,90.3363494873,116.3740844727,126.6873321533,43.293998718299996,15.0025129318,3.1799998282999997,0,2,25,1,41,366
159,1530630984595,2897595, RC,0,39.9586186,-88.445067899,0,0.0,0.0,0.0,0.0,0.0,0.0,0.0,0.0,0.0,0.0,0.0,0.0,0.0,1500,1500,0.0,0.0,40.048292,-88.2327255,0.0,0.0,0.0,0.0,0.0,0.0,0.0,0.0,0.0,0.0,0.0,0,0.0,0.0,0.0,0.0,90.0,63.0,55.0,90.3363494873,116.3740844727,126.49634552,43.293998718299996,15.0025129318,3.1799998282999997,0,2,25,1,346,368
160,1530630984646,2897646, RC,0,39.9586186,-88.445067899,0,0.0,0.0,0.0,0.0,0.0,0.0,0.0,0.0,0.0,0.0,0.0,0.0,0.0,1500,1500,0.0,0.0,40.048292,-88.2327255,0.0,0.0,0.0,0.0,0.0,0.0,0.0,0.0,0.0,0.0,0.0,0,0.0,0.0,0.0,0.0,90.0,63.0,54.0,90.3363494873,116.3740844727,124.968460083,43.293998718299996,15.0025129318,3.1799998282999997,0,2,25,1,317,370
161,1530630984696,2897696, RC,0,39.9586186,-88.445067899,0,0.0,0.0,0.0,0.0,0.0,0.0,0.0,0.0,0.0,0.0,0.0,0.0,0.0,1500,1500,0.0,0.0,40.048292,-88.2327255,0.0,0.0,0.0,0.0,0.0,0.0,0.0,0.0,0.0,0.0,0.0,0,0.0,0.0,0.0,0.0,90.0,63.0,54.0,90.3363494873,116.3740844727,124.7138137817,43.293998718299996,15.0025129318,3.1799998282999997,0,2,25,1,327,372
162,1530630984747,2897747, RC,0,39.9586186,-88.445067899,0,0.0,0.0,0.0,0.0,0.0,0.0,0.0,0.0,0.0,0.0,0.0,0.0,0.0,1500,1500,0.0,0.0,40.048292,-88.2327255,0.0,0.0,0.0,0.0,0.0,0.0,0.0,0.0,0.0,0.0,0.0,0,0.0,0.0,0.0,0.0,90.0,63.0,54.0,90.3363494873,116.3740844727,124.7138137817,43.293998718299996,15.0025129318,3.1799998282999997,0,2,25,1,324,374
163,1530630984798,2897798, RC,0,39.9586186,-88.445067899,0,0.0,0.0,0.0,0.0,0.0,0.0,0.0,0.0,0.0,0.0,0.0,0.0,0.0,1500,1500,0.0,0.0,40.0482953333,-88.232726,0.0,0.0,0.0,0.0,0.0,0.0,0.0,0.0,0.0,0.0,0.0,0,0.0,0.0,0.0,0.0,90.0,63.0,54.0,90.3363494873,116.3740844727,124.7138137817,43.293998718299996,15.0025129318,3.1799998282999997,0,2,25,1,332,376
164,1530630984848,2897848, RC,0,39.9586186,-88.445067899,0,0.0,0.0,0.0,0.0,0.0,0.0,0.0,0.0,0.0,0.0,0.0,0.0,0.0,1500,1500,0.0,0.0,40.0482953333,-88.232726,0.0,0.0,0.0,0.0,0.0,0.0,0.0,0.0,0.0,0.0,0.0,0,0.0,0.0,0.0,0.0,90.0,63.0,54.0,90.3363494873,116.3740844727,124.7138137817,43.293998718299996,15.0025129318,3.1799998282999997,0,2,25,1,358,378
165,1530630984899,2897899, RC,0,39.9586186,-88.445067899,0,0.0,0.0,0.0,0.0,0.0,0.0,0.0,0.0,0.0,0.0,0.0,0.0,0.0,1500,1500,0.0,0.0,40.0482953333,-88.232726,0.0,0.0,0.0,0.0,0.0,0.0,0.0,0.0,0.0,0.0,0.0,0,0.0,0.0,0.0,0.0,90.0,63.0,54.0,90.3363494873,116.3740844727,124.7138137817,43.293998718299996,15.0025129318,3.1799998282999997,0,2,25,1,334,380
166,1530630984949,2897949, RC,0,39.9586186,-88.445067899,0,0.0,0.0,0.0,0.0,0.0,0.0,0.0,0.0,0.0,0.0,0.0,0.0,0.0,1500,1500,0.0,0.0,40.0482953333,-88.232726,0.0,0.0,0.0,0.0,0.0,0.0,0.0,0.0,0.0,0.0,0.0,0,0.0,0.0,0.0,0.0,90.0,63.0,54.0,90.3363494873,116.3740844727,124.7138137817,43.293998718299996,15.0025129318,3.1799998282999997,0,2,25,1,345,382
167,1530630985000,2898000, RC,0,39.9586186,-88.445067899,0,0.0,0.0,0.0,0.0,0.0,0.0,0.0,0.0,0.0,0.0,0.0,0.0,0.0,1500,1500,0.0,0.0,40.0482953333,-88.232726,0.0,0.0,0.0,0.0,0.0,0.0,0.0,0.0,0.0,0.0,0.0,0,0.0,0.0,0.0,0.0,90.0,63.0,54.0,90.3363494873,116.3740844727,124.7138137817,43.293998718299996,15.0025129318,3.1799998282999997,0,2,25,1,338,384
168,1530630985050,2898050, RC,0,39.9586186,-88.445067899,0,0.0,0.0,0.0,0.0,0.0,0.0,0.0,0.0,0.0,0.0,0.0,0.0,0.0,1500,1500,0.0,0.0,40.0482953333,-88.232726,0.0,0.0,0.0,0.0,0.0,0.0,0.0,0.0,0.0,0.0,0.0,0,0.0,0.0,0.0,0.0,90.0,63.0,54.0,90.3363494873,116.3740844727,124.7138137817,43.293998718299996,15.0025129318,3.1799998282999997,0,2,25,1,329,387
169,1530630985101,2898101, RC,0,39.9586186,-88.445067899,0,0.0,0.0,0.0,0.0,0.0,0.0,0.0,0.0,0.0,0.0,0.0,0.0,0.0,1500,1500,0.0,0.0,40.0482953333,-88.232726,0.0,0.0,0.0,0.0,0.0,0.0,0.0,0.0,0.0,0.0,0.0,0,0.0,0.0,0.0,0.0,90.0,63.0,54.0,90.3363494873,116.3740844727,124.7138137817,43.293998718299996,15.0025129318,3.1799998282999997,0,2,25,1,301,389
