,(0)linux time (ms),    (1)uptime  (ms),      (2)drive mode,(3)mpc step counter,(4)mpc origin latitude  (deg),(5)mpc origin longitude  (deg),(6)closest trajectory point index to robot,(7)mpc error x (W;E)  (m),(8)mpc error y (W;E)  (m),(9)abs mpc error (m),(10)input [x] for mhe (m),(11)input [y] for mhe (m),(12)input [speed] for mhe (m/s),(13)input [vyaw] for mhe (rad/s),(14)mhe output x  (m),(15)mhe output y  (m),(16)mhe output speed  (m/s),(17)mhe output yaw  (rad),(18)mpc reference heading (rad),(19)mpc turn rate command (rad/s),(20)turn rate command as PWM,(21)throttle command as PWM,(22)primary gps latitude (deg),(23)primary gps longitude (deg),(24)secondary gps latitude  (deg),(25)secondary gps longitude (deg),(26)accelerometer x (m/s^2),(27)accelerometer y (m/s^2),(28)accelerometer z (m/s^2),(29)gyro yaw rate (rad/s),(30)gyro pitch rate   (rad/s),(31)gyro roll rate (rad/s),      (32)yaw (rad),  (33)pitch   (rad),     (34)roll (rad),(35)sonar1 measurement (m),(36)ultrasonic sensor measurement (m),(37)primary gps time (s),(38)normalized turn rate command,(39)normalized throttle command,(40)speed calculation from encoder left (m/s),(41)speed calculation from encoder right (m/s),(42)front gimbal target angle (degrees from straight down),(43)left gimbal target angle  (degrees from straight down),(44)right gimbal target angle  (degrees from straight down),(45)front gimbal measured angle  (degrees from straight down),(46)left gimbal measured angle    (degrees from straight down),(47)right gimbal measured angle  (degrees from straight down),(48)internal temperature (C),(49)battery voltage (V),(50)primary gps type,(51)secondary gps type,    (52)MPC R value, (53)MPC Q[0] value,Unnamed: 54,weed_num,start
0,1530630575809,2488809, RC,0,39.9586186,-88.445067899,0,0.0,0.0,0.0,0.0,0.0,0.0,0.0,0.0,0.0,0.0,0.0,0.0,0.0,1500,1500,0.0,0.0,40.048331,-88.232799,0.0,0.0,0.0,0.0,0.0,0.0,0.0,0.0,0.0,0.0,0.0,0,0.0,0.0,0.0,0.0,90.0,90.0,90.0,89.82704925540001,88.93578338620001,89.82704925540001,40.6039962769,15.1042156219,1.5900000334,0,2,25,1,55,4
1,1530630575860,2488860, RC,0,39.9586186,-88.445067899,0,0.0,0.0,0.0,0.0,0.0,0.0,0.0,0.0,0.0,0.0,0.0,0.0,0.0,1500,1500,0.0,0.0,40.048331,-88.232799,0.0,0.0,0.0,0.0,0.0,0.0,0.0,0.0,0.0,0.0,0.0,0,0.0,0.0,0.0,0.0,90.0,90.0,90.0,89.82704925540001,88.8721160889,89.6997299194,40.6039962769,15.1042156219,1.5900000334,0,2,25,1,69,8
2,1530630575910,2488910, RC,0,39.9586186,-88.445067899,0,0.0,0.0,0.0,0.0,0.0,0.0,0.0,0.0,0.0,0.0,0.0,0.0,0.0,1500,1500,0.0,0.0,40.048331,-88.232799,0.0,0.0,0.0,0.0,0.0,0.0,0.0,0.0,0.0,0.0,0.0,0,0.0,0.0,0.0,0.0,90.0,90.0,90.0,89.82704925540001,89.12677001950001,89.6997299194,40.6039962769,15.1042156219,1.5900000334,0,2,25,1,73,11
3,1530630575961,2488961, RC,0,39.9586186,-88.445067899,0,0.0,0.0,0.0,0.0,0.0,0.0,0.0,0.0,0.0,0.0,0.0,0.0,0.0,1500,1500,0.0,0.0,40.048331,-88.232799,0.0,0.0,0.0,0.0,0.0,0.0,0.0,0.0,0.0,0.0,0.0,0,0.0,0.0,0.0,0.0,90.0,90.0,90.0,89.82704925540001,90.3363494873,89.63606262209998,40.6039962769,15.1042156219,1.5900000334,0,2,25,1,75,13
4,1530630576011,2489011, RC,0,39.9586186,-88.445067899,0,0.0,0.0,0.0,0.0,0.0,0.0,0.0,0.0,0.0,0.0,0.0,0.0,0.0,1500,1500,0.0,0.0,40.048331,-88.232799,0.0,0.0,0.0,0.0,0.0,0.0,0.0,0.0,0.0,0.0,0.0,0,0.0,0.0,0.0,0.0,90.0,90.0,90.0,89.82704925540001,89.8907089233,89.63606262209998,40.6039962769,15.1042156219,1.5900000334,0,2,25,1,85,16
5,1530630576061,2489061, RC,0,39.9586186,-88.445067899,0,0.0,0.0,0.0,0.0,0.0,0.0,0.0,0.0,0.0,0.0,0.0,0.0,0.0,1500,1500,0.0,0.0,40.048331,-88.232799,0.0,0.0,0.0,0.0,0.0,0.0,0.0,0.0,0.0,0.0,0.0,0,0.0,0.0,0.0,0.0,90.0,90.0,90.0,89.82704925540001,89.63606262209998,89.63606262209998,40.6039962769,15.1042156219,1.5900000334,0,2,25,1,83,18
6,1530630576112,2489112, RC,0,39.9586186,-88.445067899,0,0.0,0.0,0.0,0.0,0.0,0.0,0.0,0.0,0.0,0.0,0.0,0.0,0.0,1500,1500,0.0,0.0,40.048331,-88.232799,0.0,0.0,0.0,0.0,0.0,0.0,0.0,0.0,0.0,0.0,0.0,0,0.0,0.0,0.0,0.0,90.0,90.0,90.0,89.82704925540001,89.5724029541,89.63606262209998,40.6039962769,15.0996379852,3.5599999427999998,0,2,25,1,115,21
7,1530630576162,2489162, RC,0,39.9586186,-88.445067899,0,0.0,0.0,0.0,0.0,0.0,0.0,0.0,0.0,0.0,0.0,0.0,0.0,0.0,1500,1500,0.0,0.0,40.048331,-88.232799,0.0,0.0,0.0,0.0,0.0,0.0,0.0,0.0,0.0,0.0,0.0,0,0.0,0.0,0.0,0.0,90.0,90.0,90.0,89.82704925540001,89.5724029541,89.63606262209998,40.6039962769,15.0996379852,3.5599999427999998,0,2,25,1,123,23
8,1530630576212,2489212, RC,0,39.9586186,-88.445067899,0,0.0,0.0,0.0,0.0,0.0,0.0,0.0,0.0,0.0,0.0,0.0,0.0,0.0,1500,1500,0.0,0.0,40.048331,-88.232799,0.0,0.0,0.0,0.0,0.0,0.0,0.0,0.0,0.0,0.0,0.0,0,0.0,0.0,0.0,0.0,90.0,90.0,90.0,89.82704925540001,89.5087432861,89.63606262209998,40.6039962769,15.0996379852,3.5599999427999998,0,2,25,1,156,25
9,1530630576263,2489263, RC,0,39.9586186,-88.445067899,0,0.0,0.0,0.0,0.0,0.0,0.0,0.0,0.0,0.0,0.0,0.0,0.0,0.0,1500,1500,0.0,0.0,40.048331,-88.232799,0.0,0.0,0.0,0.0,0.0,0.0,0.0,0.0,0.0,0.0,0.0,0,0.0,0.0,0.0,0.0,90.0,90.0,90.0,89.82704925540001,89.5087432861,89.63606262209998,40.6039962769,15.0996379852,3.5599999427999998,0,2,25,1,132,27
10,1530630576313,2489313, RC,0,39.9586186,-88.445067899,0,0.0,0.0,0.0,0.0,0.0,0.0,0.0,0.0,0.0,0.0,0.0,0.0,0.0,1500,1500,0.0,0.0,40.048331,-88.232799,0.0,0.0,0.0,0.0,0.0,0.0,0.0,0.0,0.0,0.0,0.0,0,0.0,0.0,0.0,0.0,90.0,90.0,90.0,89.82704925540001,89.44507598879999,89.63606262209998,40.6039962769,15.0996379852,3.5599999427999998,0,2,25,1,151,29
11,1530630576364,2489364, RC,0,39.9586186,-88.445067899,0,0.0,0.0,0.0,0.0,0.0,0.0,0.0,0.0,0.0,0.0,0.0,0.0,0.0,1500,1500,0.0,0.0,40.048331,-88.232799,0.0,0.0,0.0,0.0,0.0,0.0,0.0,0.0,0.0,0.0,0.0,0,0.0,0.0,0.0,0.0,90.0,90.0,90.0,89.82704925540001,89.44507598879999,89.63606262209998,40.6039962769,15.0996379852,3.5599999427999998,0,2,25,1,171,31
12,1530630576414,2489414, RC,0,39.9586186,-88.445067899,0,0.0,0.0,0.0,0.0,0.0,0.0,0.0,0.0,0.0,0.0,0.0,0.0,0.0,1500,1500,0.0,0.0,40.048331,-88.232799,0.0,0.0,0.0,0.0,0.0,0.0,0.0,0.0,0.0,0.0,0.0,0,0.0,0.0,0.0,0.0,90.0,90.0,90.0,89.82704925540001,89.3814163208,89.63606262209998,40.6039962769,15.0996379852,3.5599999427999998,0,2,25,1,149,33
13,1530630576464,2489464, RC,0,39.9586186,-88.445067899,0,0.0,0.0,0.0,0.0,0.0,0.0,0.0,0.0,0.0,0.0,0.0,0.0,0.0,1500,1500,0.0,0.0,40.048331,-88.232799,0.0,0.0,0.0,0.0,0.0,0.0,0.0,0.0,0.0,0.0,0.0,0,0.0,0.0,0.0,0.0,90.0,90.0,90.0,89.82704925540001,89.3814163208,89.63606262209998,40.6039962769,15.0996379852,3.5599999427999998,0,2,25,1,150,35
14,1530630576515,2489515, RC,0,39.9586186,-88.445067899,0,0.0,0.0,0.0,0.0,0.0,0.0,0.0,0.0,0.0,0.0,0.0,0.0,0.0,1500,1500,0.0,0.0,40.048331,-88.232799,0.0,0.0,0.0,0.0,0.0,0.0,0.0,0.0,0.0,0.0,0.0,0,0.0,0.0,0.0,0.0,90.0,90.0,90.0,89.82704925540001,89.3814163208,89.63606262209998,40.6039962769,15.0996379852,3.5599999427999998,0,2,25,1,195,38
15,1530630576565,2489565, RC,0,39.9586186,-88.445067899,0,0.0,0.0,0.0,0.0,0.0,0.0,0.0,0.0,0.0,0.0,0.0,0.0,0.0,1500,1500,0.0,0.0,40.048331,-88.232799,0.0,0.0,0.0,0.0,0.0,0.0,0.0,0.0,0.0,0.0,0.0,0,0.0,0.0,0.0,0.0,90.0,90.0,90.0,89.82704925540001,89.3177566528,89.63606262209998,40.6039962769,15.0996379852,3.5599999427999998,0,2,25,1,189,40
16,1530630576615,2489615, RC,0,39.9586186,-88.445067899,0,0.0,0.0,0.0,0.0,0.0,0.0,0.0,0.0,0.0,0.0,0.0,0.0,0.0,1500,1500,0.0,0.0,40.048331,-88.232799,0.0,0.0,0.0,0.0,0.0,0.0,0.0,0.0,0.0,0.0,0.0,0,0.0,0.0,0.0,0.0,90.0,90.0,90.0,89.82704925540001,89.3177566528,89.63606262209998,40.6039962769,15.0996379852,3.5599999427999998,0,2,25,1,171,42
17,1530630576666,2489666, RC,0,39.9586186,-88.445067899,0,0.0,0.0,0.0,0.0,0.0,0.0,0.0,0.0,0.0,0.0,0.0,0.0,0.0,1500,1500,0.0,0.0,40.048331,-88.232799,0.0,0.0,0.0,0.0,0.0,0.0,0.0,0.0,0.0,0.0,0.0,0,0.0,0.0,0.0,0.0,90.0,90.0,79.0,89.82704925540001,89.3177566528,89.63606262209998,40.6039962769,15.0996379852,3.5599999427999998,0,2,25,1,192,44
18,1530630576716,2489716, RC,0,39.9586186,-88.445067899,0,0.0,0.0,0.0,0.0,0.0,0.0,0.0,0.0,0.0,0.0,0.0,0.0,0.0,1500,1500,0.0,0.0,40.048331,-88.232799,0.0,0.0,0.0,0.0,0.0,0.0,0.0,0.0,0.0,0.0,0.0,0,0.0,0.0,0.0,0.0,90.0,90.0,79.0,89.82704925540001,89.25408935549999,89.63606262209998,40.6039962769,15.0996379852,3.5599999427999998,0,2,25,1,184,46
19,1530630576766,2489766, RC,0,39.9586186,-88.445067899,0,0.0,0.0,0.0,0.0,0.0,0.0,0.0,0.0,0.0,0.0,0.0,0.0,0.0,1500,1500,0.0,0.0,40.048331,-88.232799,0.0,0.0,0.0,0.0,0.0,0.0,0.0,0.0,0.0,0.0,0.0,0,0.0,0.0,0.0,0.0,90.0,90.0,76.0,89.82704925540001,89.25408935549999,91.29127502440001,40.6039962769,15.0996379852,3.5599999427999998,0,2,25,1,187,48
20,1530630576817,2489817, RC,0,39.9586186,-88.445067899,0,0.0,0.0,0.0,0.0,0.0,0.0,0.0,0.0,0.0,0.0,0.0,0.0,0.0,1500,1500,0.0,0.0,40.048332,-88.2327936667,0.0,0.0,0.0,0.0,0.0,0.0,0.0,0.0,0.0,0.0,0.0,0,0.0,0.0,0.0,0.0,90.0,90.0,76.0,89.82704925540001,89.25408935549999,100.9042358398,40.6039962769,15.0996379852,3.5599999427999998,0,2,25,1,160,50
21,1530630576867,2489867, RC,0,39.9586186,-88.445067899,0,0.0,0.0,0.0,0.0,0.0,0.0,0.0,0.0,0.0,0.0,0.0,0.0,0.0,1500,1500,0.0,0.0,40.048332,-88.2327936667,0.0,0.0,0.0,0.0,0.0,0.0,0.0,0.0,0.0,0.0,0.0,0,0.0,0.0,0.0,0.0,90.0,90.0,72.0,89.82704925540001,89.25408935549999,104.4056396484,40.6039962769,15.0996379852,3.5599999427999998,0,2,25,1,131,52
22,1530630576918,2489918, RC,0,39.9586186,-88.445067899,0,0.0,0.0,0.0,0.0,0.0,0.0,0.0,0.0,0.0,0.0,0.0,0.0,0.0,1500,1500,0.0,0.0,40.048332,-88.2327936667,0.0,0.0,0.0,0.0,0.0,0.0,0.0,0.0,0.0,0.0,0.0,0,0.0,0.0,0.0,0.0,90.0,90.0,72.0,89.82704925540001,89.25408935549999,104.4056396484,40.6039962769,15.0996379852,3.5599999427999998,0,2,25,1,91,54
23,1530630576968,2489968, RC,0,39.9586186,-88.445067899,0,0.0,0.0,0.0,0.0,0.0,0.0,0.0,0.0,0.0,0.0,0.0,0.0,0.0,1500,1500,0.0,0.0,40.048332,-88.2327936667,0.0,0.0,0.0,0.0,0.0,0.0,0.0,0.0,0.0,0.0,0.0,0,0.0,0.0,0.0,0.0,90.0,90.0,72.0,89.82704925540001,89.25408935549999,104.4693069458,40.6039962769,15.0996379852,3.5599999427999998,0,2,25,1,71,55
24,1530630577018,2490018, RC,0,39.9586186,-88.445067899,0,0.0,0.0,0.0,0.0,0.0,0.0,0.0,0.0,0.0,0.0,0.0,0.0,0.0,1500,1500,0.0,0.0,40.048332,-88.2327936667,0.0,0.0,0.0,0.0,0.0,0.0,0.0,0.0,0.0,0.0,0.0,0,0.0,0.0,0.0,0.0,90.0,90.0,72.0,89.82704925540001,89.25408935549999,107.14310455319999,40.6039962769,15.0996379852,3.5599999427999998,0,2,25,1,53,57
25,1530630577069,2490069, RC,0,39.9586186,-88.445067899,0,0.0,0.0,0.0,0.0,0.0,0.0,0.0,0.0,0.0,0.0,0.0,0.0,0.0,1500,1500,0.0,0.0,40.048332,-88.2327936667,0.0,0.0,0.0,0.0,0.0,0.0,0.0,0.0,0.0,0.0,0.0,0,0.0,0.0,0.0,0.0,90.0,90.0,69.0,89.82704925540001,89.25408935549999,107.77973175049999,40.6039962769,15.0950651169,2.9600000381,0,2,25,1,52,59
26,1530630577119,2490119, RC,0,39.9586186,-88.445067899,0,0.0,0.0,0.0,0.0,0.0,0.0,0.0,0.0,0.0,0.0,0.0,0.0,0.0,1500,1500,0.0,0.0,40.048332,-88.2327936667,0.0,0.0,0.0,0.0,0.0,0.0,0.0,0.0,0.0,0.0,0.0,0,0.0,0.0,0.0,0.0,90.0,90.0,69.0,89.82704925540001,89.25408935549999,107.77973175049999,40.6039962769,15.0950651169,2.9600000381,0,2,25,1,51,61
27,1530630577170,2490170, RC,0,39.9586186,-88.445067899,0,0.0,0.0,0.0,0.0,0.0,0.0,0.0,0.0,0.0,0.0,0.0,0.0,0.0,1500,1500,0.0,0.0,40.048332,-88.2327936667,0.0,0.0,0.0,0.0,0.0,0.0,0.0,0.0,0.0,0.0,0.0,0,0.0,0.0,0.0,0.0,90.0,90.0,66.0,89.82704925540001,89.25408935549999,110.51719665530001,40.6039962769,15.0950651169,2.9600000381,0,2,25,1,43,63
28,1530630577220,2490220, RC,0,39.9586186,-88.445067899,0,0.0,0.0,0.0,0.0,0.0,0.0,0.0,0.0,0.0,0.0,0.0,0.0,0.0,1500,1500,0.0,0.0,40.048332,-88.2327936667,0.0,0.0,0.0,0.0,0.0,0.0,0.0,0.0,0.0,0.0,0.0,0,0.0,0.0,0.0,0.0,90.0,90.0,66.0,89.82704925540001,89.1904296875,110.77183532709999,40.6039962769,15.0950651169,2.9600000381,0,2,25,1,50,65
29,1530630577270,2490270, RC,0,39.9586186,-88.445067899,0,0.0,0.0,0.0,0.0,0.0,0.0,0.0,0.0,0.0,0.0,0.0,0.0,0.0,1500,1500,0.0,0.0,40.048332,-88.2327936667,0.0,0.0,0.0,0.0,0.0,0.0,0.0,0.0,0.0,0.0,0.0,0,0.0,0.0,0.0,0.0,90.0,90.0,64.0,89.82704925540001,89.1904296875,112.4907150269,40.6039962769,15.0950651169,2.9600000381,0,2,25,1,50,67
30,1530630577321,2490321, RC,0,39.9586186,-88.445067899,0,0.0,0.0,0.0,0.0,0.0,0.0,0.0,0.0,0.0,0.0,0.0,0.0,0.0,1500,1500,0.0,0.0,40.048332,-88.2327936667,0.0,0.0,0.0,0.0,0.0,0.0,0.0,0.0,0.0,0.0,0.0,0,0.0,0.0,0.0,0.0,90.0,90.0,64.0,89.82704925540001,89.1904296875,114.3369064331,40.6039962769,15.0950651169,2.9600000381,0,2,25,1,55,69
31,1530630577371,2490371, RC,0,39.9586186,-88.445067899,0,0.0,0.0,0.0,0.0,0.0,0.0,0.0,0.0,0.0,0.0,0.0,0.0,0.0,1500,1500,0.0,0.0,40.048332,-88.2327936667,0.0,0.0,0.0,0.0,0.0,0.0,0.0,0.0,0.0,0.0,0.0,0,0.0,0.0,0.0,0.0,90.0,90.0,64.0,89.82704925540001,89.1904296875,114.3369064331,40.6039962769,15.0950651169,2.9600000381,0,2,25,1,58,71
32,1530630577421,2490421, RC,0,39.9586186,-88.445067899,0,0.0,0.0,0.0,0.0,0.0,0.0,0.0,0.0,0.0,0.0,0.0,0.0,0.0,1500,1500,0.0,0.0,40.048332,-88.2327936667,0.0,0.0,0.0,0.0,0.0,0.0,0.0,0.0,0.0,0.0,0.0,0,0.0,0.0,0.0,0.0,90.0,90.0,64.0,89.82704925540001,89.5087432861,115.6101455688,40.6039962769,15.0950651169,2.9600000381,0,2,25,1,58,73
33,1530630577472,2490472, RC,0,39.9586186,-88.445067899,0,0.0,0.0,0.0,0.0,0.0,0.0,0.0,0.0,0.0,0.0,0.0,0.0,0.0,1500,1500,0.0,0.0,40.048332,-88.2327936667,0.0,0.0,0.0,0.0,0.0,0.0,0.0,0.0,0.0,0.0,0.0,0,0.0,0.0,0.0,0.0,90.0,90.0,64.0,89.82704925540001,89.5087432861,116.05578613280001,40.6039962769,15.0950651169,2.9600000381,0,2,25,1,41,75
34,1530630577522,2490522, RC,0,39.9586186,-88.445067899,0,0.0,0.0,0.0,0.0,0.0,0.0,0.0,0.0,0.0,0.0,0.0,0.0,0.0,1500,1500,0.0,0.0,40.048332,-88.2327936667,0.0,0.0,0.0,0.0,0.0,0.0,0.0,0.0,0.0,0.0,0.0,0,0.0,0.0,0.0,0.0,90.0,90.0,64.0,89.82704925540001,89.5087432861,116.05578613280001,40.6039962769,15.0950651169,2.9600000381,0,2,25,1,40,77
35,1530630577572,2490572, RC,0,39.9586186,-88.445067899,0,0.0,0.0,0.0,0.0,0.0,0.0,0.0,0.0,0.0,0.0,0.0,0.0,0.0,1500,1500,0.0,0.0,40.048332,-88.2327936667,0.0,0.0,0.0,0.0,0.0,0.0,0.0,0.0,0.0,0.0,0.0,0,0.0,0.0,0.0,0.0,90.0,90.0,63.0,89.82704925540001,89.5087432861,116.05578613280001,40.6039962769,15.0950651169,2.9600000381,0,2,25,1,43,79
36,1530630577623,2490623, RC,0,39.9586186,-88.445067899,0,0.0,0.0,0.0,0.0,0.0,0.0,0.0,0.0,0.0,0.0,0.0,0.0,0.0,1500,1500,0.0,0.0,40.048332,-88.2327936667,0.0,0.0,0.0,0.0,0.0,0.0,0.0,0.0,0.0,0.0,0.0,0,0.0,0.0,0.0,0.0,90.0,90.0,63.0,89.82704925540001,89.5087432861,116.05578613280001,40.6039962769,15.0950651169,2.9600000381,0,2,25,1,39,81
37,1530630577673,2490673, RC,0,39.9586186,-88.445067899,0,0.0,0.0,0.0,0.0,0.0,0.0,0.0,0.0,0.0,0.0,0.0,0.0,0.0,1500,1500,0.0,0.0,40.048332,-88.2327936667,0.0,0.0,0.0,0.0,0.0,0.0,0.0,0.0,0.0,0.0,0.0,0,0.0,0.0,0.0,0.0,90.0,90.0,63.0,89.82704925540001,89.5087432861,116.05578613280001,40.6039962769,15.0950651169,2.9600000381,0,2,25,1,40,83
38,1530630577723,2490723, RC,0,39.9586186,-88.445067899,0,0.0,0.0,0.0,0.0,0.0,0.0,0.0,0.0,0.0,0.0,0.0,0.0,0.0,1500,1500,0.0,0.0,40.048332,-88.2327936667,0.0,0.0,0.0,0.0,0.0,0.0,0.0,0.0,0.0,0.0,0.0,0,0.0,0.0,0.0,0.0,90.0,90.0,63.0,89.82704925540001,89.5087432861,116.05578613280001,40.6039962769,15.0950651169,2.9600000381,0,2,25,1,44,85
39,1530630577774,2490774, RC,0,39.9586186,-88.445067899,0,0.0,0.0,0.0,0.0,0.0,0.0,0.0,0.0,0.0,0.0,0.0,0.0,0.0,1500,1500,0.0,0.0,40.048332,-88.2327936667,0.0,0.0,0.0,0.0,0.0,0.0,0.0,0.0,0.0,0.0,0.0,0,0.0,0.0,0.0,0.0,90.0,90.0,61.0,89.82704925540001,89.5087432861,116.05578613280001,40.6039962769,15.0950651169,2.9600000381,0,2,25,1,39,87
40,1530630577824,2490824, RC,0,39.9586186,-88.445067899,0,0.0,0.0,0.0,0.0,0.0,0.0,0.0,0.0,0.0,0.0,0.0,0.0,0.0,1500,1500,0.0,0.0,40.0483356667,-88.2327948333,0.0,0.0,0.0,0.0,0.0,0.0,0.0,0.0,0.0,0.0,0.0,0,0.0,0.0,0.0,0.0,90.0,90.0,61.0,89.82704925540001,89.5087432861,116.05578613280001,40.6039962769,15.0950651169,2.9600000381,0,2,25,1,39,89
41,1530630577874,2490874, RC,0,39.9586186,-88.445067899,0,0.0,0.0,0.0,0.0,0.0,0.0,0.0,0.0,0.0,0.0,0.0,0.0,0.0,1500,1500,0.0,0.0,40.0483356667,-88.2327948333,0.0,0.0,0.0,0.0,0.0,0.0,0.0,0.0,0.0,0.0,0.0,0,0.0,0.0,0.0,0.0,90.0,90.0,61.0,89.82704925540001,89.5087432861,116.62874603270001,40.6039962769,15.0950651169,2.9600000381,0,2,25,1,37,91
42,1530630577925,2490925, RC,0,39.9586186,-88.445067899,0,0.0,0.0,0.0,0.0,0.0,0.0,0.0,0.0,0.0,0.0,0.0,0.0,0.0,1500,1500,0.0,0.0,40.0483356667,-88.2327948333,0.0,0.0,0.0,0.0,0.0,0.0,0.0,0.0,0.0,0.0,0.0,0,0.0,0.0,0.0,0.0,90.0,90.0,61.0,89.82704925540001,89.5087432861,118.9842300415,40.6039962769,15.0950651169,2.9600000381,0,2,25,1,39,93
43,1530630577975,2490975, RC,0,39.9586186,-88.445067899,0,0.0,0.0,0.0,0.0,0.0,0.0,0.0,0.0,0.0,0.0,0.0,0.0,0.0,1500,1500,0.0,0.0,40.0483356667,-88.2327948333,0.0,0.0,0.0,0.0,0.0,0.0,0.0,0.0,0.0,0.0,0.0,0,0.0,0.0,0.0,0.0,90.0,90.0,61.0,89.82704925540001,89.5087432861,118.9842300415,40.6039962769,15.0950651169,2.9600000381,0,2,25,1,36,95
44,1530630578025,2491025, RC,0,39.9586186,-88.445067899,0,0.0,0.0,0.0,0.0,0.0,0.0,0.0,0.0,0.0,0.0,0.0,0.0,0.0,1500,1500,0.0,0.0,40.0483356667,-88.2327948333,0.0,0.0,0.0,0.0,0.0,0.0,0.0,0.0,0.0,0.0,0.0,0,0.0,0.0,0.0,0.0,90.0,90.0,61.0,89.82704925540001,89.5087432861,118.9842300415,40.6039962769,15.0950651169,2.9600000381,0,2,25,1,35,96
45,1530630578076,2491076, RC,0,39.9586186,-88.445067899,0,0.0,0.0,0.0,0.0,0.0,0.0,0.0,0.0,0.0,0.0,0.0,0.0,0.0,1500,1500,0.0,0.0,40.0483356667,-88.2327948333,0.0,0.0,0.0,0.0,0.0,0.0,0.0,0.0,0.0,0.0,0.0,0,0.0,0.0,0.0,0.0,90.0,90.0,61.0,89.82704925540001,89.5087432861,118.9842300415,40.6039962769,15.090327262899999,2.9600000381,0,2,25,1,32,98
46,1530630578126,2491126, RC,0,39.9586186,-88.445067899,0,0.0,0.0,0.0,0.0,0.0,0.0,0.0,0.0,0.0,0.0,0.0,0.0,0.0,1500,1500,0.0,0.0,40.0483356667,-88.2327948333,0.0,0.0,0.0,0.0,0.0,0.0,0.0,0.0,0.0,0.0,0.0,0,0.0,0.0,0.0,0.0,90.0,90.0,61.0,89.82704925540001,89.5087432861,118.9842300415,40.6039962769,15.090327262899999,2.9600000381,0,2,25,1,26,100
47,1530630578177,2491177, RC,0,39.9586186,-88.445067899,0,0.0,0.0,0.0,0.0,0.0,0.0,0.0,0.0,0.0,0.0,0.0,0.0,0.0,1500,1500,0.0,0.0,40.0483356667,-88.2327948333,0.0,0.0,0.0,0.0,0.0,0.0,0.0,0.0,0.0,0.0,0.0,0,0.0,0.0,0.0,0.0,90.0,90.0,61.0,89.82704925540001,89.5087432861,118.9842300415,40.6039962769,15.090327262899999,2.9600000381,0,2,25,1,27,102
48,1530630578227,2491227, RC,0,39.9586186,-88.445067899,0,0.0,0.0,0.0,0.0,0.0,0.0,0.0,0.0,0.0,0.0,0.0,0.0,0.0,1500,1500,0.0,0.0,40.0483356667,-88.2327948333,0.0,0.0,0.0,0.0,0.0,0.0,0.0,0.0,0.0,0.0,0.0,0,0.0,0.0,0.0,0.0,90.0,90.0,61.0,89.82704925540001,89.5087432861,118.9842300415,40.6039962769,15.090327262899999,2.9600000381,0,2,25,1,29,104
49,1530630578277,2491277, RC,0,39.9586186,-88.445067899,0,0.0,0.0,0.0,0.0,0.0,0.0,0.0,0.0,0.0,0.0,0.0,0.0,0.0,1500,1500,0.0,0.0,40.0483356667,-88.2327948333,0.0,0.0,0.0,0.0,0.0,0.0,0.0,0.0,0.0,0.0,0.0,0,0.0,0.0,0.0,0.0,90.0,90.0,61.0,89.82704925540001,89.5087432861,118.9842300415,40.6039962769,15.090327262899999,2.9600000381,0,2,25,1,29,106
50,1530630578328,2491328, RC,0,39.9586186,-88.445067899,0,0.0,0.0,0.0,0.0,0.0,0.0,0.0,0.0,0.0,0.0,0.0,0.0,0.0,1500,1500,0.0,0.0,40.0483356667,-88.2327948333,0.0,0.0,0.0,0.0,0.0,0.0,0.0,0.0,0.0,0.0,0.0,0,0.0,0.0,0.0,0.0,90.0,90.0,61.0,89.82704925540001,89.5087432861,118.9842300415,40.6039962769,15.090327262899999,2.9600000381,0,2,25,1,28,108
51,1530630578378,2491378, RC,0,39.9586186,-88.445067899,0,0.0,0.0,0.0,0.0,0.0,0.0,0.0,0.0,0.0,0.0,0.0,0.0,0.0,1500,1500,0.0,0.0,40.0483356667,-88.2327948333,0.0,0.0,0.0,0.0,0.0,0.0,0.0,0.0,0.0,0.0,0.0,0,0.0,0.0,0.0,0.0,90.0,90.0,60.0,89.82704925540001,89.5087432861,118.9842300415,40.6039962769,15.090327262899999,2.9600000381,0,2,25,1,29,110
52,1530630578429,2491429, RC,0,39.9586186,-88.445067899,0,0.0,0.0,0.0,0.0,0.0,0.0,0.0,0.0,0.0,0.0,0.0,0.0,0.0,1500,1500,0.0,0.0,40.0483356667,-88.2327948333,0.0,0.0,0.0,0.0,0.0,0.0,0.0,0.0,0.0,0.0,0.0,0,0.0,0.0,0.0,0.0,90.0,90.0,60.0,89.82704925540001,89.5087432861,118.9842300415,40.6039962769,15.090327262899999,2.9600000381,0,2,25,1,30,112
53,1530630578479,2491479, RC,0,39.9586186,-88.445067899,0,0.0,0.0,0.0,0.0,0.0,0.0,0.0,0.0,0.0,0.0,0.0,0.0,0.0,1500,1500,0.0,0.0,40.0483356667,-88.2327948333,0.0,0.0,0.0,0.0,0.0,0.0,0.0,0.0,0.0,0.0,0.0,0,0.0,0.0,0.0,0.0,90.0,90.0,58.0,89.82704925540001,89.5087432861,118.9842300415,40.6039962769,15.090327262899999,2.9600000381,0,2,25,1,32,114
54,1530630578529,2491529, RC,0,39.9586186,-88.445067899,0,0.0,0.0,0.0,0.0,0.0,0.0,0.0,0.0,0.0,0.0,0.0,0.0,0.0,1500,1500,0.0,0.0,40.0483356667,-88.2327948333,0.0,0.0,0.0,0.0,0.0,0.0,0.0,0.0,0.0,0.0,0.0,0,0.0,0.0,0.0,0.0,90.0,90.0,58.0,89.82704925540001,89.5087432861,118.9842300415,40.6039962769,15.090327262899999,2.9600000381,0,2,25,1,27,116
55,1530630578580,2491580, RC,0,39.9586186,-88.445067899,0,0.0,0.0,0.0,0.0,0.0,0.0,0.0,0.0,0.0,0.0,0.0,0.0,0.0,1500,1500,0.0,0.0,40.0483356667,-88.2327948333,0.0,0.0,0.0,0.0,0.0,0.0,0.0,0.0,0.0,0.0,0.0,0,0.0,0.0,0.0,0.0,90.0,90.0,58.0,89.82704925540001,89.5087432861,119.5571899414,40.6039962769,15.090327262899999,2.9600000381,0,2,25,1,28,118
56,1530630578630,2491630, RC,0,39.9586186,-88.445067899,0,0.0,0.0,0.0,0.0,0.0,0.0,0.0,0.0,0.0,0.0,0.0,0.0,0.0,1500,1500,0.0,0.0,40.0483356667,-88.2327948333,0.0,0.0,0.0,0.0,0.0,0.0,0.0,0.0,0.0,0.0,0.0,0,0.0,0.0,0.0,0.0,90.0,90.0,58.0,89.82704925540001,89.5087432861,120.38480377200001,40.6039962769,15.090327262899999,2.9600000381,0,2,25,1,28,120
57,1530630578680,2491680, RC,0,39.9586186,-88.445067899,0,0.0,0.0,0.0,0.0,0.0,0.0,0.0,0.0,0.0,0.0,0.0,0.0,0.0,1500,1500,0.0,0.0,40.0483356667,-88.2327948333,0.0,0.0,0.0,0.0,0.0,0.0,0.0,0.0,0.0,0.0,0.0,0,0.0,0.0,0.0,0.0,90.0,90.0,58.0,89.82704925540001,89.5087432861,121.0850753784,40.6039962769,15.090327262899999,2.9600000381,0,2,25,1,25,122
58,1530630578731,2491731, RC,0,39.9586186,-88.445067899,0,0.0,0.0,0.0,0.0,0.0,0.0,0.0,0.0,0.0,0.0,0.0,0.0,0.0,1500,1500,0.0,0.0,40.0483356667,-88.2327948333,0.0,0.0,0.0,0.0,0.0,0.0,0.0,0.0,0.0,0.0,0.0,0,0.0,0.0,0.0,0.0,90.0,90.0,58.0,89.82704925540001,89.5087432861,121.91268920899999,40.6039962769,15.090327262899999,2.9600000381,0,2,25,1,24,124
59,1530630578781,2491781, RC,0,39.9586186,-88.445067899,0,0.0,0.0,0.0,0.0,0.0,0.0,0.0,0.0,0.0,0.0,0.0,0.0,0.0,1500,1500,0.0,0.0,40.0483356667,-88.2327948333,0.0,0.0,0.0,0.0,0.0,0.0,0.0,0.0,0.0,0.0,0.0,0,0.0,0.0,0.0,0.0,90.0,90.0,58.0,89.82704925540001,89.5087432861,121.91268920899999,40.6039962769,15.090327262899999,2.9600000381,0,2,25,1,26,126
60,1530630578832,2491832, RC,0,39.9586186,-88.445067899,0,0.0,0.0,0.0,0.0,0.0,0.0,0.0,0.0,0.0,0.0,0.0,0.0,0.0,1500,1500,0.0,0.0,40.0483343333,-88.2327928333,0.0,0.0,0.0,0.0,0.0,0.0,0.0,0.0,0.0,0.0,0.0,0,0.0,0.0,0.0,0.0,90.0,90.0,58.0,89.82704925540001,89.5087432861,121.91268920899999,40.6039962769,15.090327262899999,2.9600000381,0,2,25,1,25,128
61,1530630578882,2491882, RC,0,39.9586186,-88.445067899,0,0.0,0.0,0.0,0.0,0.0,0.0,0.0,0.0,0.0,0.0,0.0,0.0,0.0,1500,1500,0.0,0.0,40.0483343333,-88.2327928333,0.0,0.0,0.0,0.0,0.0,0.0,0.0,0.0,0.0,0.0,0.0,0,0.0,0.0,0.0,0.0,90.0,90.0,58.0,89.82704925540001,89.5087432861,121.91268920899999,40.6039962769,15.090327262899999,2.9600000381,0,2,25,1,26,130
62,1530630578932,2491932, RC,0,39.9586186,-88.445067899,0,0.0,0.0,0.0,0.0,0.0,0.0,0.0,0.0,0.0,0.0,0.0,0.0,0.0,1500,1500,0.0,0.0,40.0483343333,-88.2327928333,0.0,0.0,0.0,0.0,0.0,0.0,0.0,0.0,0.0,0.0,0.0,0,0.0,0.0,0.0,0.0,90.0,90.0,58.0,89.82704925540001,89.5087432861,121.91268920899999,40.6039962769,15.090327262899999,2.9600000381,0,2,25,1,28,131
63,1530630578983,2491983, RC,0,39.9586186,-88.445067899,0,0.0,0.0,0.0,0.0,0.0,0.0,0.0,0.0,0.0,0.0,0.0,0.0,0.0,1500,1500,0.0,0.0,40.0483343333,-88.2327928333,0.0,0.0,0.0,0.0,0.0,0.0,0.0,0.0,0.0,0.0,0.0,0,0.0,0.0,0.0,0.0,90.0,90.0,58.0,89.82704925540001,89.5087432861,121.976348877,40.6039962769,15.090327262899999,2.9600000381,0,2,25,1,29,133
64,1530630579033,2492033, RC,0,39.9586186,-88.445067899,0,0.0,0.0,0.0,0.0,0.0,0.0,0.0,0.0,0.0,0.0,0.0,0.0,0.0,1500,1500,0.0,0.0,40.0483343333,-88.2327928333,0.0,0.0,0.0,0.0,0.0,0.0,0.0,0.0,0.0,0.0,0.0,0,0.0,0.0,0.0,0.0,90.0,90.0,58.0,89.82704925540001,89.5087432861,121.976348877,40.6039962769,15.090327262899999,2.9600000381,0,2,25,1,27,135
65,1530630579084,2492084, RC,0,39.9586186,-88.445067899,0,0.0,0.0,0.0,0.0,0.0,0.0,0.0,0.0,0.0,0.0,0.0,0.0,0.0,1500,1500,0.0,0.0,40.0483343333,-88.2327928333,0.0,0.0,0.0,0.0,0.0,0.0,0.0,0.0,0.0,0.0,0.0,0,0.0,0.0,0.0,0.0,90.0,90.0,58.0,89.82704925540001,89.5087432861,121.976348877,40.6039962769,15.085644722,3.0199999808999998,0,2,25,1,28,137
66,1530630579135,2492135, RC,0,39.9586186,-88.445067899,0,0.0,0.0,0.0,0.0,0.0,0.0,0.0,0.0,0.0,0.0,0.0,0.0,0.0,1500,1500,0.0,0.0,40.0483343333,-88.2327928333,0.0,0.0,0.0,0.0,0.0,0.0,0.0,0.0,0.0,0.0,0.0,0,0.0,0.0,0.0,0.0,90.0,90.0,58.0,89.82704925540001,89.5087432861,121.976348877,40.6039962769,15.085644722,3.0199999808999998,0,2,25,1,28,139
67,1530630579185,2492185, RC,0,39.9586186,-88.445067899,0,0.0,0.0,0.0,0.0,0.0,0.0,0.0,0.0,0.0,0.0,0.0,0.0,0.0,1500,1500,0.0,0.0,40.0483343333,-88.2327928333,0.0,0.0,0.0,0.0,0.0,0.0,0.0,0.0,0.0,0.0,0.0,0,0.0,0.0,0.0,0.0,90.0,90.0,58.0,89.82704925540001,89.5087432861,121.976348877,40.6039962769,15.085644722,3.0199999808999998,0,2,25,1,30,141
68,1530630579236,2492236, RC,0,39.9586186,-88.445067899,0,0.0,0.0,0.0,0.0,0.0,0.0,0.0,0.0,0.0,0.0,0.0,0.0,0.0,1500,1500,0.0,0.0,40.0483343333,-88.2327928333,0.0,0.0,0.0,0.0,0.0,0.0,0.0,0.0,0.0,0.0,0.0,0,0.0,0.0,0.0,0.0,90.0,90.0,58.0,89.82704925540001,89.5087432861,121.976348877,40.6039962769,15.085644722,3.0199999808999998,0,2,25,1,25,143
69,1530630579286,2492286, RC,0,39.9586186,-88.445067899,0,0.0,0.0,0.0,0.0,0.0,0.0,0.0,0.0,0.0,0.0,0.0,0.0,0.0,1500,1500,0.0,0.0,40.0483343333,-88.2327928333,0.0,0.0,0.0,0.0,0.0,0.0,0.0,0.0,0.0,0.0,0.0,0,0.0,0.0,0.0,0.0,90.0,90.0,58.0,89.82704925540001,89.5087432861,121.976348877,40.6039962769,15.085644722,3.0199999808999998,0,2,25,1,28,145
70,1530630579337,2492337, RC,0,39.9586186,-88.445067899,0,0.0,0.0,0.0,0.0,0.0,0.0,0.0,0.0,0.0,0.0,0.0,0.0,0.0,1500,1500,0.0,0.0,40.0483343333,-88.2327928333,0.0,0.0,0.0,0.0,0.0,0.0,0.0,0.0,0.0,0.0,0.0,0,0.0,0.0,0.0,0.0,90.0,90.0,58.0,89.82704925540001,89.5087432861,121.976348877,40.6039962769,15.085644722,3.0199999808999998,0,2,25,1,26,147
71,1530630579388,2492388, RC,0,39.9586186,-88.445067899,0,0.0,0.0,0.0,0.0,0.0,0.0,0.0,0.0,0.0,0.0,0.0,0.0,0.0,1500,1500,0.0,0.0,40.0483343333,-88.2327928333,0.0,0.0,0.0,0.0,0.0,0.0,0.0,0.0,0.0,0.0,0.0,0,0.0,0.0,0.0,0.0,90.0,90.0,60.0,89.82704925540001,89.5087432861,121.976348877,40.6039962769,15.085644722,3.0199999808999998,0,2,25,1,24,149
72,1530630579438,2492438, RC,0,39.9586186,-88.445067899,0,0.0,0.0,0.0,0.0,0.0,0.0,0.0,0.0,0.0,0.0,0.0,0.0,0.0,1500,1500,0.0,0.0,40.0483343333,-88.2327928333,0.0,0.0,0.0,0.0,0.0,0.0,0.0,0.0,0.0,0.0,0.0,0,0.0,0.0,0.0,0.0,90.0,90.0,60.0,89.82704925540001,89.5087432861,121.976348877,40.6039962769,15.085644722,3.0199999808999998,0,2,25,1,29,151
73,1530630579489,2492489, RC,0,39.9586186,-88.445067899,0,0.0,0.0,0.0,0.0,0.0,0.0,0.0,0.0,0.0,0.0,0.0,0.0,0.0,1500,1500,0.0,0.0,40.0483343333,-88.2327928333,0.0,0.0,0.0,0.0,0.0,0.0,0.0,0.0,0.0,0.0,0.0,0,0.0,0.0,0.0,0.0,90.0,90.0,60.0,89.82704925540001,89.5087432861,121.91268920899999,40.6039962769,15.085644722,3.0199999808999998,0,2,25,1,29,153
74,1530630579540,2492540, RC,0,39.9586186,-88.445067899,0,0.0,0.0,0.0,0.0,0.0,0.0,0.0,0.0,0.0,0.0,0.0,0.0,0.0,1500,1500,0.0,0.0,40.0483343333,-88.2327928333,0.0,0.0,0.0,0.0,0.0,0.0,0.0,0.0,0.0,0.0,0.0,0,0.0,0.0,0.0,0.0,90.0,90.0,60.0,89.82704925540001,89.5087432861,121.4033889771,40.6039962769,15.085644722,3.0199999808999998,0,2,25,1,26,155
75,1530630579590,2492590, RC,0,39.9586186,-88.445067899,0,0.0,0.0,0.0,0.0,0.0,0.0,0.0,0.0,0.0,0.0,0.0,0.0,0.0,1500,1500,0.0,0.0,40.0483343333,-88.2327928333,0.0,0.0,0.0,0.0,0.0,0.0,0.0,0.0,0.0,0.0,0.0,0,0.0,0.0,0.0,0.0,90.0,90.0,60.0,89.82704925540001,89.5087432861,120.32112884520001,40.6039962769,15.085644722,3.0199999808999998,0,2,25,1,30,157
76,1530630579677,2492677, RC,0,39.9586186,-88.445067899,0,0.0,0.0,0.0,0.0,0.0,0.0,0.0,0.0,0.0,0.0,0.0,0.0,0.0,1500,1500,0.0,0.0,40.0483343333,-88.2327928333,0.0,0.0,0.0,0.0,0.0,0.0,0.0,0.0,0.0,0.0,0.0,0,0.0,0.0,0.0,0.0,90.0,90.0,60.0,89.82704925540001,89.5087432861,120.0664901733,40.6039962769,15.085644722,3.0199999808999998,0,2,25,1,29,160
77,1530630579728,2492728, RC,0,39.9586186,-88.445067899,0,0.0,0.0,0.0,0.0,0.0,0.0,0.0,0.0,0.0,0.0,0.0,0.0,0.0,1500,1500,0.0,0.0,40.0483343333,-88.2327928333,0.0,0.0,0.0,0.0,0.0,0.0,0.0,0.0,0.0,0.0,0.0,0,0.0,0.0,0.0,0.0,90.0,90.0,60.0,89.82704925540001,89.5087432861,119.81184387209998,40.6039962769,15.085644722,3.0199999808999998,0,2,25,1,31,162
78,1530630579778,2492778, RC,0,39.9586186,-88.445067899,0,0.0,0.0,0.0,0.0,0.0,0.0,0.0,0.0,0.0,0.0,0.0,0.0,0.0,1500,1500,0.0,0.0,40.0483355,-88.2327901667,0.0,0.0,0.0,0.0,0.0,0.0,0.0,0.0,0.0,0.0,0.0,0,0.0,0.0,0.0,0.0,90.0,90.0,60.0,89.82704925540001,89.5087432861,119.62085723879999,40.6039962769,15.085644722,3.0199999808999998,0,2,25,1,33,164
79,1530630579829,2492829, RC,0,39.9586186,-88.445067899,0,0.0,0.0,0.0,0.0,0.0,0.0,0.0,0.0,0.0,0.0,0.0,0.0,0.0,1500,1500,0.0,0.0,40.0483355,-88.2327901667,0.0,0.0,0.0,0.0,0.0,0.0,0.0,0.0,0.0,0.0,0.0,0,0.0,0.0,0.0,0.0,90.0,90.0,60.0,89.82704925540001,89.5087432861,119.62085723879999,40.6039962769,15.085644722,3.0199999808999998,0,2,25,1,34,166
80,1530630579879,2492879, RC,0,39.9586186,-88.445067899,0,0.0,0.0,0.0,0.0,0.0,0.0,0.0,0.0,0.0,0.0,0.0,0.0,0.0,1500,1500,0.0,0.0,40.0483355,-88.2327901667,0.0,0.0,0.0,0.0,0.0,0.0,0.0,0.0,0.0,0.0,0.0,0,0.0,0.0,0.0,0.0,90.0,90.0,60.0,89.82704925540001,89.5087432861,119.5571899414,40.6039962769,15.085644722,3.0199999808999998,0,2,25,1,32,168
81,1530630579930,2492930, RC,0,39.9586186,-88.445067899,0,0.0,0.0,0.0,0.0,0.0,0.0,0.0,0.0,0.0,0.0,0.0,0.0,0.0,1500,1500,0.0,0.0,40.0483355,-88.2327901667,0.0,0.0,0.0,0.0,0.0,0.0,0.0,0.0,0.0,0.0,0.0,0,0.0,0.0,0.0,0.0,90.0,90.0,60.0,89.82704925540001,89.5087432861,119.42987060549999,40.6039962769,15.085644722,3.0199999808999998,0,2,25,1,31,170
82,1530630579980,2492980, RC,0,39.9586186,-88.445067899,0,0.0,0.0,0.0,0.0,0.0,0.0,0.0,0.0,0.0,0.0,0.0,0.0,0.0,1500,1500,0.0,0.0,40.0483355,-88.2327901667,0.0,0.0,0.0,0.0,0.0,0.0,0.0,0.0,0.0,0.0,0.0,0,0.0,0.0,0.0,0.0,90.0,90.0,60.0,89.82704925540001,89.5087432861,119.42987060549999,40.6039962769,15.085644722,3.0199999808999998,0,2,25,1,29,172
83,1530630580030,2493030, RC,0,39.9586186,-88.445067899,0,0.0,0.0,0.0,0.0,0.0,0.0,0.0,0.0,0.0,0.0,0.0,0.0,0.0,1500,1500,0.0,0.0,40.0483355,-88.2327901667,0.0,0.0,0.0,0.0,0.0,0.0,0.0,0.0,0.0,0.0,0.0,0,0.0,0.0,0.0,0.0,90.0,90.0,60.0,89.82704925540001,89.5087432861,119.42987060549999,40.6039962769,15.085644722,3.0199999808999998,0,2,25,1,29,174
84,1530630580081,2493081, RC,0,39.9586186,-88.445067899,0,0.0,0.0,0.0,0.0,0.0,0.0,0.0,0.0,0.0,0.0,0.0,0.0,0.0,1500,1500,0.0,0.0,40.0483355,-88.2327901667,0.0,0.0,0.0,0.0,0.0,0.0,0.0,0.0,0.0,0.0,0.0,0,0.0,0.0,0.0,0.0,90.0,90.0,60.0,89.82704925540001,89.5087432861,119.42987060549999,40.6039962769,15.0809879303,3.1799998282999997,0,2,25,1,31,176
85,1530630580131,2493131, RC,0,39.9586186,-88.445067899,0,0.0,0.0,0.0,0.0,0.0,0.0,0.0,0.0,0.0,0.0,0.0,0.0,0.0,1500,1500,0.0,0.0,40.0483355,-88.2327901667,0.0,0.0,0.0,0.0,0.0,0.0,0.0,0.0,0.0,0.0,0.0,0,0.0,0.0,0.0,0.0,90.0,90.0,60.0,89.82704925540001,89.5087432861,119.42987060549999,40.6039962769,15.0809879303,3.1799998282999997,0,2,25,1,31,178
86,1530630580181,2493181, RC,0,39.9586186,-88.445067899,0,0.0,0.0,0.0,0.0,0.0,0.0,0.0,0.0,0.0,0.0,0.0,0.0,0.0,1500,1500,0.0,0.0,40.0483355,-88.2327901667,0.0,0.0,0.0,0.0,0.0,0.0,0.0,0.0,0.0,0.0,0.0,0,0.0,0.0,0.0,0.0,90.0,90.0,60.0,89.82704925540001,89.5087432861,119.42987060549999,40.6039962769,15.0809879303,3.1799998282999997,0,2,25,1,32,179
87,1530630580232,2493232, RC,0,39.9586186,-88.445067899,0,0.0,0.0,0.0,0.0,0.0,0.0,0.0,0.0,0.0,0.0,0.0,0.0,0.0,1500,1500,0.0,0.0,40.0483355,-88.2327901667,0.0,0.0,0.0,0.0,0.0,0.0,0.0,0.0,0.0,0.0,0.0,0,0.0,0.0,0.0,0.0,90.0,90.0,60.0,89.82704925540001,89.5087432861,119.42987060549999,40.6039962769,15.0809879303,3.1799998282999997,0,2,25,1,31,181
88,1530630580282,2493282, RC,0,39.9586186,-88.445067899,0,0.0,0.0,0.0,0.0,0.0,0.0,0.0,0.0,0.0,0.0,0.0,0.0,0.0,1500,1500,0.0,0.0,40.0483355,-88.2327901667,0.0,0.0,0.0,0.0,0.0,0.0,0.0,0.0,0.0,0.0,0.0,0,0.0,0.0,0.0,0.0,90.0,79.0,60.0,89.82704925540001,89.5087432861,119.42987060549999,40.6039962769,15.0809879303,3.1799998282999997,0,2,25,1,32,183
89,1530630580333,2493333, RC,0,39.9586186,-88.445067899,0,0.0,0.0,0.0,0.0,0.0,0.0,0.0,0.0,0.0,0.0,0.0,0.0,0.0,1500,1500,0.0,0.0,40.0483355,-88.2327901667,0.0,0.0,0.0,0.0,0.0,0.0,0.0,0.0,0.0,0.0,0.0,0,0.0,0.0,0.0,0.0,90.0,79.0,60.0,89.82704925540001,90.7183227539,119.42987060549999,40.6039962769,15.0809879303,3.1799998282999997,0,2,25,1,32,185
90,1530630580383,2493383, RC,0,39.9586186,-88.445067899,0,0.0,0.0,0.0,0.0,0.0,0.0,0.0,0.0,0.0,0.0,0.0,0.0,0.0,1500,1500,0.0,0.0,40.0483355,-88.2327901667,0.0,0.0,0.0,0.0,0.0,0.0,0.0,0.0,0.0,0.0,0.0,0,0.0,0.0,0.0,0.0,90.0,79.0,60.0,89.82704925540001,99.69465637209998,119.42987060549999,40.6039962769,15.0809879303,3.1799998282999997,0,2,25,1,33,187
91,1530630580433,2493433, RC,0,39.9586186,-88.445067899,0,0.0,0.0,0.0,0.0,0.0,0.0,0.0,0.0,0.0,0.0,0.0,0.0,0.0,1500,1500,0.0,0.0,40.0483355,-88.2327901667,0.0,0.0,0.0,0.0,0.0,0.0,0.0,0.0,0.0,0.0,0.0,0,0.0,0.0,0.0,0.0,90.0,79.0,60.0,89.82704925540001,99.69465637209998,119.42987060549999,40.6039962769,15.0809879303,3.1799998282999997,0,2,25,1,31,189
92,1530630580484,2493484, RC,0,39.9586186,-88.445067899,0,0.0,0.0,0.0,0.0,0.0,0.0,0.0,0.0,0.0,0.0,0.0,0.0,0.0,1500,1500,0.0,0.0,40.0483355,-88.2327901667,0.0,0.0,0.0,0.0,0.0,0.0,0.0,0.0,0.0,0.0,0.0,0,0.0,0.0,0.0,0.0,90.0,76.0,60.0,89.82704925540001,100.07662963870001,119.42987060549999,40.6039962769,15.0809879303,3.1799998282999997,0,2,25,1,32,191
93,1530630580534,2493534, RC,0,39.9586186,-88.445067899,0,0.0,0.0,0.0,0.0,0.0,0.0,0.0,0.0,0.0,0.0,0.0,0.0,0.0,1500,1500,0.0,0.0,40.0483355,-88.2327901667,0.0,0.0,0.0,0.0,0.0,0.0,0.0,0.0,0.0,0.0,0.0,0,0.0,0.0,0.0,0.0,90.0,76.0,60.0,89.82704925540001,100.7132492065,119.3662033081,40.6039962769,15.0809879303,3.1799998282999997,0,2,25,1,32,193
94,1530630580585,2493585, RC,0,39.9586186,-88.445067899,0,0.0,0.0,0.0,0.0,0.0,0.0,0.0,0.0,0.0,0.0,0.0,0.0,0.0,1500,1500,0.0,0.0,40.0483355,-88.2327901667,0.0,0.0,0.0,0.0,0.0,0.0,0.0,0.0,0.0,0.0,0.0,0,0.0,0.0,0.0,0.0,90.0,76.0,60.0,89.82704925540001,104.2783203125,119.2388916016,40.6039962769,15.0809879303,3.1799998282999997,0,2,25,1,31,195
95,1530630580635,2493635, RC,0,39.9586186,-88.445067899,0,0.0,0.0,0.0,0.0,0.0,0.0,0.0,0.0,0.0,0.0,0.0,0.0,0.0,1500,1500,0.0,0.0,40.0483355,-88.2327901667,0.0,0.0,0.0,0.0,0.0,0.0,0.0,0.0,0.0,0.0,0.0,0,0.0,0.0,0.0,0.0,90.0,70.0,60.0,89.82704925540001,104.4693069458,119.2388916016,40.6039962769,15.0809879303,3.1799998282999997,0,2,25,1,32,197
96,1530630580685,2493685, RC,0,39.9586186,-88.445067899,0,0.0,0.0,0.0,0.0,0.0,0.0,0.0,0.0,0.0,0.0,0.0,0.0,0.0,1500,1500,0.0,0.0,40.0483355,-88.2327901667,0.0,0.0,0.0,0.0,0.0,0.0,0.0,0.0,0.0,0.0,0.0,0,0.0,0.0,0.0,0.0,90.0,64.0,60.0,89.82704925540001,105.10591888430001,119.2388916016,40.6039962769,15.0809879303,3.1799998282999997,0,2,25,1,27,199
97,1530630580736,2493736, RC,0,39.9586186,-88.445067899,0,0.0,0.0,0.0,0.0,0.0,0.0,0.0,0.0,0.0,0.0,0.0,0.0,0.0,1500,1500,0.0,0.0,40.0483355,-88.2327901667,0.0,0.0,0.0,0.0,0.0,0.0,0.0,0.0,0.0,0.0,0.0,0,0.0,0.0,0.0,0.0,90.0,64.0,60.0,89.82704925540001,111.408454895,119.2388916016,40.6039962769,15.0809879303,3.1799998282999997,0,2,25,1,29,201
98,1530630580786,2493786, RC,0,39.9586186,-88.445067899,0,0.0,0.0,0.0,0.0,0.0,0.0,0.0,0.0,0.0,0.0,0.0,0.0,0.0,1500,1500,0.0,0.0,40.0483371667,-88.2327898333,0.0,0.0,0.0,0.0,0.0,0.0,0.0,0.0,0.0,0.0,0.0,0,0.0,0.0,0.0,0.0,90.0,63.0,60.0,89.82704925540001,115.0371856689,119.2388916016,40.6039962769,15.0809879303,3.1799998282999997,0,2,25,1,32,203
99,1530630580836,2493836, RC,0,39.9586186,-88.445067899,0,0.0,0.0,0.0,0.0,0.0,0.0,0.0,0.0,0.0,0.0,0.0,0.0,0.0,1500,1500,0.0,0.0,40.0483371667,-88.2327898333,0.0,0.0,0.0,0.0,0.0,0.0,0.0,0.0,0.0,0.0,0.0,0,0.0,0.0,0.0,0.0,90.0,63.0,60.0,89.82704925540001,115.0371856689,119.1752166748,40.6039962769,15.0809879303,3.1799998282999997,0,2,25,1,33,205
100,1530630580887,2493887, RC,0,39.9586186,-88.445067899,0,0.0,0.0,0.0,0.0,0.0,0.0,0.0,0.0,0.0,0.0,0.0,0.0,0.0,1500,1500,0.0,0.0,40.0483371667,-88.2327898333,0.0,0.0,0.0,0.0,0.0,0.0,0.0,0.0,0.0,0.0,0.0,0,0.0,0.0,0.0,0.0,90.0,61.0,60.0,89.82704925540001,117.2653579712,119.1752166748,40.6039962769,15.0809879303,3.1799998282999997,0,2,25,1,31,207
101,1530630580937,2493937, RC,0,39.9586186,-88.445067899,0,0.0,0.0,0.0,0.0,0.0,0.0,0.0,0.0,0.0,0.0,0.0,0.0,0.0,1500,1500,0.0,0.0,40.0483371667,-88.2327898333,0.0,0.0,0.0,0.0,0.0,0.0,0.0,0.0,0.0,0.0,0.0,0,0.0,0.0,0.0,0.0,90.0,61.0,60.0,89.82704925540001,116.9470443726,119.1752166748,40.6039962769,15.0809879303,3.1799998282999997,0,2,25,1,29,208
102,1530630580987,2493987, RC,0,39.9586186,-88.445067899,0,0.0,0.0,0.0,0.0,0.0,0.0,0.0,0.0,0.0,0.0,0.0,0.0,0.0,1500,1500,0.0,0.0,40.0483371667,-88.2327898333,0.0,0.0,0.0,0.0,0.0,0.0,0.0,0.0,0.0,0.0,0.0,0,0.0,0.0,0.0,0.0,90.0,61.0,60.0,89.82704925540001,118.4749450684,119.1752166748,40.6039962769,15.0809879303,3.1799998282999997,0,2,25,1,33,210
103,1530630581038,2494038, RC,0,39.9586186,-88.445067899,0,0.0,0.0,0.0,0.0,0.0,0.0,0.0,0.0,0.0,0.0,0.0,0.0,0.0,1500,1500,0.0,0.0,40.0483371667,-88.2327898333,0.0,0.0,0.0,0.0,0.0,0.0,0.0,0.0,0.0,0.0,0.0,0,0.0,0.0,0.0,0.0,90.0,61.0,60.0,89.82704925540001,118.856918335,119.1752166748,40.6039962769,15.0809879303,3.1799998282999997,0,2,25,1,29,212
104,1530630581088,2494088, RC,0,39.9586186,-88.445067899,0,0.0,0.0,0.0,0.0,0.0,0.0,0.0,0.0,0.0,0.0,0.0,0.0,0.0,1500,1500,0.0,0.0,40.0483371667,-88.2327898333,0.0,0.0,0.0,0.0,0.0,0.0,0.0,0.0,0.0,0.0,0.0,0,0.0,0.0,0.0,0.0,90.0,58.0,60.0,89.82704925540001,118.856918335,119.1752166748,40.6039962769,15.0764131546,3.3400001526,0,2,25,1,32,214
105,1530630581138,2494138, RC,0,39.9586186,-88.445067899,0,0.0,0.0,0.0,0.0,0.0,0.0,0.0,0.0,0.0,0.0,0.0,0.0,0.0,1500,1500,0.0,0.0,40.0483371667,-88.2327898333,0.0,0.0,0.0,0.0,0.0,0.0,0.0,0.0,0.0,0.0,0.0,0,0.0,0.0,0.0,0.0,90.0,58.0,60.0,89.82704925540001,118.9205703735,119.1752166748,40.6039962769,15.0764131546,3.3400001526,0,2,25,1,31,216
106,1530630581189,2494189, RC,0,39.9586186,-88.445067899,0,0.0,0.0,0.0,0.0,0.0,0.0,0.0,0.0,0.0,0.0,0.0,0.0,0.0,1500,1500,0.0,0.0,40.0483371667,-88.2327898333,0.0,0.0,0.0,0.0,0.0,0.0,0.0,0.0,0.0,0.0,0.0,0,0.0,0.0,0.0,0.0,90.0,58.0,60.0,89.82704925540001,121.7217025757,119.1752166748,40.6039962769,15.0764131546,3.3400001526,0,2,25,1,29,218
107,1530630581239,2494239, RC,0,39.9586186,-88.445067899,0,0.0,0.0,0.0,0.0,0.0,0.0,0.0,0.0,0.0,0.0,0.0,0.0,0.0,1500,1500,0.0,0.0,40.0483371667,-88.2327898333,0.0,0.0,0.0,0.0,0.0,0.0,0.0,0.0,0.0,0.0,0.0,0,0.0,0.0,0.0,0.0,90.0,58.0,60.0,89.82704925540001,121.7853622437,119.1752166748,40.6039962769,15.0764131546,3.3400001526,0,2,25,1,31,220
108,1530630581289,2494289, RC,0,39.9586186,-88.445067899,0,0.0,0.0,0.0,0.0,0.0,0.0,0.0,0.0,0.0,0.0,0.0,0.0,0.0,1500,1500,0.0,0.0,40.0483371667,-88.2327898333,0.0,0.0,0.0,0.0,0.0,0.0,0.0,0.0,0.0,0.0,0.0,0,0.0,0.0,0.0,0.0,90.0,58.0,60.0,89.82704925540001,121.6580352783,119.1752166748,40.6039962769,15.0764131546,3.3400001526,0,2,25,1,28,222
109,1530630581340,2494340, RC,0,39.9586186,-88.445067899,0,0.0,0.0,0.0,0.0,0.0,0.0,0.0,0.0,0.0,0.0,0.0,0.0,0.0,1500,1500,0.0,0.0,40.0483371667,-88.2327898333,0.0,0.0,0.0,0.0,0.0,0.0,0.0,0.0,0.0,0.0,0.0,0,0.0,0.0,0.0,0.0,90.0,58.0,60.0,89.82704925540001,121.6580352783,119.1752166748,40.6039962769,15.0764131546,3.3400001526,0,2,25,1,30,224
110,1530630581390,2494390, RC,0,39.9586186,-88.445067899,0,0.0,0.0,0.0,0.0,0.0,0.0,0.0,0.0,0.0,0.0,0.0,0.0,0.0,1500,1500,0.0,0.0,40.0483371667,-88.2327898333,0.0,0.0,0.0,0.0,0.0,0.0,0.0,0.0,0.0,0.0,0.0,0,0.0,0.0,0.0,0.0,90.0,58.0,60.0,89.82704925540001,121.6580352783,119.1752166748,40.6039962769,15.0764131546,3.3400001526,0,2,25,1,30,226
111,1530630581441,2494441, RC,0,39.9586186,-88.445067899,0,0.0,0.0,0.0,0.0,0.0,0.0,0.0,0.0,0.0,0.0,0.0,0.0,0.0,1500,1500,0.0,0.0,40.0483371667,-88.2327898333,0.0,0.0,0.0,0.0,0.0,0.0,0.0,0.0,0.0,0.0,0.0,0,0.0,0.0,0.0,0.0,90.0,58.0,60.0,89.82704925540001,121.6580352783,119.1752166748,40.6039962769,15.0764131546,3.3400001526,0,2,25,1,29,228
112,1530630581491,2494491, RC,0,39.9586186,-88.445067899,0,0.0,0.0,0.0,0.0,0.0,0.0,0.0,0.0,0.0,0.0,0.0,0.0,0.0,1500,1500,0.0,0.0,40.0483371667,-88.2327898333,0.0,0.0,0.0,0.0,0.0,0.0,0.0,0.0,0.0,0.0,0.0,0,0.0,0.0,0.0,0.0,90.0,58.0,60.0,89.82704925540001,121.6580352783,119.1752166748,40.6039962769,15.0764131546,3.3400001526,0,2,25,1,31,230
113,1530630581541,2494541, RC,0,39.9586186,-88.445067899,0,0.0,0.0,0.0,0.0,0.0,0.0,0.0,0.0,0.0,0.0,0.0,0.0,0.0,1500,1500,0.0,0.0,40.0483371667,-88.2327898333,0.0,0.0,0.0,0.0,0.0,0.0,0.0,0.0,0.0,0.0,0.0,0,0.0,0.0,0.0,0.0,90.0,58.0,60.0,89.82704925540001,121.6580352783,119.1752166748,40.6039962769,15.0764131546,3.3400001526,0,2,25,1,33,231
114,1530630581592,2494592, RC,0,39.9586186,-88.445067899,0,0.0,0.0,0.0,0.0,0.0,0.0,0.0,0.0,0.0,0.0,0.0,0.0,0.0,1500,1500,0.0,0.0,40.0483371667,-88.2327898333,0.0,0.0,0.0,0.0,0.0,0.0,0.0,0.0,0.0,0.0,0.0,0,0.0,0.0,0.0,0.0,90.0,58.0,60.0,89.82704925540001,121.6580352783,119.1752166748,40.6039962769,15.0764131546,3.3400001526,0,2,25,1,33,233
115,1530630581642,2494642, RC,0,39.9586186,-88.445067899,0,0.0,0.0,0.0,0.0,0.0,0.0,0.0,0.0,0.0,0.0,0.0,0.0,0.0,1500,1500,0.0,0.0,40.0483371667,-88.2327898333,0.0,0.0,0.0,0.0,0.0,0.0,0.0,0.0,0.0,0.0,0.0,0,0.0,0.0,0.0,0.0,90.0,58.0,60.0,89.82704925540001,121.6580352783,119.1752166748,40.6039962769,15.0764131546,3.3400001526,0,2,25,1,31,235
116,1530630581692,2494692, RC,0,39.9586186,-88.445067899,0,0.0,0.0,0.0,0.0,0.0,0.0,0.0,0.0,0.0,0.0,0.0,0.0,0.0,1500,1500,0.0,0.0,40.0483371667,-88.2327898333,0.0,0.0,0.0,0.0,0.0,0.0,0.0,0.0,0.0,0.0,0.0,0,0.0,0.0,0.0,0.0,90.0,58.0,60.0,89.82704925540001,121.6580352783,119.1752166748,40.6039962769,15.0764131546,3.3400001526,0,2,25,1,31,237
117,1530630581743,2494743, RC,0,39.9586186,-88.445067899,0,0.0,0.0,0.0,0.0,0.0,0.0,0.0,0.0,0.0,0.0,0.0,0.0,0.0,1500,1500,0.0,0.0,40.0483371667,-88.2327898333,0.0,0.0,0.0,0.0,0.0,0.0,0.0,0.0,0.0,0.0,0.0,0,0.0,0.0,0.0,0.0,90.0,58.0,60.0,89.82704925540001,121.6580352783,119.1752166748,40.6039962769,15.0764131546,3.3400001526,0,2,25,1,33,239
118,1530630581793,2494793, RC,0,39.9586186,-88.445067899,0,0.0,0.0,0.0,0.0,0.0,0.0,0.0,0.0,0.0,0.0,0.0,0.0,0.0,1500,1500,0.0,0.0,40.0483371667,-88.2327898333,0.0,0.0,0.0,0.0,0.0,0.0,0.0,0.0,0.0,0.0,0.0,0,0.0,0.0,0.0,0.0,90.0,58.0,60.0,89.82704925540001,121.6580352783,119.1752166748,40.6039962769,15.0764131546,3.3400001526,0,2,25,1,32,241
119,1530630581843,2494843, RC,0,39.9586186,-88.445067899,0,0.0,0.0,0.0,0.0,0.0,0.0,0.0,0.0,0.0,0.0,0.0,0.0,0.0,1500,1500,0.0,0.0,40.0483398333,-88.2327875,0.0,0.0,0.0,0.0,0.0,0.0,0.0,0.0,0.0,0.0,0.0,0,0.0,0.0,0.0,0.0,90.0,58.0,60.0,89.82704925540001,121.6580352783,119.1752166748,40.6039962769,15.0764131546,3.3400001526,0,2,25,1,33,243
120,1530630581894,2494894, RC,0,39.9586186,-88.445067899,0,0.0,0.0,0.0,0.0,0.0,0.0,0.0,0.0,0.0,0.0,0.0,0.0,0.0,1500,1500,0.0,0.0,40.0483398333,-88.2327875,0.0,0.0,0.0,0.0,0.0,0.0,0.0,0.0,0.0,0.0,0.0,0,0.0,0.0,0.0,0.0,90.0,60.0,60.0,89.82704925540001,121.6580352783,119.1752166748,40.6039962769,15.0764131546,3.3400001526,0,2,25,1,32,245
121,1530630581944,2494944, RC,0,39.9586186,-88.445067899,0,0.0,0.0,0.0,0.0,0.0,0.0,0.0,0.0,0.0,0.0,0.0,0.0,0.0,1500,1500,0.0,0.0,40.0483398333,-88.2327875,0.0,0.0,0.0,0.0,0.0,0.0,0.0,0.0,0.0,0.0,0.0,0,0.0,0.0,0.0,0.0,90.0,60.0,60.0,89.82704925540001,121.3397293091,119.1752166748,40.6039962769,15.0764131546,3.3400001526,0,2,25,1,31,247
122,1530630581994,2494994, RC,0,39.9586186,-88.445067899,0,0.0,0.0,0.0,0.0,0.0,0.0,0.0,0.0,0.0,0.0,0.0,0.0,0.0,1500,1500,0.0,0.0,40.0483398333,-88.2327875,0.0,0.0,0.0,0.0,0.0,0.0,0.0,0.0,0.0,0.0,0.0,0,0.0,0.0,0.0,0.0,90.0,60.0,60.0,89.82704925540001,119.62085723879999,119.1752166748,40.6039962769,15.0764131546,3.3400001526,0,2,25,1,32,249
123,1530630582045,2495045, RC,0,39.9586186,-88.445067899,0,0.0,0.0,0.0,0.0,0.0,0.0,0.0,0.0,0.0,0.0,0.0,0.0,0.0,1500,1500,0.0,0.0,40.0483398333,-88.2327875,0.0,0.0,0.0,0.0,0.0,0.0,0.0,0.0,0.0,0.0,0.0,0,0.0,0.0,0.0,0.0,90.0,60.0,60.0,89.82704925540001,118.856918335,119.1752166748,40.6039962769,15.0764131546,3.3400001526,0,2,25,1,30,251
124,1530630582095,2495095, RC,0,39.9586186,-88.445067899,0,0.0,0.0,0.0,0.0,0.0,0.0,0.0,0.0,0.0,0.0,0.0,0.0,0.0,1500,1500,0.0,0.0,40.0483398333,-88.2327875,0.0,0.0,0.0,0.0,0.0,0.0,0.0,0.0,0.0,0.0,0.0,0,0.0,0.0,0.0,0.0,90.0,60.0,60.0,89.82704925540001,119.3662033081,119.1752166748,40.6039962769,15.0718812943,3.5699999332,0,2,25,1,30,253
125,1530630582145,2495145, RC,0,39.9586186,-88.445067899,0,0.0,0.0,0.0,0.0,0.0,0.0,0.0,0.0,0.0,0.0,0.0,0.0,0.0,1500,1500,0.0,0.0,40.0483398333,-88.2327875,0.0,0.0,0.0,0.0,0.0,0.0,0.0,0.0,0.0,0.0,0.0,0,0.0,0.0,0.0,0.0,90.0,60.0,60.0,89.82704925540001,119.42987060549999,119.1752166748,40.6039962769,15.0718812943,3.5699999332,0,2,25,1,28,254
126,1530630582196,2495196, RC,0,39.9586186,-88.445067899,0,0.0,0.0,0.0,0.0,0.0,0.0,0.0,0.0,0.0,0.0,0.0,0.0,0.0,1500,1500,0.0,0.0,40.0483398333,-88.2327875,0.0,0.0,0.0,0.0,0.0,0.0,0.0,0.0,0.0,0.0,0.0,0,0.0,0.0,0.0,0.0,90.0,60.0,60.0,89.82704925540001,119.42987060549999,119.1752166748,40.6039962769,15.0718812943,3.5699999332,0,2,25,1,30,256
127,1530630582246,2495246, RC,0,39.9586186,-88.445067899,0,0.0,0.0,0.0,0.0,0.0,0.0,0.0,0.0,0.0,0.0,0.0,0.0,0.0,1500,1500,0.0,0.0,40.0483398333,-88.2327875,0.0,0.0,0.0,0.0,0.0,0.0,0.0,0.0,0.0,0.0,0.0,0,0.0,0.0,0.0,0.0,90.0,60.0,60.0,89.82704925540001,119.42987060549999,119.1752166748,40.6039962769,15.0718812943,3.5699999332,0,2,25,1,25,258
128,1530630582297,2495297, RC,0,39.9586186,-88.445067899,0,0.0,0.0,0.0,0.0,0.0,0.0,0.0,0.0,0.0,0.0,0.0,0.0,0.0,1500,1500,0.0,0.0,40.0483398333,-88.2327875,0.0,0.0,0.0,0.0,0.0,0.0,0.0,0.0,0.0,0.0,0.0,0,0.0,0.0,0.0,0.0,90.0,60.0,60.0,89.82704925540001,119.42987060549999,119.1752166748,40.6039962769,15.0718812943,3.5699999332,0,2,25,1,30,260
129,1530630582347,2495347, RC,0,39.9586186,-88.445067899,0,0.0,0.0,0.0,0.0,0.0,0.0,0.0,0.0,0.0,0.0,0.0,0.0,0.0,1500,1500,0.0,0.0,40.0483398333,-88.2327875,0.0,0.0,0.0,0.0,0.0,0.0,0.0,0.0,0.0,0.0,0.0,0,0.0,0.0,0.0,0.0,90.0,60.0,60.0,89.82704925540001,119.42987060549999,119.1752166748,40.6039962769,15.0718812943,3.5699999332,0,2,25,1,27,262
130,1530630582397,2495397, RC,0,39.9586186,-88.445067899,0,0.0,0.0,0.0,0.0,0.0,0.0,0.0,0.0,0.0,0.0,0.0,0.0,0.0,1500,1500,0.0,0.0,40.0483398333,-88.2327875,0.0,0.0,0.0,0.0,0.0,0.0,0.0,0.0,0.0,0.0,0.0,0,0.0,0.0,0.0,0.0,90.0,60.0,60.0,89.82704925540001,119.3662033081,119.1752166748,40.6039962769,15.0718812943,3.5699999332,0,2,25,1,28,264
131,1530630582448,2495448, RC,0,39.9586186,-88.445067899,0,0.0,0.0,0.0,0.0,0.0,0.0,0.0,0.0,0.0,0.0,0.0,0.0,0.0,1500,1500,0.0,0.0,40.0483398333,-88.2327875,0.0,0.0,0.0,0.0,0.0,0.0,0.0,0.0,0.0,0.0,0.0,0,0.0,0.0,0.0,0.0,90.0,60.0,60.0,89.82704925540001,119.3662033081,119.1752166748,40.6039962769,15.0718812943,3.5699999332,0,2,25,1,27,266
132,1530630582498,2495498, RC,0,39.9586186,-88.445067899,0,0.0,0.0,0.0,0.0,0.0,0.0,0.0,0.0,0.0,0.0,0.0,0.0,0.0,1500,1500,0.0,0.0,40.0483398333,-88.2327875,0.0,0.0,0.0,0.0,0.0,0.0,0.0,0.0,0.0,0.0,0.0,0,0.0,0.0,0.0,0.0,90.0,60.0,60.0,89.82704925540001,119.42987060549999,119.1752166748,40.6039962769,15.0718812943,3.5699999332,0,2,25,1,28,268
133,1530630582548,2495548, RC,0,39.9586186,-88.445067899,0,0.0,0.0,0.0,0.0,0.0,0.0,0.0,0.0,0.0,0.0,0.0,0.0,0.0,1500,1500,0.0,0.0,40.0483398333,-88.2327875,0.0,0.0,0.0,0.0,0.0,0.0,0.0,0.0,0.0,0.0,0.0,0,0.0,0.0,0.0,0.0,90.0,60.0,60.0,90.01803588870001,119.42987060549999,119.1752166748,40.6039962769,15.0718812943,3.5699999332,0,2,25,1,28,270
134,1530630582599,2495599, RC,0,39.9586186,-88.445067899,0,0.0,0.0,0.0,0.0,0.0,0.0,0.0,0.0,0.0,0.0,0.0,0.0,0.0,1500,1500,0.0,0.0,40.0483398333,-88.2327875,0.0,0.0,0.0,0.0,0.0,0.0,0.0,0.0,0.0,0.0,0.0,0,0.0,0.0,0.0,0.0,90.0,60.0,60.0,90.01803588870001,119.3662033081,119.1752166748,40.6039962769,15.0718812943,3.5699999332,0,2,25,1,28,272
135,1530630582649,2495649, RC,0,39.9586186,-88.445067899,0,0.0,0.0,0.0,0.0,0.0,0.0,0.0,0.0,0.0,0.0,0.0,0.0,0.0,1500,1500,0.0,0.0,40.0483398333,-88.2327875,0.0,0.0,0.0,0.0,0.0,0.0,0.0,0.0,0.0,0.0,0.0,0,0.0,0.0,0.0,0.0,90.0,60.0,60.0,90.01803588870001,119.42987060549999,119.1752166748,40.6039962769,15.0718812943,3.5699999332,0,2,25,1,29,274
136,1530630582699,2495699, RC,0,39.9586186,-88.445067899,0,0.0,0.0,0.0,0.0,0.0,0.0,0.0,0.0,0.0,0.0,0.0,0.0,0.0,1500,1500,0.0,0.0,40.0483398333,-88.2327875,0.0,0.0,0.0,0.0,0.0,0.0,0.0,0.0,0.0,0.0,0.0,0,0.0,0.0,0.0,0.0,90.0,60.0,60.0,90.01803588870001,119.42987060549999,119.1752166748,40.6039962769,15.0718812943,3.5699999332,0,2,25,1,28,276
137,1530630582750,2495750, RC,0,39.9586186,-88.445067899,0,0.0,0.0,0.0,0.0,0.0,0.0,0.0,0.0,0.0,0.0,0.0,0.0,0.0,1500,1500,0.0,0.0,40.0483398333,-88.2327875,0.0,0.0,0.0,0.0,0.0,0.0,0.0,0.0,0.0,0.0,0.0,0,0.0,0.0,0.0,0.0,90.0,60.0,60.0,90.01803588870001,119.3662033081,119.1752166748,40.6039962769,15.0718812943,3.5699999332,0,2,25,1,29,277
138,1530630582800,2495800, RC,0,39.9586186,-88.445067899,0,0.0,0.0,0.0,0.0,0.0,0.0,0.0,0.0,0.0,0.0,0.0,0.0,0.0,1500,1500,0.0,0.0,40.0483506667,-88.2327935,0.0,0.0,0.0,0.0,0.0,0.0,0.0,0.0,0.0,0.0,0.0,0,0.0,0.0,0.0,0.0,90.0,60.0,60.0,90.01803588870001,119.42987060549999,119.1752166748,40.6039962769,15.0718812943,3.5699999332,0,2,25,1,28,279
139,1530630582850,2495850, RC,0,39.9586186,-88.445067899,0,0.0,0.0,0.0,0.0,0.0,0.0,0.0,0.0,0.0,0.0,0.0,0.0,0.0,1500,1500,0.0,0.0,40.0483506667,-88.2327935,0.0,0.0,0.0,0.0,0.0,0.0,0.0,0.0,0.0,0.0,0.0,0,0.0,0.0,0.0,0.0,90.0,60.0,60.0,90.01803588870001,119.42987060549999,119.1752166748,40.6039962769,15.0718812943,3.5699999332,0,2,25,1,32,281
140,1530630582901,2495901, RC,0,39.9586186,-88.445067899,0,0.0,0.0,0.0,0.0,0.0,0.0,0.0,0.0,0.0,0.0,0.0,0.0,0.0,1500,1500,0.0,0.0,40.0483506667,-88.2327935,0.0,0.0,0.0,0.0,0.0,0.0,0.0,0.0,0.0,0.0,0.0,0,0.0,0.0,0.0,0.0,90.0,60.0,60.0,90.01803588870001,119.42987060549999,119.1752166748,40.6039962769,15.0718812943,3.5699999332,0,2,25,1,31,283
141,1530630582951,2495951, RC,0,39.9586186,-88.445067899,0,0.0,0.0,0.0,0.0,0.0,0.0,0.0,0.0,0.0,0.0,0.0,0.0,0.0,1500,1500,0.0,0.0,40.0483506667,-88.2327935,0.0,0.0,0.0,0.0,0.0,0.0,0.0,0.0,0.0,0.0,0.0,0,0.0,0.0,0.0,0.0,90.0,60.0,60.0,90.01803588870001,119.3662033081,119.1752166748,40.6039962769,15.0718812943,3.5699999332,0,2,25,1,32,285
142,1530630583001,2496001, RC,0,39.9586186,-88.445067899,0,0.0,0.0,0.0,0.0,0.0,0.0,0.0,0.0,0.0,0.0,0.0,0.0,0.0,1500,1500,0.0,0.0,40.0483506667,-88.2327935,0.0,0.0,0.0,0.0,0.0,0.0,0.0,0.0,0.0,0.0,0.0,0,0.0,0.0,0.0,0.0,90.0,60.0,60.0,90.01803588870001,119.3662033081,119.1752166748,40.6039962769,15.0718812943,3.5699999332,0,2,25,1,28,287
143,1530630583052,2496052, RC,0,39.9586186,-88.445067899,0,0.0,0.0,0.0,0.0,0.0,0.0,0.0,0.0,0.0,0.0,0.0,0.0,0.0,1500,1500,0.0,0.0,40.0483506667,-88.2327935,0.0,0.0,0.0,0.0,0.0,0.0,0.0,0.0,0.0,0.0,0.0,0,0.0,0.0,0.0,0.0,90.0,60.0,60.0,90.01803588870001,119.3662033081,119.1752166748,40.6039962769,15.0718812943,3.5699999332,0,2,25,1,27,289
144,1530630583102,2496102, RC,0,39.9586186,-88.445067899,0,0.0,0.0,0.0,0.0,0.0,0.0,0.0,0.0,0.0,0.0,0.0,0.0,0.0,1500,1500,0.0,0.0,40.0483506667,-88.2327935,0.0,0.0,0.0,0.0,0.0,0.0,0.0,0.0,0.0,0.0,0.0,0,0.0,0.0,0.0,0.0,90.0,60.0,60.0,90.01803588870001,119.3662033081,119.1752166748,40.6039962769,15.0674438477,3.6200001239999997,0,2,25,1,26,291
145,1530630583152,2496152, RC,0,39.9586186,-88.445067899,0,0.0,0.0,0.0,0.0,0.0,0.0,0.0,0.0,0.0,0.0,0.0,0.0,0.0,1500,1500,0.0,0.0,40.0483506667,-88.2327935,0.0,0.0,0.0,0.0,0.0,0.0,0.0,0.0,0.0,0.0,0.0,0,0.0,0.0,0.0,0.0,90.0,60.0,60.0,90.01803588870001,119.3662033081,119.1752166748,40.6039962769,15.0674438477,3.6200001239999997,0,2,25,1,31,293
146,1530630583203,2496203, RC,0,39.9586186,-88.445067899,0,0.0,0.0,0.0,0.0,0.0,0.0,0.0,0.0,0.0,0.0,0.0,0.0,0.0,1500,1500,0.0,0.0,40.0483506667,-88.2327935,0.0,0.0,0.0,0.0,0.0,0.0,0.0,0.0,0.0,0.0,0.0,0,0.0,0.0,0.0,0.0,90.0,60.0,60.0,90.01803588870001,119.42987060549999,119.1752166748,40.6039962769,15.0674438477,3.6200001239999997,0,2,25,1,28,295
147,1530630583253,2496253, RC,0,39.9586186,-88.445067899,0,0.0,0.0,0.0,0.0,0.0,0.0,0.0,0.0,0.0,0.0,0.0,0.0,0.0,1500,1500,0.0,0.0,40.0483506667,-88.2327935,0.0,0.0,0.0,0.0,0.0,0.0,0.0,0.0,0.0,0.0,0.0,0,0.0,0.0,0.0,0.0,90.0,60.0,60.0,90.01803588870001,119.42987060549999,119.1752166748,40.6039962769,15.0674438477,3.6200001239999997,0,2,25,1,28,297
148,1530630583304,2496304, RC,0,39.9586186,-88.445067899,0,0.0,0.0,0.0,0.0,0.0,0.0,0.0,0.0,0.0,0.0,0.0,0.0,0.0,1500,1500,0.0,0.0,40.0483506667,-88.2327935,0.0,0.0,0.0,0.0,0.0,0.0,0.0,0.0,0.0,0.0,0.0,0,0.0,0.0,0.0,0.0,90.0,60.0,60.0,90.01803588870001,119.42987060549999,119.1752166748,40.6039962769,15.0674438477,3.6200001239999997,0,2,25,1,31,298
149,1530630583354,2496354, RC,0,39.9586186,-88.445067899,0,0.0,0.0,0.0,0.0,0.0,0.0,0.0,0.0,0.0,0.0,0.0,0.0,0.0,1500,1500,0.0,0.0,40.0483506667,-88.2327935,0.0,0.0,0.0,0.0,0.0,0.0,0.0,0.0,0.0,0.0,0.0,0,0.0,0.0,0.0,0.0,90.0,60.0,60.0,90.01803588870001,119.42987060549999,119.1752166748,40.6039962769,15.0674438477,3.6200001239999997,0,2,25,1,29,300
150,1530630583404,2496404, RC,0,39.9586186,-88.445067899,0,0.0,0.0,0.0,0.0,0.0,0.0,0.0,0.0,0.0,0.0,0.0,0.0,0.0,1500,1500,0.0,0.0,40.0483506667,-88.2327935,0.0,0.0,0.0,0.0,0.0,0.0,0.0,0.0,0.0,0.0,0.0,0,0.0,0.0,0.0,0.0,90.0,60.0,60.0,90.01803588870001,119.42987060549999,119.1752166748,40.6039962769,15.0674438477,3.6200001239999997,0,2,25,1,29,302
151,1530630583455,2496455, RC,0,39.9586186,-88.445067899,0,0.0,0.0,0.0,0.0,0.0,0.0,0.0,0.0,0.0,0.0,0.0,0.0,0.0,1500,1500,0.0,0.0,40.0483506667,-88.2327935,0.0,0.0,0.0,0.0,0.0,0.0,0.0,0.0,0.0,0.0,0.0,0,0.0,0.0,0.0,0.0,90.0,60.0,60.0,90.01803588870001,119.42987060549999,119.1752166748,40.6039962769,15.0674438477,3.6200001239999997,0,2,25,1,27,304
152,1530630583505,2496505, RC,0,39.9586186,-88.445067899,0,0.0,0.0,0.0,0.0,0.0,0.0,0.0,0.0,0.0,0.0,0.0,0.0,0.0,1500,1500,0.0,0.0,40.0483506667,-88.2327935,0.0,0.0,0.0,0.0,0.0,0.0,0.0,0.0,0.0,0.0,0.0,0,0.0,0.0,0.0,0.0,90.0,60.0,60.0,90.01803588870001,119.42987060549999,119.1752166748,40.6039962769,15.0674438477,3.6200001239999997,0,2,25,1,28,306
153,1530630583555,2496555, RC,0,39.9586186,-88.445067899,0,0.0,0.0,0.0,0.0,0.0,0.0,0.0,0.0,0.0,0.0,0.0,0.0,0.0,1500,1500,0.0,0.0,40.0483506667,-88.2327935,0.0,0.0,0.0,0.0,0.0,0.0,0.0,0.0,0.0,0.0,0.0,0,0.0,0.0,0.0,0.0,90.0,60.0,60.0,90.01803588870001,119.42987060549999,119.1752166748,40.6039962769,15.0674438477,3.6200001239999997,0,2,25,1,30,308
154,1530630583606,2496606, RC,0,39.9586186,-88.445067899,0,0.0,0.0,0.0,0.0,0.0,0.0,0.0,0.0,0.0,0.0,0.0,0.0,0.0,1500,1500,0.0,0.0,40.0483506667,-88.2327935,0.0,0.0,0.0,0.0,0.0,0.0,0.0,0.0,0.0,0.0,0.0,0,0.0,0.0,0.0,0.0,90.0,60.0,60.0,90.01803588870001,119.42987060549999,119.1752166748,40.6039962769,15.0674438477,3.6200001239999997,0,2,25,1,31,310
155,1530630583656,2496656, RC,0,39.9586186,-88.445067899,0,0.0,0.0,0.0,0.0,0.0,0.0,0.0,0.0,0.0,0.0,0.0,0.0,0.0,1500,1500,0.0,0.0,40.0483506667,-88.2327935,0.0,0.0,0.0,0.0,0.0,0.0,0.0,0.0,0.0,0.0,0.0,0,0.0,0.0,0.0,0.0,90.0,60.0,60.0,90.01803588870001,119.42987060549999,119.1752166748,40.6039962769,15.0674438477,3.6200001239999997,0,2,25,1,33,312
156,1530630583706,2496706, RC,0,39.9586186,-88.445067899,0,0.0,0.0,0.0,0.0,0.0,0.0,0.0,0.0,0.0,0.0,0.0,0.0,0.0,1500,1500,0.0,0.0,40.0483506667,-88.2327935,0.0,0.0,0.0,0.0,0.0,0.0,0.0,0.0,0.0,0.0,0.0,0,0.0,0.0,0.0,0.0,90.0,60.0,60.0,90.01803588870001,119.42987060549999,119.1752166748,40.6039962769,15.0674438477,3.6200001239999997,0,2,25,1,30,314
157,1530630583757,2496757, RC,0,39.9586186,-88.445067899,0,0.0,0.0,0.0,0.0,0.0,0.0,0.0,0.0,0.0,0.0,0.0,0.0,0.0,1500,1500,0.0,0.0,40.0483506667,-88.2327935,0.0,0.0,0.0,0.0,0.0,0.0,0.0,0.0,0.0,0.0,0.0,0,0.0,0.0,0.0,0.0,90.0,60.0,60.0,90.01803588870001,119.42987060549999,119.1752166748,40.6039962769,15.0674438477,3.6200001239999997,0,2,25,1,33,316
158,1530630583807,2496807, RC,0,39.9586186,-88.445067899,0,0.0,0.0,0.0,0.0,0.0,0.0,0.0,0.0,0.0,0.0,0.0,0.0,0.0,1500,1500,0.0,0.0,40.048352,-88.2327886667,0.0,0.0,0.0,0.0,0.0,0.0,0.0,0.0,0.0,0.0,0.0,0,0.0,0.0,0.0,0.0,90.0,60.0,60.0,90.01803588870001,119.42987060549999,119.1752166748,40.6039962769,15.0674438477,3.6200001239999997,0,2,25,1,33,318
159,1530630583857,2496857, RC,0,39.9586186,-88.445067899,0,0.0,0.0,0.0,0.0,0.0,0.0,0.0,0.0,0.0,0.0,0.0,0.0,0.0,1500,1500,0.0,0.0,40.048352,-88.2327886667,0.0,0.0,0.0,0.0,0.0,0.0,0.0,0.0,0.0,0.0,0.0,0,0.0,0.0,0.0,0.0,90.0,60.0,60.0,90.01803588870001,119.42987060549999,119.1752166748,40.6039962769,15.0674438477,3.6200001239999997,0,2,25,1,32,319
160,1530630583908,2496908, RC,0,39.9586186,-88.445067899,0,0.0,0.0,0.0,0.0,0.0,0.0,0.0,0.0,0.0,0.0,0.0,0.0,0.0,1500,1500,0.0,0.0,40.048352,-88.2327886667,0.0,0.0,0.0,0.0,0.0,0.0,0.0,0.0,0.0,0.0,0.0,0,0.0,0.0,0.0,0.0,90.0,60.0,60.0,90.01803588870001,119.42987060549999,119.1752166748,40.6039962769,15.0674438477,3.6200001239999997,0,2,25,1,33,321
161,1530630583958,2496958, RC,0,39.9586186,-88.445067899,0,0.0,0.0,0.0,0.0,0.0,0.0,0.0,0.0,0.0,0.0,0.0,0.0,0.0,1500,1500,0.0,0.0,40.048352,-88.2327886667,0.0,0.0,0.0,0.0,0.0,0.0,0.0,0.0,0.0,0.0,0.0,0,0.0,0.0,0.0,0.0,90.0,60.0,60.0,90.01803588870001,119.42987060549999,119.1752166748,40.6039962769,15.0674438477,3.6200001239999997,0,2,25,1,33,323
162,1530630584008,2497008, RC,0,39.9586186,-88.445067899,0,0.0,0.0,0.0,0.0,0.0,0.0,0.0,0.0,0.0,0.0,0.0,0.0,0.0,1500,1500,0.0,0.0,40.048352,-88.2327886667,0.0,0.0,0.0,0.0,0.0,0.0,0.0,0.0,0.0,0.0,0.0,0,0.0,0.0,0.0,0.0,90.0,60.0,60.0,90.01803588870001,119.42987060549999,119.1752166748,40.6039962769,15.0674438477,3.6200001239999997,0,2,25,1,34,325
163,1530630584059,2497059, RC,0,39.9586186,-88.445067899,0,0.0,0.0,0.0,0.0,0.0,0.0,0.0,0.0,0.0,0.0,0.0,0.0,0.0,1500,1500,0.0,0.0,40.048352,-88.2327886667,0.0,0.0,0.0,0.0,0.0,0.0,0.0,0.0,0.0,0.0,0.0,0,0.0,0.0,0.0,0.0,90.0,60.0,60.0,90.01803588870001,119.42987060549999,119.1752166748,40.6039962769,15.0674438477,3.6200001239999997,0,2,25,1,33,327
164,1530630584110,2497110, RC,0,39.9586186,-88.445067899,0,0.0,0.0,0.0,0.0,0.0,0.0,0.0,0.0,0.0,0.0,0.0,0.0,0.0,1500,1500,0.0,0.0,40.048352,-88.2327886667,0.0,0.0,0.0,0.0,0.0,0.0,0.0,0.0,0.0,0.0,0.0,0,0.0,0.0,0.0,0.0,90.0,60.0,60.0,90.01803588870001,119.42987060549999,119.1752166748,40.6039962769,15.0627851486,3.3400001526,0,2,25,1,36,329
165,1530630584161,2497161, RC,0,39.9586186,-88.445067899,0,0.0,0.0,0.0,0.0,0.0,0.0,0.0,0.0,0.0,0.0,0.0,0.0,0.0,1500,1500,0.0,0.0,40.048352,-88.2327886667,0.0,0.0,0.0,0.0,0.0,0.0,0.0,0.0,0.0,0.0,0.0,0,0.0,0.0,0.0,0.0,90.0,60.0,60.0,90.01803588870001,119.42987060549999,119.1752166748,40.6039962769,15.0627851486,3.3400001526,0,2,25,1,34,331
166,1530630584211,2497211, RC,0,39.9586186,-88.445067899,0,0.0,0.0,0.0,0.0,0.0,0.0,0.0,0.0,0.0,0.0,0.0,0.0,0.0,1500,1500,0.0,0.0,40.048352,-88.2327886667,0.0,0.0,0.0,0.0,0.0,0.0,0.0,0.0,0.0,0.0,0.0,0,0.0,0.0,0.0,0.0,90.0,60.0,60.0,90.01803588870001,119.42987060549999,119.1752166748,40.6039962769,15.0627851486,3.3400001526,0,2,25,1,34,333
167,1530630584262,2497262, RC,0,39.9586186,-88.445067899,0,0.0,0.0,0.0,0.0,0.0,0.0,0.0,0.0,0.0,0.0,0.0,0.0,0.0,1500,1500,0.0,0.0,40.048352,-88.2327886667,0.0,0.0,0.0,0.0,0.0,0.0,0.0,0.0,0.0,0.0,0.0,0,0.0,0.0,0.0,0.0,90.0,60.0,60.0,90.01803588870001,119.4935302734,119.1752166748,40.6039962769,15.0627851486,3.3400001526,0,2,25,1,33,335
168,1530630584313,2497313, RC,0,39.9586186,-88.445067899,0,0.0,0.0,0.0,0.0,0.0,0.0,0.0,0.0,0.0,0.0,0.0,0.0,0.0,1500,1500,0.0,0.0,40.048352,-88.2327886667,0.0,0.0,0.0,0.0,0.0,0.0,0.0,0.0,0.0,0.0,0.0,0,0.0,0.0,0.0,0.0,90.0,60.0,60.0,90.01803588870001,119.4935302734,119.1752166748,40.6039962769,15.0627851486,3.3400001526,0,2,25,1,36,337
169,1530630584364,2497364, RC,0,39.9586186,-88.445067899,0,0.0,0.0,0.0,0.0,0.0,0.0,0.0,0.0,0.0,0.0,0.0,0.0,0.0,1500,1500,0.0,0.0,40.048352,-88.2327886667,0.0,0.0,0.0,0.0,0.0,0.0,0.0,0.0,0.0,0.0,0.0,0,0.0,0.0,0.0,0.0,90.0,60.0,60.0,90.01803588870001,119.42987060549999,119.1752166748,40.6039962769,15.0627851486,3.3400001526,0,2,25,1,34,339
