,(0)linux time (ms),    (1)uptime  (ms),      (2)drive mode,(3)mpc step counter,(4)mpc origin latitude  (deg),(5)mpc origin longitude  (deg),(6)closest trajectory point index to robot,(7)mpc error x (W;E)  (m),(8)mpc error y (W;E)  (m),(9)abs mpc error (m),(10)input [x] for mhe (m),(11)input [y] for mhe (m),(12)input [speed] for mhe (m/s),(13)input [vyaw] for mhe (rad/s),(14)mhe output x  (m),(15)mhe output y  (m),(16)mhe output speed  (m/s),(17)mhe output yaw  (rad),(18)mpc reference heading (rad),(19)mpc turn rate command (rad/s),(20)turn rate command as PWM,(21)throttle command as PWM,(22)primary gps latitude (deg),(23)primary gps longitude (deg),(24)secondary gps latitude  (deg),(25)secondary gps longitude (deg),(26)accelerometer x (m/s^2),(27)accelerometer y (m/s^2),(28)accelerometer z (m/s^2),(29)gyro yaw rate (rad/s),(30)gyro pitch rate   (rad/s),(31)gyro roll rate (rad/s),      (32)yaw (rad),  (33)pitch   (rad),     (34)roll (rad),(35)sonar1 measurement (m),(36)ultrasonic sensor measurement (m),(37)primary gps time (s),(38)normalized turn rate command,(39)normalized throttle command,(40)speed calculation from encoder left (m/s),(41)speed calculation from encoder right (m/s),(42)front gimbal target angle (degrees from straight down),(43)left gimbal target angle  (degrees from straight down),(44)right gimbal target angle  (degrees from straight down),(45)front gimbal measured angle  (degrees from straight down),(46)left gimbal measured angle    (degrees from straight down),(47)right gimbal measured angle  (degrees from straight down),(48)internal temperature (C),(49)battery voltage (V),(50)primary gps type,(51)secondary gps type,    (52)MPC R value, (53)MPC Q[0] value,Unnamed: 54,weed_num,start
0,1530632935709,4848709, RC,0,39.9586186,-88.445067899,0,0.0,0.0,0.0,0.0,0.0,0.0,0.0,0.0,0.0,0.0,0.0,0.0,0.0,1500,1500,0.0,0.0,40.048353,-88.2331273333,0.0,0.0,0.0,0.0,0.0,0.0,0.0,0.0,0.0,0.0,0.0,0,0.0,0.0,0.0,0.0,90.0,90.0,90.0,90.0816955566,90.01803588870001,89.1904296875,51.363998413100006,14.7051029205,2.0899999142,0,2,25,1,207,13
1,1530632935759,4848759, RC,0,39.9586186,-88.445067899,0,0.0,0.0,0.0,0.0,0.0,0.0,0.0,0.0,0.0,0.0,0.0,0.0,0.0,1500,1500,0.0,0.0,40.048353,-88.2331273333,0.0,0.0,0.0,0.0,0.0,0.0,0.0,0.0,0.0,0.0,0.0,0,0.0,0.0,0.0,0.0,90.0,90.0,90.0,90.0816955566,90.01803588870001,89.1904296875,51.363998413100006,14.7051029205,2.0899999142,0,2,25,1,206,15
2,1530632935810,4848810, RC,0,39.9586186,-88.445067899,0,0.0,0.0,0.0,0.0,0.0,0.0,0.0,0.0,0.0,0.0,0.0,0.0,0.0,1500,1513,0.0,0.0,40.048354,-88.2331285,0.0,0.0,0.0,0.0,0.0,0.0,0.0,0.0,0.0,0.0,0.0,0,0.0,0.026618003799999998,0.0,0.0,90.0,90.0,90.0,90.0816955566,90.01803588870001,89.12677001950001,51.363998413100006,14.7051029205,2.0899999142,0,2,25,1,202,16
3,1530632935860,4848860, RC,0,39.9586186,-88.445067899,0,0.0,0.0,0.0,0.0,0.0,0.0080930954,0.0,0.0,0.0,0.0,0.0,0.0,0.0,1500,1513,0.0,0.0,40.048354,-88.2331285,0.0,0.0,0.0,0.0,0.0,0.0,0.0,0.0,0.0,0.0,0.0,0,0.0,0.026618003799999998,0.0097485017,0.0064376895,90.0,90.0,90.0,90.0816955566,90.01803588870001,89.12677001950001,51.363998413100006,14.7051029205,2.0899999142,0,2,25,1,210,17
4,1530632935910,4848910, RC,0,39.9586186,-88.445067899,0,0.0,0.0,0.0,0.0,0.0,0.011587841399999998,0.0,0.0,0.0,0.0,0.0,0.0,0.0,1500,1591,0.0,0.0,40.048354,-88.2331285,0.0,0.0,0.0,0.0,0.0,0.0,0.0,0.0,0.0,0.0,0.0,0,0.0,0.1820859909,0.0119557092,0.011219973700000002,90.0,90.0,90.0,90.0816955566,90.0816955566,89.12677001950001,51.363998413100006,14.7051029205,2.0899999142,0,2,25,1,209,18
5,1530632935961,4848961, RC,0,39.9586186,-88.445067899,0,0.0,0.0,0.0,0.0,0.0,0.0484666079,0.0,0.0,0.0,0.0,0.0,0.0,0.0,1500,1591,0.0,0.0,40.048354,-88.2331285,0.0,0.0,0.0,0.0,0.0,0.0,0.0,0.0,0.0,0.0,0.0,0,0.0,0.1820859909,0.0610660873,0.0358671285,90.0,90.0,90.0,90.145362854,90.0816955566,89.1904296875,51.363998413100006,14.7051029205,2.0899999142,0,2,25,1,203,20
6,1530632936011,4849011, RC,0,39.9586186,-88.445067899,0,0.0,0.0,0.0,0.0,0.0,0.0765165389,0.0,0.0,0.0,0.0,0.0,0.0,0.0,1500,1681,0.0,0.0,40.048354,-88.2331285,0.0,0.0,0.0,0.0,0.0,0.0,0.0,0.0,0.0,0.0,0.0,0,0.0,0.36386203770000003,0.078723751,0.0743093342,90.0,90.0,90.0,90.4636688232,90.2726821899,89.12677001950001,51.363998413100006,14.7051029205,2.0899999142,0,2,25,1,203,21
7,1530632936061,4849061, RC,0,39.9586186,-88.445067899,0,0.0,0.0,0.0,0.0,0.0,0.12341970210000001,0.0,0.0,0.0,0.0,0.0,0.0,0.0,1500,1681,0.0,0.0,40.048354,-88.2331285,0.0,0.0,0.0,0.0,0.0,0.0,0.0,0.0,0.0,0.0,0.0,0,0.0,0.36386203770000003,0.1414452344,0.10539417710000001,90.0,90.0,90.0,90.4636688232,90.20902252200001,90.20902252200001,51.363998413100006,14.7051029205,2.0899999142,0,2,25,1,212,22
8,1530632936112,4849112, RC,0,39.9586186,-88.445067899,0,0.0,0.0,0.0,0.0,0.0,0.1724381149,0.0,0.0,0.0,0.0,0.0,0.0,0.0,1500,1722,0.0,0.0,40.048354,-88.2331285,0.0,0.0,0.0,0.0,0.0,0.0,0.0,0.0,0.0,0.0,0.0,0,0.0,0.4447590113,0.1782320291,0.1666442007,90.0,90.0,90.0,90.01803588870001,90.0816955566,90.20902252200001,51.363998413100006,14.7051029205,2.0899999142,0,2,25,1,206,23
9,1530632936162,4849162, RC,0,39.9586186,-88.445067899,0,0.0,0.0,0.0,0.0,0.0,0.2699231505,0.0,0.0,0.0,0.0,0.0,0.0,0.0,1500,1722,0.0,0.0,40.048354,-88.2331285,0.0,0.0,0.0,0.0,0.0,0.0,0.0,0.0,0.0,0.0,0.0,0,0.0,0.4447590113,0.267072171,0.2727741003,90.0,90.0,90.0,88.681137085,90.145362854,90.2726821899,51.363998413100006,14.7051029205,2.0899999142,0,2,25,1,207,24
10,1530632936212,4849212, RC,0,39.9586186,-88.445067899,0,0.0,0.0,0.0,0.0,0.0,0.30753764510000003,0.0,0.0,0.0,0.0,0.0,0.0,0.0,1500,1739,0.0,0.0,40.048354,-88.2331285,0.0,0.0,0.0,0.0,0.0,0.0,0.0,0.0,0.0,0.0,0.0,0,0.0,0.4795980453,0.2724062502,0.34266904,90.0,90.0,90.0,89.12677001950001,89.6997299194,90.9729614258,51.363998413100006,14.7051029205,2.0899999142,0,2,25,1,207,26
11,1530632936263,4849263, RC,0,39.9586186,-88.445067899,0,0.0,0.0,0.0,0.0,0.0,0.3609704375,0.0,0.0,0.0,0.0,0.0,0.0,0.0,1500,1739,0.0,0.0,40.048354,-88.2331285,0.0,0.0,0.0,0.0,0.0,0.0,0.0,0.0,0.0,0.0,0.0,0,0.0,0.4795980453,0.337150991,0.3847899139,90.0,90.0,90.0,91.2276153564,89.8907089233,90.9729614258,51.363998413100006,14.7051029205,2.0899999142,0,2,25,1,211,27
12,1530632936313,4849313, RC,0,39.9586186,-88.445067899,0,0.0,0.0,0.0,0.0,0.0,0.4107246101,0.0,0.0,0.0,0.0,0.0,0.0,0.0,1500,1750,0.0,0.0,40.048354,-88.2331285,0.0,0.0,0.0,0.0,0.0,0.0,0.0,0.0,0.0,0.0,0.0,0,0.0,0.5,0.4017118514,0.4197373688,90.0,90.0,90.0,89.5724029541,90.145362854,90.5273361206,51.363998413100006,14.6928386688,13.1399993896,0,2,25,1,222,28
13,1530632936363,4849363, RC,0,39.9586186,-88.445067899,0,0.0,0.0,0.0,0.0,0.0,0.4488909245,0.0,0.0,0.0,0.0,0.0,0.0,0.0,1500,1750,0.0,0.0,40.048354,-88.2331285,0.0,0.0,0.0,0.0,0.0,0.0,0.0,0.0,0.0,0.0,0.0,0,0.0,0.5,0.4335324168,0.46424940229999995,90.0,90.0,90.0,89.0631027222,89.5724029541,90.40000915530001,51.363998413100006,14.6928386688,13.1399993896,0,2,25,1,227,29
14,1530632936414,4849414, RC,0,39.9586186,-88.445067899,0,0.0,0.0,0.0,0.0,0.0,0.4588233232,0.0,0.0,0.0,0.0,0.0,0.0,0.0,1500,1750,0.0,0.0,40.048354,-88.2331285,0.0,0.0,0.0,0.0,0.0,0.0,0.0,0.0,0.0,0.0,0.0,0,0.0,0.5,0.4243357182,0.49331095810000003,90.0,90.0,90.0,92.3735275269,89.25408935549999,90.6546554565,51.363998413100006,14.6928386688,13.1399993896,0,2,25,1,245,31
15,1530632936464,4849464, RC,0,39.9586186,-88.445067899,0,0.0,0.0,0.0,0.0,0.0,0.4819990396,0.0,0.0,0.0,0.0,0.0,0.0,0.0,1500,1750,0.0,0.0,40.048354,-88.2331285,0.0,0.0,0.0,0.0,0.0,0.0,0.0,0.0,0.0,0.0,0.0,0,0.0,0.5,0.45394909380000004,0.5100489855,90.0,90.0,90.0,95.81127929690001,89.5724029541,90.5909881592,51.363998413100006,14.6928386688,13.1399993896,0,2,25,1,256,32
16,1530632936514,4849514, RC,0,39.9586186,-88.445067899,0,0.0,0.0,0.0,0.0,0.0,0.501496017,0.0,0.0,0.0,0.0,0.0,0.0,0.0,1500,1750,0.0,0.0,40.048354,-88.2331285,0.0,0.0,0.0,0.0,0.0,0.0,0.0,0.0,0.0,0.0,0.0,0,0.0,0.5,0.4782283604,0.5247637033,90.0,90.0,90.0,92.30986785889999,88.93578338620001,90.9729614258,51.363998413100006,14.6928386688,13.1399993896,0,2,25,1,244,33
17,1530632936564,4849564, RC,0,39.9586186,-88.445067899,0,0.0,0.0,0.0,0.0,0.0,0.521912694,0.0,0.0,0.0,0.0,0.0,0.0,0.0,1500,1750,0.0,0.0,40.048354,-88.2331285,0.0,0.0,0.0,0.0,0.0,0.0,0.0,0.0,0.0,0.0,0.0,0,0.0,0.5,0.515750885,0.5280745029,90.0,90.0,90.0,86.3893051147,89.0631027222,91.10028839110001,51.363998413100006,14.6928386688,13.1399993896,0,2,25,1,260,34
18,1530632936615,4849615, RC,0,39.9586186,-88.445067899,0,0.0,0.0,0.0,0.0,0.0,0.5232002735,0.0,0.0,0.0,0.0,0.0,0.0,0.0,1500,1750,0.0,0.0,40.048354,-88.2331285,0.0,0.0,0.0,0.0,0.0,0.0,0.0,0.0,0.0,0.0,0.0,0,0.0,0.5,0.5210850239,0.5253155231000001,90.0,90.0,90.0,87.9808578491,88.8721160889,91.6095809937,51.363998413100006,14.6928386688,13.1399993896,0,2,25,1,266,35
19,1530632936665,4849665, RC,0,39.9586186,-88.445067899,0,0.0,0.0,0.0,0.0,0.0,0.5314772725,0.0,0.0,0.0,0.0,0.0,0.0,0.0,1500,1750,0.0,0.0,40.048354,-88.2331285,0.0,0.0,0.0,0.0,0.0,0.0,0.0,0.0,0.0,0.0,0.0,0,0.0,0.5,0.5352479218999999,0.5277066231,90.0,90.0,90.0,89.0631027222,89.82704925540001,90.8456420898,51.363998413100006,14.6928386688,13.1399993896,0,2,25,1,216,37
20,1530632936715,4849715, RC,0,39.9586186,-88.445067899,0,0.0,0.0,0.0,0.0,0.0,0.5502385497,0.0,0.0,0.0,0.0,0.0,0.0,0.0,1500,1750,0.0,0.0,40.048354,-88.2331285,0.0,0.0,0.0,0.0,0.0,0.0,0.0,0.0,0.0,0.0,0.0,0,0.0,0.5,0.5633898377000001,0.5370872617,90.0,90.0,90.0,87.08958435059999,89.82704925540001,90.7183227539,51.363998413100006,14.6928386688,13.1399993896,0,2,25,1,218,38
21,1530632936766,4849766, RC,0,39.9586186,-88.445067899,0,0.0,0.0,0.0,0.0,0.0,0.5584236383,0.0,0.0,0.0,0.0,0.0,0.0,0.0,1500,1750,0.0,0.0,40.0483568333,-88.2331255,0.0,0.0,0.0,0.0,0.0,0.0,0.0,0.0,0.0,0.0,0.0,0,0.0,0.5,0.5749776363,0.5418695807,90.0,90.0,90.0,87.4078979492,90.4636688232,89.25408935549999,51.363998413100006,14.6928386688,13.1399993896,0,2,25,1,217,39
22,1530632936816,4849816, RC,0,39.9586186,-88.445067899,0,0.0,0.0,0.0,0.0,0.0,0.5599870682,0.0,0.0,0.0,0.0,0.0,0.0,0.0,1500,1750,0.0,0.0,40.0483568333,-88.2331255,0.0,0.0,0.0,0.0,0.0,0.0,0.0,0.0,0.0,0.0,0.0,0,0.0,0.5,0.5648612976,0.5551128386999999,90.0,90.0,90.0,92.1825408936,91.4186019897,88.36282348629999,51.363998413100006,14.6928386688,13.1399993896,0,2,25,1,224,40
23,1530632936866,4849866, RC,0,39.9586186,-88.445067899,0,0.0,0.0,0.0,0.0,0.0,0.5647692679999999,0.0,0.0,0.0,0.0,0.0,0.0,0.0,1500,1750,0.0,0.0,40.0483568333,-88.2331255,0.0,0.0,0.0,0.0,0.0,0.0,0.0,0.0,0.0,0.0,0.0,0,0.0,0.5,0.5700114369,0.5595271587,90.0,90.0,90.0,92.81916046139999,91.8642349243,87.1532516479,51.363998413100006,14.6928386688,13.1399993896,0,2,25,1,216,41
24,1530632936917,4849917, RC,0,39.9586186,-88.445067899,0,0.0,0.0,0.0,0.0,0.0,0.5587915182,0.0,0.0,0.0,0.0,0.0,0.0,0.0,1500,1750,0.0,0.0,40.0483568333,-88.2331255,0.0,0.0,0.0,0.0,0.0,0.0,0.0,0.0,0.0,0.0,0.0,0,0.0,0.5,0.5712990165,0.5462839603,90.0,90.0,90.0,91.800567627,91.73690795899999,86.3893051147,51.363998413100006,14.6928386688,13.1399993896,0,2,25,1,190,43
25,1530632936967,4849967, RC,0,39.9586186,-88.445067899,0,0.0,0.0,0.0,0.0,0.0,0.5709311365999999,0.0,0.0,0.0,0.0,0.0,0.0,0.0,1500,1750,0.0,0.0,40.0483568333,-88.2331255,0.0,0.0,0.0,0.0,0.0,0.0,0.0,0.0,0.0,0.0,0.0,0,0.0,0.5,0.5845422745000001,0.5573199986999999,90.0,90.0,90.0,88.9994430542,90.3363494873,88.1081771851,51.363998413100006,14.6928386688,13.1399993896,0,2,25,1,195,44
26,1530632937017,4850017, RC,0,39.9586186,-88.445067899,0,0.0,0.0,0.0,0.0,0.0,0.5567681789,0.0,0.0,0.0,0.0,0.0,0.0,0.0,1500,1750,0.0,0.0,40.0483568333,-88.2331255,0.0,0.0,0.0,0.0,0.0,0.0,0.0,0.0,0.0,0.0,0.0,0,0.0,0.5,0.5595271587,0.5540091991,90.0,90.0,90.0,89.0631027222,88.235496521,91.9915542603,51.363998413100006,14.6928386688,13.1399993896,0,2,25,1,228,45
27,1530632937068,4850068, RC,0,39.9586186,-88.445067899,0,0.0,0.0,0.0,0.0,0.0,0.5552047491,0.0,0.0,0.0,0.0,0.0,0.0,0.0,1500,1750,0.0,0.0,40.0483568333,-88.2331255,0.0,0.0,0.0,0.0,0.0,0.0,0.0,0.0,0.0,0.0,0.0,0,0.0,0.5,0.5729543567000001,0.5374551415,90.0,90.0,90.0,88.235496521,87.5988845825,93.328453064,51.363998413100006,14.6928386688,13.1399993896,0,2,25,1,224,46
28,1530632937118,4850118, RC,0,39.9586186,-88.445067899,0,0.0,0.0,0.0,0.0,0.0,0.5477554798,0.0,0.0,0.0,0.0,0.0,0.0,0.0,1500,1750,0.0,0.0,40.0483568333,-88.2331255,0.0,0.0,0.0,0.0,0.0,0.0,0.0,0.0,0.0,0.0,0.0,0,0.0,0.5,0.5551128386999999,0.5403980613,90.0,90.0,90.0,88.36282348629999,89.6997299194,92.62817382809999,51.363998413100006,14.6928386688,13.1399993896,0,2,25,1,160,48
29,1530632937168,4850168, RC,0,39.9586186,-88.445067899,0,0.0,0.0,0.0,0.0,0.0,0.5459160805,0.0,0.0,0.0,0.0,0.0,0.0,0.0,1500,1750,0.0,0.0,40.0483568333,-88.2331255,0.0,0.0,0.0,0.0,0.0,0.0,0.0,0.0,0.0,0.0,0.0,0,0.0,0.5,0.5486750603,0.5431570411,90.0,90.0,90.0,92.50085449219999,89.6997299194,90.7183227539,51.363998413100006,14.6928386688,13.1399993896,0,2,25,1,116,49
30,1530632937219,4850219, RC,0,39.9586186,-88.445067899,0,0.0,0.0,0.0,0.0,0.0,0.5483071804,0.0,0.0,0.0,0.0,0.0,0.0,0.0,1500,1750,0.0,0.0,40.0483568333,-88.2331255,0.0,0.0,0.0,0.0,0.0,0.0,0.0,0.0,0.0,0.0,0.0,0,0.0,0.5,0.5495947599000001,0.5470196605,90.0,90.0,90.0,93.5194396973,89.5087432861,88.8721160889,51.363998413100006,14.6928386688,13.1399993896,0,2,25,1,115,50
31,1530632937269,4850269, RC,0,39.9586186,-88.445067899,0,0.0,0.0,0.0,0.0,0.0,0.5361676216,0.0,0.0,0.0,0.0,0.0,0.0,0.0,1500,1750,0.0,0.0,40.0483568333,-88.2331255,0.0,0.0,0.0,0.0,0.0,0.0,0.0,0.0,0.0,0.0,0.0,0,0.0,0.5,0.5280745029,0.5442606807,90.0,90.0,90.0,88.9994430542,89.0631027222,88.8721160889,51.363998413100006,14.6928386688,13.1399993896,0,2,25,1,145,51
32,1530632937319,4850319, RC,0,39.9586186,-88.445067899,0,0.0,0.0,0.0,0.0,0.0,0.5427892208,0.0,0.0,0.0,0.0,0.0,0.0,0.0,1500,1750,0.0,0.0,40.0483568333,-88.2331255,0.0,0.0,0.0,0.0,0.0,0.0,0.0,0.0,0.0,0.0,0.0,0,0.0,0.5,0.5264190435,0.5591593385,90.0,90.0,90.0,88.235496521,88.1718444824,90.2726821899,51.363998413100006,14.6775693893,20.9500007629,0,2,25,1,170,53
33,1530632937370,4850370, RC,0,39.9586186,-88.445067899,0,0.0,0.0,0.0,0.0,0.0,0.5386506319,0.0,0.0,0.0,0.0,0.0,0.0,0.0,1500,1750,0.0,0.0,40.0483568333,-88.2331255,0.0,0.0,0.0,0.0,0.0,0.0,0.0,0.0,0.0,0.0,0.0,0,0.0,0.5,0.5380069613,0.5449964404,90.0,90.0,90.0,88.235496521,88.9994430542,91.1639480591,51.363998413100006,14.6775693893,20.9500007629,0,2,25,1,180,54
34,1530632937420,4850420, RC,0,39.9586186,-88.445067899,0,0.0,0.0,0.0,0.0,0.0,0.5391105413,0.0,0.0,0.0,0.0,0.0,0.0,0.0,1500,1750,0.0,0.0,40.0483568333,-88.2331255,0.0,0.0,0.0,0.0,0.0,0.0,0.0,0.0,0.0,0.0,0.0,0,0.0,0.5,0.5552966595000001,0.5229243635999999,90.0,90.0,90.0,90.2726821899,90.5909881592,90.7183227539,51.363998413100006,14.6775693893,20.9500007629,0,2,25,1,158,55
35,1530632937470,4850470, RC,0,39.9586186,-88.445067899,0,0.0,0.0,0.0,0.0,0.0,0.5463758707,0.0,0.0,0.0,0.0,0.0,0.0,0.0,1500,1750,0.0,0.0,40.0483568333,-88.2331255,0.0,0.0,0.0,0.0,0.0,0.0,0.0,0.0,0.0,0.0,0.0,0,0.0,0.5,0.5655969977,0.5271548033,90.0,90.0,90.0,90.7819747925,89.63606262209998,90.20902252200001,51.363998413100006,14.6775693893,20.9500007629,0,2,25,1,167,56
36,1530632937521,4850521, RC,0,39.9586186,-88.445067899,0,0.0,0.0,0.0,0.0,0.0,0.5395703316,0.0,0.0,0.0,0.0,0.0,0.0,0.0,1500,1750,0.0,0.0,40.0483568333,-88.2331255,0.0,0.0,0.0,0.0,0.0,0.0,0.0,0.0,0.0,0.0,0.0,0,0.0,0.5,0.5556645393,0.5234761238000001,90.0,90.0,90.0,90.2726821899,88.74479675290002,90.7819747925,51.363998413100006,14.6775693893,20.9500007629,0,2,25,1,173,57
37,1530632937571,4850571, RC,0,39.9586186,-88.445067899,0,0.0,0.0,0.0,0.0,0.0,0.5439847708,0.0,0.0,0.0,0.0,0.0,0.0,0.0,1500,1750,0.0,0.0,40.0483568333,-88.2331255,0.0,0.0,0.0,0.0,0.0,0.0,0.0,0.0,0.0,0.0,0.0,0,0.0,0.5,0.5775527358,0.5104168057,90.0,90.0,90.0,90.40000915530001,89.6997299194,90.7183227539,51.363998413100006,14.6775693893,20.9500007629,0,2,25,1,157,59
38,1530632937621,4850621, RC,0,39.9586186,-88.445067899,0,0.0,0.0,0.0,0.0,0.0,0.5646773577,0.0,0.0,0.0,0.0,0.0,0.0,0.0,1500,1750,0.0,0.0,40.0483568333,-88.2331255,0.0,0.0,0.0,0.0,0.0,0.0,0.0,0.0,0.0,0.0,0.0,0,0.0,0.5,0.5909799337,0.5383748412,90.0,90.0,90.0,91.5459213257,92.2462081909,87.7898712158,51.363998413100006,14.6775693893,20.9500007629,0,2,25,1,124,60
39,1530632937672,4850672, RC,0,39.9586186,-88.445067899,0,0.0,0.0,0.0,0.0,0.0,0.5691837072,0.0,0.0,0.0,0.0,0.0,0.0,0.0,1500,1750,0.0,0.0,40.0483568333,-88.2331255,0.0,0.0,0.0,0.0,0.0,0.0,0.0,0.0,0.0,0.0,0.0,0,0.0,0.5,0.6055107117,0.5328567624,90.0,90.0,90.0,91.1639480591,93.6467666626,85.6890182495,51.363998413100006,14.6775693893,20.9500007629,0,2,25,1,135,61
40,1530632937722,4850722, RC,0,39.9586186,-88.445067899,0,0.0,0.0,0.0,0.0,0.0,0.574885726,0.0,0.0,0.0,0.0,0.0,0.0,0.0,1528,1750,0.0,0.0,40.0483568333,-88.2331255,0.0,0.0,0.0,0.0,0.0,0.0,0.0,0.0,0.0,0.0,0.0,0,0.0574519634,0.5,0.6053267717,0.5444446206,90.0,90.0,90.0,88.4901504517,92.3735275269,85.6253585815,51.363998413100006,14.6775693893,20.9500007629,0,2,25,1,132,62
41,1530632937772,4850772, RC,0,39.9586186,-88.445067899,0,0.0,0.0,0.0,0.0,0.0,0.5794839859,0.0,0.0,0.0,0.0,0.0,0.0,0.0,1528,1750,0.0,0.0,40.0483541667,-88.2331193333,0.0,0.0,0.0,0.0,0.0,0.0,0.0,0.0,0.0,0.0,0.0,0,0.0574519634,0.5,0.6196736097,0.5392944217,90.0,90.0,90.0,88.9994430542,89.6997299194,89.82704925540001,51.363998413100006,14.6775693893,20.9500007629,0,2,25,1,169,63
42,1530632937822,4850822, RC,0,39.9586186,-88.445067899,0,0.0,0.0,0.0,0.0,0.0,0.5967738628,0.0,0.0,0.0,0.0,0.0,0.0,0.0,1613,1750,0.0,0.0,40.0483541667,-88.2331193333,0.0,0.0,0.0,0.0,0.0,0.0,0.0,0.0,0.0,0.0,0.0,0,0.2263009548,0.5,0.6389867067,0.5545610189,90.0,90.0,90.0,91.29127502440001,88.235496521,91.10028839110001,51.363998413100006,14.6775693893,20.9500007629,0,2,25,1,213,65
43,1530632937873,4850873, RC,0,39.9586186,-88.445067899,0,0.0,0.0,0.0,0.0,0.0,0.5875771046,0.0,0.0,0.0,0.0,0.0,0.0,0.0,1613,1750,0.0,0.0,40.0483541667,-88.2331193333,0.0,0.0,0.0,0.0,0.0,0.0,0.0,0.0,0.0,0.0,0.0,0,0.2263009548,0.5,0.6862576604,0.4888965189,90.0,90.0,90.0,91.3549346924,88.8084564209,92.2462081909,51.363998413100006,14.6775693893,20.9500007629,0,2,25,1,204,66
44,1530632937923,4850923, RC,0,39.9586186,-88.445067899,0,0.0,0.0,0.0,0.0,0.0,0.6061544418,0.0,0.0,0.0,0.0,0.0,0.0,0.0,1662,1750,0.0,0.0,40.0483541667,-88.2331193333,0.0,0.0,0.0,0.0,0.0,0.0,0.0,0.0,0.0,0.0,0.0,0,0.3240139484,0.5,0.7500827909000001,0.46222612259999996,90.0,90.0,90.0,91.4186019897,88.1081771851,93.9014129639,51.363998413100006,14.6775693893,20.9500007629,0,2,25,1,210,67
45,1530632937973,4850973, RC,0,39.9586186,-88.445067899,0,0.0,0.0,0.0,0.0,0.0,0.6251916289,0.0,0.0,0.0,0.0,0.0,0.0,0.0,1662,1750,0.0,0.0,40.0483541667,-88.2331193333,0.0,0.0,0.0,0.0,0.0,0.0,0.0,0.0,0.0,0.0,0.0,0,0.3240139484,0.5,0.804895103,0.44548812509999997,90.0,90.0,90.0,90.5273361206,88.1718444824,92.2462081909,51.363998413100006,14.6775693893,20.9500007629,0,2,25,1,213,68
46,1530632938024,4851024, RC,0,39.9586186,-88.445067899,0,0.0,0.0,0.0,0.0,0.0,0.5954862833,0.0,0.0,0.0,0.0,0.0,0.0,0.0,1680,1750,0.0,0.0,40.0483541667,-88.2331193333,0.0,0.0,0.0,0.0,0.0,0.0,0.0,0.0,0.0,0.0,0.0,0,0.36124598979999994,0.5,0.7951466440999999,0.39582595229999995,90.0,90.0,90.0,88.36282348629999,90.0816955566,90.7183227539,51.363998413100006,14.6775693893,20.9500007629,0,2,25,1,191,69
47,1530632938074,4851074, RC,0,39.9586186,-88.445067899,0,0.0,0.0,0.0,0.0,0.0,0.5466518402,0.0,0.0,0.0,0.0,0.0,0.0,0.0,1680,1750,0.0,0.0,40.0483541667,-88.2331193333,0.0,0.0,0.0,0.0,0.0,0.0,0.0,0.0,0.0,0.0,0.0,0,0.36124598979999994,0.5,0.7460362315000001,0.3472673893,90.0,90.0,90.0,88.8721160889,89.5724029541,90.40000915530001,51.363998413100006,14.6775693893,20.9500007629,0,2,25,1,197,71
48,1530632938124,4851124, RC,0,39.9586186,-88.445067899,0,0.0,0.0,0.0,0.0,0.0,0.5304656029,0.0,0.0,0.0,0.0,0.0,0.0,0.0,1684,1750,0.0,0.0,40.0483541667,-88.2331193333,0.0,0.0,0.0,0.0,0.0,0.0,0.0,0.0,0.0,0.0,0.0,0,0.36963999270000003,0.5,0.7489792109000001,0.3119520545,90.0,90.0,90.0,90.7819747925,89.82704925540001,90.01803588870001,51.363998413100006,14.6775693893,20.9500007629,0,2,25,1,194,72
49,1530632938175,4851175, RC,0,39.9586186,-88.445067899,0,0.0,0.0,0.0,0.0,0.0,0.5262351036,0.0,0.0,0.0,0.0,0.0,0.0,0.0,1684,1750,0.0,0.0,40.0483541667,-88.2331193333,0.0,0.0,0.0,0.0,0.0,0.0,0.0,0.0,0.0,0.0,0.0,0,0.36963999270000003,0.5,0.7747299671,0.27774029969999997,90.0,90.0,90.0,90.5273361206,89.63606262209998,90.20902252200001,51.363998413100006,14.6775693893,20.9500007629,0,2,25,1,194,73
50,1530632938225,4851225, RC,0,39.9586186,-88.445067899,0,0.0,0.0,0.0,0.0,0.0,0.5295459628,0.0,0.0,0.0,0.0,0.0,0.0,0.0,1684,1750,0.0,0.0,40.0483541667,-88.2331193333,0.0,0.0,0.0,0.0,0.0,0.0,0.0,0.0,0.0,0.0,0.0,0,0.36963999270000003,0.5,0.802504003,0.2565879226,90.0,90.0,90.0,89.0631027222,90.3363494873,89.1904296875,51.363998413100006,14.6775693893,20.9500007629,0,2,25,1,194,74
51,1530632938275,4851275, RC,0,39.9586186,-88.445067899,0,0.0,0.0,0.0,0.0,0.0,0.5227404237,0.0,0.0,0.0,0.0,0.0,0.0,0.0,1684,1750,0.0,0.0,40.0483541667,-88.2331193333,0.0,0.0,0.0,0.0,0.0,0.0,0.0,0.0,0.0,0.0,0.0,0,0.36963999270000003,0.5,0.7975378036,0.2479430139,90.0,90.0,90.0,88.1081771851,90.5909881592,89.12677001950001,51.363998413100006,14.6775693893,20.9500007629,0,2,25,1,200,76
52,1530632938326,4851326, RC,0,39.9586186,-88.445067899,0,0.0,0.0,0.0,0.0,0.0,0.4975414574,0.0,0.0,0.0,0.0,0.0,0.0,0.0,1500,1750,0.0,0.0,40.0483541667,-88.2331193333,0.0,0.0,0.0,0.0,0.0,0.0,0.0,0.0,0.0,0.0,0.0,0,0.0,0.5,0.7657172084,0.2293656915,90.0,90.0,90.0,91.9279022217,90.4636688232,89.5724029541,51.363998413100006,14.656778335599999,18.8000011444,0,2,25,1,201,77
53,1530632938376,4851376, RC,0,39.9586186,-88.445067899,0,0.0,0.0,0.0,0.0,0.0,0.500392437,0.0,0.0,0.0,0.0,0.0,0.0,0.0,1500,1750,0.0,0.0,40.0483541667,-88.2331193333,0.0,0.0,0.0,0.0,0.0,0.0,0.0,0.0,0.0,0.0,0.0,0,0.0,0.5,0.7539454103000001,0.24683941899999998,90.0,90.0,90.0,90.8456420898,90.145362854,89.5087432861,51.363998413100006,14.656778335599999,18.8000011444,0,2,25,1,189,78
54,1530632938426,4851426, RC,0,39.9586186,-88.445067899,0,0.0,0.0,0.0,0.0,0.0,0.514555335,0.0,0.0,0.0,0.0,0.0,0.0,0.0,1500,1750,0.0,0.0,40.0483541667,-88.2331193333,0.0,0.0,0.0,0.0,0.0,0.0,0.0,0.0,0.0,0.0,0.0,0,0.0,0.5,0.7173425554999999,0.31176811460000003,90.0,90.0,90.0,89.8907089233,89.5724029541,90.145362854,51.363998413100006,14.656778335599999,18.8000011444,0,2,25,1,180,79
55,1530632938477,4851477, RC,0,39.9586186,-88.445067899,0,0.0,0.0,0.0,0.0,0.0,0.5314772725,0.0,0.0,0.0,0.0,0.0,0.0,0.0,1500,1750,0.0,0.0,40.0483541667,-88.2331193333,0.0,0.0,0.0,0.0,0.0,0.0,0.0,0.0,0.0,0.0,0.0,0,0.0,0.5,0.6904881597,0.3724663556,90.0,90.0,90.0,90.6546554565,88.8721160889,90.9729614258,51.363998413100006,14.656778335599999,18.8000011444,0,2,25,1,183,80
56,1530632938527,4851527, RC,0,39.9586186,-88.445067899,0,0.0,0.0,0.0,0.0,0.0,0.5457321405,0.0,0.0,0.0,0.0,0.0,0.0,0.0,1500,1750,0.0,0.0,40.0483541667,-88.2331193333,0.0,0.0,0.0,0.0,0.0,0.0,0.0,0.0,0.0,0.0,0.0,0,0.0,0.5,0.6820272206999999,0.4094370604,90.0,90.0,90.0,91.48226165770001,88.8721160889,91.2276153564,51.363998413100006,14.656778335599999,18.8000011444,0,2,25,1,175,82
57,1530632938577,4851577, RC,0,39.9586186,-88.445067899,0,0.0,0.0,0.0,0.0,0.0,0.5582396984,0.0,0.0,0.0,0.0,0.0,0.0,0.0,1500,1750,0.0,0.0,40.0483541667,-88.2331193333,0.0,0.0,0.0,0.0,0.0,0.0,0.0,0.0,0.0,0.0,0.0,0,0.0,0.5,0.6686000824,0.4478792846,90.0,90.0,90.0,88.2991638184,89.6997299194,90.20902252200001,51.363998413100006,14.656778335599999,18.8000011444,0,2,25,1,168,83
58,1530632938628,4851628, RC,0,39.9586186,-88.445067899,0,0.0,0.0,0.0,0.0,0.0,0.5654131174,0.0,0.0,0.0,0.0,0.0,0.0,0.0,1500,1750,0.0,0.0,40.0483541667,-88.2331193333,0.0,0.0,0.0,0.0,0.0,0.0,0.0,0.0,0.0,0.0,0.0,0,0.0,0.5,0.6590355039,0.4717907012,90.0,90.0,90.0,87.9171905518,90.3363494873,87.5988845825,51.363998413100006,14.656778335599999,18.8000011444,0,2,25,1,185,84
59,1530632938678,4851678, RC,0,39.9586186,-88.445067899,0,0.0,0.0,0.0,0.0,0.0,0.5632058382,0.0,0.0,0.0,0.0,0.0,0.0,0.0,1500,1750,0.0,0.0,40.0483541667,-88.2331193333,0.0,0.0,0.0,0.0,0.0,0.0,0.0,0.0,0.0,0.0,0.0,0,0.0,0.5,0.6456083059000001,0.4808034301,90.0,90.0,90.0,91.5459213257,90.5909881592,87.4078979492,51.363998413100006,14.656778335599999,18.8000011444,0,2,25,1,197,85
60,1530632938728,4851728, RC,0,39.9586186,-88.445067899,0,0.0,0.0,0.0,0.0,0.0,0.5731383562,0.0,0.0,0.0,0.0,0.0,0.0,0.0,1500,1750,0.0,0.0,40.0483541667,-88.2331193333,0.0,0.0,0.0,0.0,0.0,0.0,0.0,0.0,0.0,0.0,0.0,0,0.0,0.5,0.6468958855,0.4993807673,90.0,90.0,90.0,92.2462081909,91.10028839110001,87.7898712158,51.363998413100006,14.656778335599999,18.8000011444,0,2,25,1,207,86
61,1530632938779,4851779, RC,0,39.9586186,-88.445067899,0,0.0,0.0,0.0,0.0,0.0,0.5809555054,0.0,0.0,0.0,0.0,0.0,0.0,0.0,1500,1750,0.0,0.0,40.0483541667,-88.2331193333,0.0,0.0,0.0,0.0,0.0,0.0,0.0,0.0,0.0,0.0,0.0,0,0.0,0.5,0.6467119455,0.5151990652,90.0,90.0,90.0,91.4186019897,91.2276153564,88.235496521,51.363998413100006,14.656778335599999,18.8000011444,0,2,25,1,199,88
62,1530632938829,4851829, RC,0,39.9586186,-88.445067899,0,0.0,0.0,0.0,0.0,0.0,0.5767250061,0.0,0.0,0.0,0.0,0.0,0.0,0.0,1500,1750,0.0,0.0,40.0483533333,-88.2331193333,0.0,0.0,0.0,0.0,0.0,0.0,0.0,0.0,0.0,0.0,0.0,0,0.0,0.5,0.6360437274,0.5174062848,90.0,90.0,90.0,89.8907089233,90.0816955566,89.82704925540001,51.363998413100006,14.656778335599999,18.8000011444,0,2,25,1,211,89
63,1530632938879,4851879, RC,0,39.9586186,-88.445067899,0,0.0,0.0,0.0,0.0,0.0,0.5864735246,0.0,0.0,0.0,0.0,0.0,0.0,0.0,1500,1750,0.0,0.0,40.0483533333,-88.2331193333,0.0,0.0,0.0,0.0,0.0,0.0,0.0,0.0,0.0,0.0,0.0,0,0.0,0.5,0.6343883276,0.5385587215,90.0,90.0,90.0,89.5087432861,89.5087432861,90.9093093872,51.363998413100006,14.656778335599999,18.8000011444,0,2,25,1,245,90
64,1530632938930,4851930, RC,0,39.9586186,-88.445067899,0,0.0,0.0,0.0,0.0,0.0,0.5916236639,0.0,0.0,0.0,0.0,0.0,0.0,0.0,1500,1750,0.0,0.0,40.0483533333,-88.2331193333,0.0,0.0,0.0,0.0,0.0,0.0,0.0,0.0,0.0,0.0,0.0,0,0.0,0.5,0.6351240872999999,0.5481233001,90.0,90.0,90.0,89.6997299194,89.63606262209998,90.2726821899,51.363998413100006,14.656778335599999,18.8000011444,0,2,25,1,234,91
65,1530632938980,4851980, RC,0,39.9586186,-88.445067899,0,0.0,0.0,0.0,0.0,0.0,0.5958541632,0.0,0.0,0.0,0.0,0.0,0.0,0.0,1500,1750,0.0,0.0,40.0483533333,-88.2331193333,0.0,0.0,0.0,0.0,0.0,0.0,0.0,0.0,0.0,0.0,0.0,0,0.0,0.5,0.6266631484,0.5650452375,90.0,90.0,90.0,89.9543762207,90.20902252200001,89.82704925540001,51.363998413100006,14.656778335599999,18.8000011444,0,2,25,1,180,92
66,1530632939030,4852030, RC,0,39.9586186,-88.445067899,0,0.0,0.0,0.0,0.0,0.0,0.6020159721,0.0,0.0,0.0,0.0,0.0,0.0,0.0,1500,1750,0.0,0.0,40.0483533333,-88.2331193333,0.0,0.0,0.0,0.0,0.0,0.0,0.0,0.0,0.0,0.0,0.0,0,0.0,0.5,0.6255595088,0.5784723759,90.0,90.0,90.0,90.0816955566,90.9093093872,89.0631027222,51.363998413100006,14.656778335599999,18.8000011444,0,2,25,1,189,93
67,1530632939081,4852081, RC,0,39.9586186,-88.445067899,0,0.0,0.0,0.0,0.0,0.0,0.6010043025,0.0,0.0,0.0,0.0,0.0,0.0,0.0,1500,1750,0.0,0.0,40.0483533333,-88.2331193333,0.0,0.0,0.0,0.0,0.0,0.0,0.0,0.0,0.0,0.0,0.0,0,0.0,0.5,0.6318132281000001,0.5701953769,90.0,90.0,90.0,90.0816955566,91.1639480591,88.681137085,51.363998413100006,14.656778335599999,18.8000011444,0,2,25,1,184,95
68,1530632939131,4852131, RC,0,39.9586186,-88.445067899,0,0.0,0.0,0.0,0.0,0.0,0.6027517319,0.0,0.0,0.0,0.0,0.0,0.0,0.0,1500,1750,0.0,0.0,40.0483533333,-88.2331193333,0.0,0.0,0.0,0.0,0.0,0.0,0.0,0.0,0.0,0.0,0.0,0,0.0,0.5,0.6226165891,0.5828868151,90.0,90.0,90.0,90.2726821899,88.9994430542,89.12677001950001,51.363998413100006,14.656778335599999,18.8000011444,0,2,25,1,168,96
69,1530632939182,4852182, RC,0,39.9586186,-88.445067899,0,0.0,0.0,0.0,0.0,0.0,0.5894165039,0.0,0.0,0.0,0.0,0.0,0.0,0.0,1500,1750,0.0,0.0,40.0483533333,-88.2331193333,0.0,0.0,0.0,0.0,0.0,0.0,0.0,0.0,0.0,0.0,0.0,0,0.0,0.5,0.6185700297,0.5602629185,90.0,90.0,90.0,90.2726821899,87.9808578491,91.3549346924,51.363998413100006,14.656778335599999,18.8000011444,0,2,25,1,165,97
70,1530632939233,4852233, RC,0,39.9586186,-88.445067899,0,0.0,0.0,0.0,0.0,0.0,0.5930951238000001,0.0,0.0,0.0,0.0,0.0,0.0,0.0,1500,1750,0.0,0.0,40.0483533333,-88.2331193333,0.0,0.0,0.0,0.0,0.0,0.0,0.0,0.0,0.0,0.0,0.0,0,0.0,0.5,0.61783427,0.5683559775,90.0,90.0,90.0,90.8456420898,89.44507598879999,92.2462081909,51.363998413100006,14.656778335599999,18.8000011444,0,2,25,1,170,98
71,1530632939283,4852283, RC,0,39.9586186,-88.445067899,0,0.0,0.0,0.0,0.0,0.0,0.5938308835,0.0,0.0,0.0,0.0,0.0,0.0,0.0,1500,1750,0.0,0.0,40.0483533333,-88.2331193333,0.0,0.0,0.0,0.0,0.0,0.0,0.0,0.0,0.0,0.0,0.0,0,0.0,0.5,0.6251916289,0.5624701381,90.0,90.0,90.0,91.5459213257,90.0816955566,91.48226165770001,51.363998413100006,14.6429595947,6.5900006294,0,2,25,1,128,100
72,1530632939334,4852334, RC,0,39.9586186,-88.445067899,0,0.0,0.0,0.0,0.0,0.0,0.5973256826,0.0,0.0,0.0,0.0,0.0,0.0,0.0,1500,1750,0.0,0.0,40.0483533333,-88.2331193333,0.0,0.0,0.0,0.0,0.0,0.0,0.0,0.0,0.0,0.0,0.0,0,0.0,0.5,0.6301578878999999,0.5644934177,90.0,90.0,90.0,90.145362854,91.5459213257,89.5087432861,51.363998413100006,14.6429595947,6.5900006294,0,2,25,1,135,101
73,1530632939384,4852384, RC,0,39.9586186,-88.445067899,0,0.0,0.0,0.0,0.0,0.0,0.5859217644,0.0,0.0,0.0,0.0,0.0,0.0,0.0,1500,1750,0.0,0.0,40.0483533333,-88.2331193333,0.0,0.0,0.0,0.0,0.0,0.0,0.0,0.0,0.0,0.0,0.0,0,0.0,0.5,0.5998087525,0.5720347165999999,90.0,90.0,90.0,88.681137085,91.73690795899999,87.7898712158,51.363998413100006,14.6429595947,6.5900006294,0,2,25,1,143,102
74,1530632939435,4852435, RC,0,39.9586186,-88.445067899,0,0.0,0.0,0.0,0.0,0.0,0.5743339062,0.0,0.0,0.0,0.0,0.0,0.0,0.0,1500,1750,0.0,0.0,40.0483533333,-88.2331193333,0.0,0.0,0.0,0.0,0.0,0.0,0.0,0.0,0.0,0.0,0.0,0,0.0,0.5,0.5935549736,0.5551128386999999,90.0,90.0,90.0,89.44507598879999,90.9729614258,87.5352172852,51.363998413100006,14.6429595947,6.5900006294,0,2,25,1,120,103
75,1530632939485,4852485, RC,0,39.9586186,-88.445067899,0,0.0,0.0,0.0,0.0,0.0,0.5823350549,0.0,0.0,0.0,0.0,0.0,0.0,0.0,1500,1750,0.0,0.0,40.0483533333,-88.2331193333,0.0,0.0,0.0,0.0,0.0,0.0,0.0,0.0,0.0,0.0,0.0,0,0.0,0.5,0.5968658328,0.5678042769,90.0,90.0,90.0,92.11888122559999,89.0631027222,88.1081771851,51.363998413100006,14.6429595947,6.5900006294,0,2,25,1,90,104
76,1530632939536,4852536, RC,0,39.9586186,-88.445067899,0,0.0,0.0,0.0,0.0,0.0,0.5847261548,0.0,0.0,0.0,0.0,0.0,0.0,0.0,1500,1750,0.0,0.0,40.0483533333,-88.2331193333,0.0,0.0,0.0,0.0,0.0,0.0,0.0,0.0,0.0,0.0,0.0,0,0.0,0.5,0.5979693532,0.5714829564,90.0,90.0,90.0,92.88282775879999,89.44507598879999,91.9279022217,51.363998413100006,14.6429595947,6.5900006294,0,2,25,1,93,106
77,1530632939586,4852586, RC,0,39.9586186,-88.445067899,0,0.0,0.0,0.0,0.0,0.0,0.5936470032,0.0,0.0,0.0,0.0,0.0,0.0,0.0,1500,1750,0.0,0.0,40.0483533333,-88.2331193333,0.0,0.0,0.0,0.0,0.0,0.0,0.0,0.0,0.0,0.0,0.0,0,0.0,0.5,0.6091893911,0.5781045556000001,90.0,90.0,90.0,90.7819747925,88.4901504517,93.39212036129999,51.363998413100006,14.6429595947,6.5900006294,0,2,25,1,91,107
78,1530632939637,4852637, RC,0,39.9586186,-88.445067899,0,0.0,0.0,0.0,0.0,0.0,0.5862895846,0.0,0.0,0.0,0.0,0.0,0.0,0.0,1500,1750,0.0,0.0,40.0483533333,-88.2331193333,0.0,0.0,0.0,0.0,0.0,0.0,0.0,0.0,0.0,0.0,0.0,0,0.0,0.5,0.5955782533,0.577000916,90.0,90.0,90.0,88.4264831543,89.7633895874,92.5645141602,51.363998413100006,14.6429595947,6.5900006294,0,2,25,1,89,108
79,1530632939688,4852688, RC,0,39.9586186,-88.445067899,0,0.0,0.0,0.0,0.0,0.0,0.5815073252,0.0,0.0,0.0,0.0,0.0,0.0,0.0,1500,1750,0.0,0.0,40.0483533333,-88.2331193333,0.0,0.0,0.0,0.0,0.0,0.0,0.0,0.0,0.0,0.0,0.0,0,0.0,0.5,0.6044070721,0.5586075187,90.0,90.0,90.0,88.2991638184,91.2276153564,87.9808578491,51.363998413100006,14.6429595947,6.5900006294,0,2,25,1,98,109
80,1530632939738,4852738, RC,0,39.9586186,-88.445067899,0,0.0,0.0,0.0,0.0,0.0,0.5815073252,0.0,0.0,0.0,0.0,0.0,0.0,0.0,1500,1750,0.0,0.0,40.0483533333,-88.2331193333,0.0,0.0,0.0,0.0,0.0,0.0,0.0,0.0,0.0,0.0,0.0,0,0.0,0.5,0.6044070721,0.5586075187,90.0,90.0,90.0,88.2991638184,91.2276153564,87.9808578491,51.363998413100006,14.6429595947,6.5900006294,0,2,25,1,111,110
81,1530632939818,4852818, RC,0,39.9586186,-88.445067899,0,0.0,0.0,0.0,0.0,0.0,0.5793920754999999,0.0,0.0,0.0,0.0,0.0,0.0,0.0,1500,1750,0.0,0.0,40.0483533333,-88.2331193333,0.0,0.0,0.0,0.0,0.0,0.0,0.0,0.0,0.0,0.0,0.0,0,0.0,0.5,0.5838065147,0.5749776363,90.0,90.0,90.0,93.5194396973,88.1718444824,88.8084564209,51.363998413100006,14.6429595947,6.5900006294,0,2,25,1,111,112
82,1530632939868,4852868, RC,0,39.9586186,-88.445067899,0,0.0,0.0,0.0,0.0,0.0,0.5573199986999999,0.0,0.0,0.0,0.0,0.0,0.0,0.0,1500,1750,0.0,0.0,40.0483538333,-88.2331123333,0.0,0.0,0.0,0.0,0.0,0.0,0.0,0.0,0.0,0.0,0.0,0,0.0,0.5,0.5611826181,0.5534573793,90.0,90.0,90.0,93.01014709469999,89.0631027222,90.6546554565,51.363998413100006,14.6429595947,6.5900006294,0,2,25,1,146,114
83,1530632939918,4852918, RC,0,39.9586186,-88.445067899,0,0.0,0.0,0.0,0.0,0.0,0.5659648776,0.0,0.0,0.0,0.0,0.0,0.0,0.0,1500,1750,0.0,0.0,40.0483538333,-88.2331123333,0.0,0.0,0.0,0.0,0.0,0.0,0.0,0.0,0.0,0.0,0.0,0,0.0,0.5,0.5797599554,0.5521697997999999,90.0,90.0,90.0,89.0631027222,90.145362854,91.2276153564,51.363998413100006,14.6429595947,6.5900006294,0,2,25,1,154,115
84,1530632939969,4852969, RC,0,39.9586186,-88.445067899,0,0.0,0.0,0.0,0.0,0.0,0.5631139278,0.0,0.0,0.0,0.0,0.0,0.0,0.0,1500,1750,0.0,0.0,40.0483538333,-88.2331123333,0.0,0.0,0.0,0.0,0.0,0.0,0.0,0.0,0.0,0.0,0.0,0,0.0,0.5,0.5795760154999999,0.5466518402,90.0,90.0,90.0,88.74479675290002,90.5909881592,90.7183227539,51.363998413100006,14.6429595947,6.5900006294,0,2,25,1,134,116
85,1530632940019,4853019, RC,0,39.9586186,-88.445067899,0,0.0,0.0,0.0,0.0,0.0,0.5599870682,0.0,0.0,0.0,0.0,0.0,0.0,0.0,1500,1750,0.0,0.0,40.0483538333,-88.2331123333,0.0,0.0,0.0,0.0,0.0,0.0,0.0,0.0,0.0,0.0,0.0,0,0.0,0.5,0.5654130578000001,0.5545610189,90.0,90.0,90.0,89.8907089233,91.8642349243,88.1081771851,51.363998413100006,14.6429595947,6.5900006294,0,2,25,1,123,117
86,1530632940069,4853069, RC,0,39.9586186,-88.445067899,0,0.0,0.0,0.0,0.0,0.0,0.5501465797,0.0,0.0,0.0,0.0,0.0,0.0,0.0,1500,1750,0.0,0.0,40.0483538333,-88.2331123333,0.0,0.0,0.0,0.0,0.0,0.0,0.0,0.0,0.0,0.0,0.0,0,0.0,0.5,0.562654078,0.5376390815,90.0,90.0,90.0,90.4636688232,91.2276153564,87.4078979492,51.363998413100006,14.6429595947,6.5900006294,0,2,25,1,127,118
87,1530632940120,4853120, RC,0,39.9586186,-88.445067899,0,0.0,0.0,0.0,0.0,0.0,0.5550208092,0.0,0.0,0.0,0.0,0.0,0.0,0.0,1500,1750,0.0,0.0,40.0483538333,-88.2331123333,0.0,0.0,0.0,0.0,0.0,0.0,0.0,0.0,0.0,0.0,0.0,0,0.0,0.5,0.5567681789,0.5532734394,90.0,90.0,90.0,90.6546554565,90.0816955566,87.8535232544,51.363998413100006,14.6429595947,6.5900006294,0,2,25,1,106,120
88,1530632940170,4853170, RC,0,39.9586186,-88.445067899,0,0.0,0.0,0.0,0.0,0.0,0.5609067678,0.0,0.0,0.0,0.0,0.0,0.0,0.0,1500,1750,0.0,0.0,40.0483538333,-88.2331123333,0.0,0.0,0.0,0.0,0.0,0.0,0.0,0.0,0.0,0.0,0.0,0,0.0,0.5,0.5707471967000001,0.5510662794,90.0,90.0,90.0,90.145362854,88.74479675290002,91.1639480591,51.363998413100006,14.6429595947,6.5900006294,0,2,25,1,104,121
89,1530632940220,4853220, RC,0,39.9586186,-88.445067899,0,0.0,0.0,0.0,0.0,0.0,0.5598031282,0.0,0.0,0.0,0.0,0.0,0.0,0.0,1500,1750,0.0,0.0,40.0483538333,-88.2331123333,0.0,0.0,0.0,0.0,0.0,0.0,0.0,0.0,0.0,0.0,0.0,0,0.0,0.5,0.5617344379,0.5578718185,90.0,90.0,90.0,89.5724029541,86.13465881350001,93.96508026120001,51.363998413100006,14.6429595947,6.5900006294,0,2,25,1,100,122
90,1530632940271,4853271, RC,0,39.9586186,-88.445067899,0,0.0,0.0,0.0,0.0,0.0,0.5604468584000001,0.0,0.0,0.0,0.0,0.0,0.0,0.0,1500,1750,0.0,0.0,40.0483538333,-88.2331123333,0.0,0.0,0.0,0.0,0.0,0.0,0.0,0.0,0.0,0.0,0.0,0,0.0,0.5,0.5569521189,0.5639415979,90.0,90.0,90.0,90.4636688232,89.9543762207,94.3470458984,51.363998413100006,14.6429595947,6.5900006294,0,2,25,1,84,123
91,1530632940321,4853321, RC,0,39.9586186,-88.445067899,0,0.0,0.0,0.0,0.0,0.0,0.5632058978,0.0,0.0,0.0,0.0,0.0,0.0,0.0,1500,1750,0.0,0.0,40.0483538333,-88.2331123333,0.0,0.0,0.0,0.0,0.0,0.0,0.0,0.0,0.0,0.0,0.0,0,0.0,0.5,0.5630219579,0.5633898377000001,90.0,90.0,90.0,93.4557876587,90.7183227539,92.1825408936,51.363998413100006,14.6201782227,30.789999008200002,0,2,25,1,89,124
92,1530632940371,4853371, RC,0,39.9586186,-88.445067899,0,0.0,0.0,0.0,0.0,0.0,0.5635737181,0.0,0.0,0.0,0.0,0.0,0.0,0.0,1500,1750,0.0,0.0,40.0483538333,-88.2331123333,0.0,0.0,0.0,0.0,0.0,0.0,0.0,0.0,0.0,0.0,0.0,0,0.0,0.5,0.563757658,0.5633898377000001,90.0,90.0,90.0,93.1374740601,92.4371948242,87.3442306519,51.363998413100006,14.6201782227,30.789999008200002,0,2,25,1,89,126
93,1530632940422,4853422, RC,0,39.9586186,-88.445067899,0,0.0,0.0,0.0,0.0,0.0,0.5741499662,0.0,0.0,0.0,0.0,0.0,0.0,0.0,1500,1750,0.0,0.0,40.0483538333,-88.2331123333,0.0,0.0,0.0,0.0,0.0,0.0,0.0,0.0,0.0,0.0,0.0,0,0.0,0.5,0.5777366757,0.5705632567,90.0,90.0,90.0,86.7712783813,92.11888122559999,85.4980316162,51.363998413100006,14.6201782227,30.789999008200002,0,2,25,1,92,127
94,1530632940472,4853472, RC,0,39.9586186,-88.445067899,0,0.0,0.0,0.0,0.0,0.0,0.5744258165,0.0,0.0,0.0,0.0,0.0,0.0,0.0,1500,1750,0.0,0.0,40.0483538333,-88.2331123333,0.0,0.0,0.0,0.0,0.0,0.0,0.0,0.0,0.0,0.0,0.0,0,0.0,0.5,0.583070755,0.5657809377,90.0,90.0,90.0,86.1983184814,89.44507598879999,86.580291748,51.363998413100006,14.6201782227,30.789999008200002,0,2,25,1,79,128
95,1530632940522,4853522, RC,0,39.9586186,-88.445067899,0,0.0,0.0,0.0,0.0,0.0,0.5738739967,0.0,0.0,0.0,0.0,0.0,0.0,0.0,1500,1750,0.0,0.0,40.0483538333,-88.2331123333,0.0,0.0,0.0,0.0,0.0,0.0,0.0,0.0,0.0,0.0,0.0,0,0.0,0.5,0.591347754,0.5564002991,90.0,90.0,90.0,91.29127502440001,89.0631027222,88.55381011959999,51.363998413100006,14.6201782227,30.789999008200002,0,2,25,1,74,129
96,1530632940573,4853573, RC,0,39.9586186,-88.445067899,0,0.0,0.0,0.0,0.0,0.0,0.5724945664,0.0,0.0,0.0,0.0,0.0,0.0,0.0,1500,1750,0.0,0.0,40.0483538333,-88.2331123333,0.0,0.0,0.0,0.0,0.0,0.0,0.0,0.0,0.0,0.0,0.0,0,0.0,0.5,0.590244174,0.5547449589,90.0,90.0,90.0,92.0552215576,87.5352172852,91.4186019897,51.363998413100006,14.6201782227,30.789999008200002,0,2,25,1,97,130
97,1530632940623,4853623, RC,0,39.9586186,-88.445067899,0,0.0,0.0,0.0,0.0,0.0,0.5761731863,0.0,0.0,0.0,0.0,0.0,0.0,0.0,1500,1750,0.0,0.0,40.0483538333,-88.2331123333,0.0,0.0,0.0,0.0,0.0,0.0,0.0,0.0,0.0,0.0,0.0,0,0.0,0.5,0.5933710337,0.5589753985,90.0,90.0,90.0,88.8084564209,88.36282348629999,93.7104263306,51.363998413100006,14.6201782227,30.789999008200002,0,2,25,1,93,132
98,1530632940673,4853673, RC,0,39.9586186,-88.445067899,0,0.0,0.0,0.0,0.0,0.0,0.5630219579,0.0,0.0,0.0,0.0,0.0,0.0,0.0,1500,1750,0.0,0.0,40.0483538333,-88.2331123333,0.0,0.0,0.0,0.0,0.0,0.0,0.0,0.0,0.0,0.0,0.0,0,0.0,0.5,0.5907959938,0.5352479218999999,90.0,90.0,90.0,89.1904296875,90.0816955566,91.67324829100001,51.363998413100006,14.6201782227,30.789999008200002,0,2,25,1,78,133
99,1530632940724,4853724, RC,0,39.9586186,-88.445067899,0,0.0,0.0,0.0,0.0,0.0,0.5560324192,0.0,0.0,0.0,0.0,0.0,0.0,0.0,1500,1750,0.0,0.0,40.0483538333,-88.2331123333,0.0,0.0,0.0,0.0,0.0,0.0,0.0,0.0,0.0,0.0,0.0,0,0.0,0.5,0.5810474753,0.5310174227000001,90.0,90.0,90.0,92.3735275269,89.9543762207,90.9093093872,51.363998413100006,14.6201782227,30.789999008200002,0,2,25,1,80,134
100,1530632940774,4853774, RC,0,39.9586186,-88.445067899,0,0.0,0.0,0.0,0.0,0.0,0.5697355270000001,0.0,0.0,0.0,0.0,0.0,0.0,0.0,1500,1750,0.0,0.0,40.0483538333,-88.2331123333,0.0,0.0,0.0,0.0,0.0,0.0,0.0,0.0,0.0,0.0,0.0,0,0.0,0.5,0.5882208943,0.5512501597,90.0,90.0,90.0,93.4557876587,91.9279022217,89.3814163208,51.363998413100006,14.6201782227,30.789999008200002,0,2,25,1,88,135
101,1530632940824,4853824, RC,0,39.9586186,-88.445067899,0,0.0,0.0,0.0,0.0,0.0,0.5647693276,0.0,0.0,0.0,0.0,0.0,0.0,0.0,1500,1750,0.0,0.0,40.0483533333,-88.233105,0.0,0.0,0.0,0.0,0.0,0.0,0.0,0.0,0.0,0.0,0.0,0,0.0,0.5,0.5955782533,0.5339604020000001,90.0,90.0,90.0,90.7819747925,91.0366287231,88.9994430542,51.363998413100006,14.6201782227,30.789999008200002,0,2,25,1,81,137
102,1530632940875,4853875, RC,0,39.9586186,-88.445067899,0,0.0,0.0,0.0,0.0,0.0,0.5660568476,0.0,0.0,0.0,0.0,0.0,0.0,0.0,1500,1750,0.0,0.0,40.0483533333,-88.233105,0.0,0.0,0.0,0.0,0.0,0.0,0.0,0.0,0.0,0.0,0.0,0,0.0,0.5,0.585277915,0.5468357205,90.0,90.0,90.0,88.36282348629999,90.5273361206,88.2991638184,51.363998413100006,14.6201782227,30.789999008200002,0,2,25,1,70,138
103,1530632940925,4853925, RC,0,39.9586186,-88.445067899,0,0.0,0.0,0.0,0.0,0.0,0.5698275566,0.0,0.0,0.0,0.0,0.0,0.0,0.0,1465,1750,0.0,0.0,40.0483533333,-88.233105,0.0,0.0,0.0,0.0,0.0,0.0,0.0,0.0,0.0,0.0,0.0,0,-0.0690559745,0.5,0.6012802124000001,0.5383748412,90.0,90.0,90.0,86.96226501459999,90.3363494873,88.0445098877,51.363998413100006,14.6201782227,30.789999008200002,0,2,25,1,73,139
104,1530632940975,4853975, RC,0,39.9586186,-88.445067899,0,0.0,0.0,0.0,0.0,0.0,0.5788402557,0.0,0.0,0.0,0.0,0.0,0.0,0.0,1465,1750,0.0,0.0,40.0483533333,-88.233105,0.0,0.0,0.0,0.0,0.0,0.0,0.0,0.0,0.0,0.0,0.0,0,-0.0690559745,0.5,0.5782884359,0.5793920754999999,90.0,90.0,90.0,86.96226501459999,90.9093093872,87.7898712158,51.363998413100006,14.6201782227,30.789999008200002,0,2,25,1,81,140
105,1530632941026,4854026, RC,0,39.9586186,-88.445067899,0,0.0,0.0,0.0,0.0,0.0,0.575805366,0.0,0.0,0.0,0.0,0.0,0.0,0.0,1417,1750,0.0,0.0,40.0483533333,-88.233105,0.0,0.0,0.0,0.0,0.0,0.0,0.0,0.0,0.0,0.0,0.0,0,-0.1641910076,0.5,0.5644934177,0.5871173143,90.0,90.0,90.0,90.145362854,92.50085449219999,87.47155761719999,51.363998413100006,14.6201782227,30.789999008200002,0,2,25,1,84,141
106,1530632941076,4854076, RC,0,39.9586186,-88.445067899,0,0.0,0.0,0.0,0.0,0.0,0.5744258165,0.0,0.0,0.0,0.0,0.0,0.0,0.0,1417,1750,0.0,0.0,40.0483533333,-88.233105,0.0,0.0,0.0,0.0,0.0,0.0,0.0,0.0,0.0,0.0,0.0,0,-0.1641910076,0.5,0.5598950386,0.5889566541,90.0,90.0,90.0,92.9464874268,91.9915542603,87.3442306519,51.363998413100006,14.6201782227,30.789999008200002,0,2,25,1,87,143
107,1530632941126,4854126, RC,0,39.9586186,-88.445067899,0,0.0,0.0,0.0,0.0,0.0,0.5785644054,0.0,0.0,0.0,0.0,0.0,0.0,0.0,1395,1750,0.0,0.0,40.0483533333,-88.233105,0.0,0.0,0.0,0.0,0.0,0.0,0.0,0.0,0.0,0.0,0.0,0,-0.2082509995,0.5,0.5243958235,0.6327329278,90.0,90.0,90.0,93.328453064,90.5909881592,88.4264831543,51.363998413100006,14.6201782227,30.789999008200002,0,2,25,1,78,144
108,1530632941177,4854177, RC,0,39.9586186,-88.445067899,0,0.0,0.0,0.0,0.0,0.0,0.5723105668999999,0.0,0.0,0.0,0.0,0.0,0.0,0.0,1395,1750,0.0,0.0,40.0483533333,-88.233105,0.0,0.0,0.0,0.0,0.0,0.0,0.0,0.0,0.0,0.0,0.0,0,-0.2082509995,0.5,0.4997486472,0.6448725462,90.0,90.0,90.0,90.3363494873,91.4186019897,89.5087432861,51.363998413100006,14.6201782227,30.789999008200002,0,2,25,1,77,145
109,1530632941227,4854227, RC,0,39.9586186,-88.445067899,0,0.0,0.0,0.0,0.0,0.0,0.5606307983,0.0,0.0,0.0,0.0,0.0,0.0,0.0,1384,1750,0.0,0.0,40.0483533333,-88.233105,0.0,0.0,0.0,0.0,0.0,0.0,0.0,0.0,0.0,0.0,0.0,0,-0.2319920063,0.5,0.46682447200000005,0.6544371247,90.0,90.0,90.0,89.7633895874,92.1825408936,88.36282348629999,51.363998413100006,14.6201782227,30.789999008200002,0,2,25,1,70,146
110,1530632941277,4854277, RC,0,39.9586186,-88.445067899,0,0.0,0.0,0.0,0.0,0.0,0.5694596171,0.0,0.0,0.0,0.0,0.0,0.0,0.0,1384,1750,0.0,0.0,40.0483533333,-88.233105,0.0,0.0,0.0,0.0,0.0,0.0,0.0,0.0,0.0,0.0,0.0,0,-0.2319920063,0.5,0.4546848238,0.6842344403,90.0,90.0,90.0,88.0445098877,91.48226165770001,87.8535232544,51.363998413100006,14.5853910446,22.8700008392,0,2,25,1,65,147
111,1530632941327,4854327, RC,0,39.9586186,-88.445067899,0,0.0,0.0,0.0,0.0,0.0,0.5798518658,0.0,0.0,0.0,0.0,0.0,0.0,0.0,1384,1750,0.0,0.0,40.0483533333,-88.233105,0.0,0.0,0.0,0.0,0.0,0.0,0.0,0.0,0.0,0.0,0.0,0,-0.2319920063,0.5,0.4300376475,0.7296661139,90.0,90.0,90.0,86.96226501459999,88.235496521,91.1639480591,51.363998413100006,14.5853910446,22.8700008392,0,2,25,1,79,149
112,1530632941378,4854378, RC,0,39.9586186,-88.445067899,0,0.0,0.0,0.0,0.0,0.0,0.5737820864000001,0.0,0.0,0.0,0.0,0.0,0.0,0.0,1384,1750,0.0,0.0,40.0483533333,-88.233105,0.0,0.0,0.0,0.0,0.0,0.0,0.0,0.0,0.0,0.0,0.0,0,-0.2319920063,0.5,0.4219445586,0.7256195545,90.0,90.0,90.0,89.82704925540001,87.5352172852,93.7104263306,51.363998413100006,14.5853910446,22.8700008392,0,2,25,1,81,150
113,1530632941428,4854428, RC,0,39.9586186,-88.445067899,0,0.0,0.0,0.0,0.0,0.0,0.5662407875,0.0,0.0,0.0,0.0,0.0,0.0,0.0,1500,1750,0.0,0.0,40.0483533333,-88.233105,0.0,0.0,0.0,0.0,0.0,0.0,0.0,0.0,0.0,0.0,0.0,0,0.0,0.5,0.4013439715,0.7311376333,90.0,90.0,90.0,91.1639480591,89.6997299194,92.2462081909,51.363998413100006,14.5853910446,22.8700008392,0,2,25,1,69,151
114,1530632941478,4854478, RC,0,39.9586186,-88.445067899,0,0.0,0.0,0.0,0.0,0.0,0.5702873468,0.0,0.0,0.0,0.0,0.0,0.0,0.0,1500,1750,0.0,0.0,40.0483533333,-88.233105,0.0,0.0,0.0,0.0,0.0,0.0,0.0,0.0,0.0,0.0,0.0,0,0.0,0.5,0.4234160185,0.7171586156,90.0,90.0,90.0,89.9543762207,90.2726821899,90.7819747925,51.363998413100006,14.5853910446,22.8700008392,0,2,25,1,65,152
115,1530632941529,4854529, RC,0,39.9586186,-88.445067899,0,0.0,0.0,0.0,0.0,0.0,0.5729543567000001,0.0,0.0,0.0,0.0,0.0,0.0,0.0,1500,1750,0.0,0.0,40.0483533333,-88.233105,0.0,0.0,0.0,0.0,0.0,0.0,0.0,0.0,0.0,0.0,0.0,0,0.0,0.5,0.4725264013,0.6733823419,90.0,90.0,90.0,89.8907089233,88.9994430542,89.12677001950001,51.363998413100006,14.5853910446,22.8700008392,0,2,25,1,79,153
116,1530632941579,4854579, RC,0,39.9586186,-88.445067899,0,0.0,0.0,0.0,0.0,0.0,0.582059145,0.0,0.0,0.0,0.0,0.0,0.0,0.0,1500,1750,0.0,0.0,40.0483533333,-88.233105,0.0,0.0,0.0,0.0,0.0,0.0,0.0,0.0,0.0,0.0,0.0,0,0.0,0.5,0.5056345463,0.6584836840999999,90.0,90.0,90.0,92.4371948242,88.4264831543,90.5273361206,51.363998413100006,14.5853910446,22.8700008392,0,2,25,1,75,155
117,1530632941629,4854629, RC,0,39.9586186,-88.445067899,0,0.0,0.0,0.0,0.0,0.0,0.5866574645,0.0,0.0,0.0,0.0,0.0,0.0,0.0,1500,1750,0.0,0.0,40.0483533333,-88.233105,0.0,0.0,0.0,0.0,0.0,0.0,0.0,0.0,0.0,0.0,0.0,0,0.0,0.5,0.5286263227,0.6446886063,90.0,90.0,90.0,94.28338623049999,88.4901504517,91.6095809937,51.363998413100006,14.5853910446,22.8700008392,0,2,25,1,78,156
118,1530632941680,4854680, RC,0,39.9586186,-88.445067899,0,0.0,0.0,0.0,0.0,0.0,0.5822430849,0.0,0.0,0.0,0.0,0.0,0.0,0.0,1500,1750,0.0,0.0,40.0483533333,-88.233105,0.0,0.0,0.0,0.0,0.0,0.0,0.0,0.0,0.0,0.0,0.0,0,0.0,0.5,0.5413177609000001,0.6231683493,90.0,90.0,90.0,90.5909881592,89.5724029541,92.81916046139999,51.363998413100006,14.5853910446,22.8700008392,0,2,25,1,78,157
119,1530632941730,4854730, RC,0,39.9586186,-88.445067899,0,0.0,0.0,0.0,0.0,0.0,0.5815073252,0.0,0.0,0.0,0.0,0.0,0.0,0.0,1500,1500,0.0,0.0,40.0483533333,-88.233105,0.0,0.0,0.0,0.0,0.0,0.0,0.0,0.0,0.0,0.0,0.0,0,0.0,0.0,0.5672524571,0.5957621932,90.0,90.0,90.0,87.3442306519,90.4636688232,90.0816955566,51.363998413100006,14.5853910446,22.8700008392,0,2,25,1,85,158
120,1530632941780,4854780, RC,0,39.9586186,-88.445067899,0,0.0,0.0,0.0,0.0,0.0,0.5562164186999999,0.0,0.0,0.0,0.0,0.0,0.0,0.0,1500,1500,0.0,0.0,40.0483533333,-88.233105,0.0,0.0,0.0,0.0,0.0,0.0,0.0,0.0,0.0,0.0,0.0,0,0.0,0.0,0.5444446206,0.5679882169,90.0,90.0,90.0,89.82704925540001,90.7819747925,87.7898712158,51.363998413100006,14.5853910446,22.8700008392,0,2,25,1,101,159
121,1530632941831,4854831, RC,0,39.9586186,-88.445067899,0,0.0,0.0,0.0,0.0,0.0,0.4519258142,0.0,0.0,0.0,0.0,0.0,0.0,0.0,1500,1500,0.0,0.0,40.0483541667,-88.2331033333,0.0,0.0,0.0,0.0,0.0,0.0,0.0,0.0,0.0,0.0,0.0,0,0.0,0.0,0.4511900842,0.4526615739,90.0,90.0,90.0,92.1825408936,91.48226165770001,87.9808578491,51.363998413100006,14.5853910446,22.8700008392,0,2,25,1,88,161
122,1530632941881,4854881, RC,0,39.9586186,-88.445067899,0,0.0,0.0,0.0,0.0,0.0,0.3788120747,0.0,0.0,0.0,0.0,0.0,0.0,0.0,1500,1500,0.0,0.0,40.0483541667,-88.2331033333,0.0,0.0,0.0,0.0,0.0,0.0,0.0,0.0,0.0,0.0,0.0,0,0.0,0.0,0.3787201047,0.3789040446,90.0,90.0,90.0,92.3735275269,91.8642349243,86.96226501459999,51.363998413100006,14.5853910446,22.8700008392,0,2,25,1,87,162
123,1530632941931,4854931, RC,0,39.9586186,-88.445067899,0,0.0,0.0,0.0,0.0,0.0,0.2967774868,0.0,0.0,0.0,0.0,0.0,0.0,0.0,1500,1500,0.0,0.0,40.0483541667,-88.2331033333,0.0,0.0,0.0,0.0,0.0,0.0,0.0,0.0,0.0,0.0,0.0,0,0.0,0.0,0.2987088263,0.2948461771,90.0,90.0,90.0,91.9279022217,90.20902252200001,86.7712783813,51.363998413100006,14.5853910446,22.8700008392,0,2,25,1,93,163
124,1530632941982,4854982, RC,0,39.9586186,-88.445067899,0,0.0,0.0,0.0,0.0,0.0,0.2250432372,0.0,0.0,0.0,0.0,0.0,0.0,0.0,1500,1500,0.0,0.0,40.0483541667,-88.2331033333,0.0,0.0,0.0,0.0,0.0,0.0,0.0,0.0,0.0,0.0,0.0,0,0.0,0.0,0.2271584868,0.2229280025,90.0,90.0,90.0,90.9729614258,90.3363494873,90.6546554565,51.363998413100006,14.5853910446,22.8700008392,0,2,25,1,86,164
125,1530632942032,4855032, RC,0,39.9586186,-88.445067899,0,0.0,0.0,0.0,0.0,0.0,0.18503758309999999,0.0,0.0,0.0,0.0,0.0,0.0,0.0,1500,1500,0.0,0.0,40.0483541667,-88.2331033333,0.0,0.0,0.0,0.0,0.0,0.0,0.0,0.0,0.0,0.0,0.0,0,0.0,0.0,0.1866929978,0.18338218329999997,90.0,90.0,90.0,91.1639480591,90.20902252200001,91.2276153564,51.363998413100006,14.5853910446,22.8700008392,0,2,25,1,76,165
126,1530632942082,4855082, RC,0,39.9586186,-88.445067899,0,0.0,0.0,0.0,0.0,0.0,0.1544125825,0.0,0.0,0.0,0.0,0.0,0.0,0.0,1500,1500,0.0,0.0,40.0483541667,-88.2331033333,0.0,0.0,0.0,0.0,0.0,0.0,0.0,0.0,0.0,0.0,0.0,0,0.0,0.0,0.1557920873,0.1530330777,90.0,90.0,90.0,89.7633895874,89.3814163208,91.67324829100001,51.363998413100006,14.5853910446,22.8700008392,0,2,25,1,69,167
127,1530632942133,4855133, RC,0,39.9586186,-88.445067899,0,0.0,0.0,0.0,0.0,0.0,0.11734988539999999,0.0,0.0,0.0,0.0,0.0,0.0,0.0,1500,1500,0.0,0.0,40.0483541667,-88.2331033333,0.0,0.0,0.0,0.0,0.0,0.0,0.0,0.0,0.0,0.0,0.0,0,0.0,0.0,0.1171659529,0.11753381789999999,90.0,90.0,90.0,89.8907089233,88.9994430542,92.0552215576,51.363998413100006,14.5853910446,22.8700008392,0,2,25,1,71,168
128,1530632942183,4855183, RC,0,39.9586186,-88.445067899,0,0.0,0.0,0.0,0.0,0.0,0.0964733809,0.0,0.0,0.0,0.0,0.0,0.0,0.0,1500,1500,0.0,0.0,40.0483541667,-88.2331033333,0.0,0.0,0.0,0.0,0.0,0.0,0.0,0.0,0.0,0.0,0.0,0,0.0,0.0,0.096381411,0.0965653434,90.0,90.0,90.0,90.20902252200001,89.3177566528,91.10028839110001,51.363998413100006,14.5853910446,22.8700008392,0,2,25,1,68,169
129,1530632942233,4855233, RC,0,39.9586186,-88.445067899,0,0.0,0.0,0.0,0.0,0.0,0.0734816343,0.0,0.0,0.0,0.0,0.0,0.0,0.0,1500,1500,0.0,0.0,40.0483541667,-88.2331033333,0.0,0.0,0.0,0.0,0.0,0.0,0.0,0.0,0.0,0.0,0.0,0,0.0,0.0,0.0730217993,0.0739414617,90.0,90.0,90.0,90.145362854,90.2726821899,90.5273361206,51.363998413100006,14.5853910446,22.8700008392,0,2,25,1,65,170
130,1530632942284,4855284, RC,0,39.9586186,-88.445067899,0,0.0,0.0,0.0,0.0,0.0,0.0604223162,0.0,0.0,0.0,0.0,0.0,0.0,0.0,1500,1500,0.0,0.0,40.0483541667,-88.2331033333,0.0,0.0,0.0,0.0,0.0,0.0,0.0,0.0,0.0,0.0,0.0,0,0.0,0.0,0.0601464137,0.060698218600000006,90.0,90.0,90.0,90.145362854,90.4636688232,90.145362854,51.363998413100006,14.5852813721,2.3000001907,0,2,25,1,73,172
131,1530632942334,4855334, RC,0,39.9586186,-88.445067899,0,0.0,0.0,0.0,0.0,0.0,0.0455236621,0.0,0.0,0.0,0.0,0.0,0.0,0.0,1500,1500,0.0,0.0,40.0483541667,-88.2331033333,0.0,0.0,0.0,0.0,0.0,0.0,0.0,0.0,0.0,0.0,0.0,0,0.0,0.0,0.0452477634,0.0457995608,90.0,90.0,90.0,90.145362854,90.5273361206,90.0816955566,51.363998413100006,14.5852813721,2.3000001907,0,2,25,1,73,173
132,1530632942384,4855384, RC,0,39.9586186,-88.445067899,0,0.0,0.0,0.0,0.0,0.0,0.037614502,0.0,0.0,0.0,0.0,0.0,0.0,0.0,1500,1500,0.0,0.0,40.0483541667,-88.2331033333,0.0,0.0,0.0,0.0,0.0,0.0,0.0,0.0,0.0,0.0,0.0,0,0.0,0.0,0.0373386033,0.0378904007,90.0,90.0,90.0,90.0816955566,90.5273361206,90.20902252200001,51.363998413100006,14.5852813721,2.3000001907,0,2,25,1,63,174
133,1530632942435,4855435, RC,0,39.9586186,-88.445067899,0,0.0,0.0,0.0,0.0,0.0,0.0283258334,0.0,0.0,0.0,0.0,0.0,0.0,0.0,1500,1500,0.0,0.0,40.0483541667,-88.2331033333,0.0,0.0,0.0,0.0,0.0,0.0,0.0,0.0,0.0,0.0,0.0,0,0.0,0.0,0.0281419009,0.0285097677,90.0,90.0,90.0,90.145362854,90.4636688232,90.20902252200001,51.363998413100006,14.5852813721,2.3000001907,0,2,25,1,63,175
134,1530632942485,4855485, RC,0,39.9586186,-88.445067899,0,0.0,0.0,0.0,0.0,0.0,0.0212443769,0.0,0.0,0.0,0.0,0.0,0.0,0.0,1500,1500,0.0,0.0,40.0483541667,-88.2331033333,0.0,0.0,0.0,0.0,0.0,0.0,0.0,0.0,0.0,0.0,0.0,0,0.0,0.0,0.021152408799999998,0.021336343100000002,90.0,90.0,90.0,90.0816955566,90.4636688232,90.20902252200001,51.363998413100006,14.5852813721,2.3000001907,0,2,25,1,63,177
135,1530632942535,4855535, RC,0,39.9586186,-88.445067899,0,0.0,0.0,0.0,0.0,0.0,0.0175656974,0.0,0.0,0.0,0.0,0.0,0.0,0.0,1500,1500,0.0,0.0,40.0483541667,-88.2331033333,0.0,0.0,0.0,0.0,0.0,0.0,0.0,0.0,0.0,0.0,0.0,0,0.0,0.0,0.017289795,0.017841598,90.0,90.0,90.0,90.2726821899,90.4636688232,90.145362854,51.363998413100006,14.5852813721,2.3000001907,0,2,25,1,61,178
136,1530632942586,4855586, RC,0,39.9586186,-88.445067899,0,0.0,0.0,0.0,0.0,0.0,0.0132432478,0.0,0.0,0.0,0.0,0.0,0.0,0.0,1500,1500,0.0,0.0,40.0483541667,-88.2331033333,0.0,0.0,0.0,0.0,0.0,0.0,0.0,0.0,0.0,0.0,0.0,0,0.0,0.0,0.013059313400000001,0.013427182099999999,90.0,90.0,90.0,90.20902252200001,90.40000915530001,90.145362854,51.363998413100006,14.5852813721,2.3000001907,0,2,25,1,57,180
137,1530632942636,4855636, RC,0,39.9586186,-88.445067899,0,0.0,0.0,0.0,0.0,0.0,0.0109440722,0.0,0.0,0.0,0.0,0.0,0.0,0.0,1500,1500,0.0,0.0,40.0483541667,-88.2331033333,0.0,0.0,0.0,0.0,0.0,0.0,0.0,0.0,0.0,0.0,0.0,0,0.0,0.0,0.0108521059,0.0110360393,90.0,90.0,90.0,90.145362854,90.40000915530001,90.145362854,51.363998413100006,14.5852813721,2.3000001907,0,2,25,1,56,181
138,1530632942686,4855686, RC,0,39.9586186,-88.445067899,0,0.0,0.0,0.0,0.0,0.0,0.0090127662,0.0,0.0,0.0,0.0,0.0,0.0,0.0,1500,1500,0.0,0.0,40.0483541667,-88.2331033333,0.0,0.0,0.0,0.0,0.0,0.0,0.0,0.0,0.0,0.0,0.0,0,0.0,0.0,0.0088288318,0.0091966996,90.0,90.0,90.0,90.145362854,90.40000915530001,90.145362854,51.363998413100006,14.5852813721,2.3000001907,0,2,25,1,56,182
139,1530632942737,4855737, RC,0,39.9586186,-88.445067899,0,0.0,0.0,0.0,0.0,0.0,0.0068055578000000005,0.0,0.0,0.0,0.0,0.0,0.0,0.0,1500,1500,0.0,0.0,40.0483541667,-88.2331033333,0.0,0.0,0.0,0.0,0.0,0.0,0.0,0.0,0.0,0.0,0.0,0,0.0,0.0,0.0068055578000000005,0.0068055578000000005,90.0,90.0,90.0,90.0816955566,90.40000915530001,90.145362854,51.363998413100006,14.5852813721,2.3000001907,0,2,25,1,59,184
140,1530632942787,4855787, RC,0,39.9586186,-88.445067899,0,0.0,0.0,0.0,0.0,0.0,0.0050581847,0.0,0.0,0.0,0.0,0.0,0.0,0.0,1500,1500,0.0,0.0,40.0483541667,-88.2331033333,0.0,0.0,0.0,0.0,0.0,0.0,0.0,0.0,0.0,0.0,0.0,0,0.0,0.0,0.0049662176,0.0051501519,90.0,90.0,90.0,90.0816955566,90.3363494873,90.145362854,51.363998413100006,14.5852813721,2.3000001907,0,2,25,1,57,185
141,1530632942837,4855837, RC,0,39.9586186,-88.445067899,0,0.0,0.0,0.0,0.0,0.0,0.004230482,0.0,0.0,0.0,0.0,0.0,0.0,0.0,1500,1500,0.0,0.0,40.048354,-88.2331078333,0.0,0.0,0.0,0.0,0.0,0.0,0.0,0.0,0.0,0.0,0.0,0,0.0,0.0,0.004230482,0.004230482,90.0,90.0,90.0,90.0816955566,90.3363494873,90.0816955566,51.363998413100006,14.5852813721,2.3000001907,0,2,25,1,63,186
142,1530632942888,4855888, RC,0,39.9586186,-88.445067899,0,0.0,0.0,0.0,0.0,0.0,0.0031268778000000004,0.0,0.0,0.0,0.0,0.0,0.0,0.0,1500,1500,0.0,0.0,40.048354,-88.2331078333,0.0,0.0,0.0,0.0,0.0,0.0,0.0,0.0,0.0,0.0,0.0,0,0.0,0.0,0.0031268778000000004,0.0031268778000000004,90.0,90.0,90.0,90.01803588870001,90.3363494873,90.0816955566,51.363998413100006,14.5852813721,2.3000001907,0,2,25,1,65,188
143,1530632942938,4855938, RC,0,39.9586186,-88.445067899,0,0.0,0.0,0.0,0.0,0.0,0.002575076,0.0,0.0,0.0,0.0,0.0,0.0,0.0,1500,1500,0.0,0.0,40.048354,-88.2331078333,0.0,0.0,0.0,0.0,0.0,0.0,0.0,0.0,0.0,0.0,0.0,0,0.0,0.0,0.002575076,0.002575076,90.0,90.0,90.0,90.01803588870001,90.3363494873,90.0816955566,51.363998413100006,14.5852813721,2.3000001907,0,2,25,1,63,189
144,1530632942988,4855988, RC,0,39.9586186,-88.445067899,0,0.0,0.0,0.0,0.0,0.0,0.0019313069000000001,0.0,0.0,0.0,0.0,0.0,0.0,0.0,1500,1500,0.0,0.0,40.048354,-88.2331078333,0.0,0.0,0.0,0.0,0.0,0.0,0.0,0.0,0.0,0.0,0.0,0,0.0,0.0,0.0018393398,0.0020232738,90.0,90.0,90.0,90.01803588870001,90.3363494873,90.0816955566,51.363998413100006,14.5852813721,2.3000001907,0,2,25,1,60,190
145,1530632943039,4856039, RC,0,39.9586186,-88.445067899,0,0.0,0.0,0.0,0.0,0.0,0.0016554058999999999,0.0,0.0,0.0,0.0,0.0,0.0,0.0,1500,1500,0.0,0.0,40.048354,-88.2331078333,0.0,0.0,0.0,0.0,0.0,0.0,0.0,0.0,0.0,0.0,0.0,0,0.0,0.0,0.0016554058999999999,0.0016554058999999999,90.0,90.0,90.0,90.01803588870001,90.2726821899,90.0816955566,51.363998413100006,14.5852813721,2.3000001907,0,2,25,1,64,192
146,1530632943089,4856089, RC,0,39.9586186,-88.445067899,0,0.0,0.0,0.0,0.0,0.0,0.001287538,0.0,0.0,0.0,0.0,0.0,0.0,0.0,1500,1500,0.0,0.0,40.048354,-88.2331078333,0.0,0.0,0.0,0.0,0.0,0.0,0.0,0.0,0.0,0.0,0.0,0,0.0,0.0,0.001287538,0.001287538,90.0,90.0,90.0,89.9543762207,90.2726821899,90.0816955566,51.363998413100006,14.5852813721,2.3000001907,0,2,25,1,65,193
147,1530632943139,4856139, RC,0,39.9586186,-88.445067899,0,0.0,0.0,0.0,0.0,0.0,0.0009196699,0.0,0.0,0.0,0.0,0.0,0.0,0.0,1500,1500,0.0,0.0,40.048354,-88.2331078333,0.0,0.0,0.0,0.0,0.0,0.0,0.0,0.0,0.0,0.0,0.0,0,0.0,0.0,0.0009196699,0.0009196699,90.0,90.0,90.0,89.9543762207,90.2726821899,90.0816955566,51.363998413100006,14.5852813721,2.3000001907,0,2,25,1,64,194
148,1530632943189,4856189, RC,0,39.9586186,-88.445067899,0,0.0,0.0,0.0,0.0,0.0,0.0007357360000000001,0.0,0.0,0.0,0.0,0.0,0.0,0.0,1500,1500,0.0,0.0,40.048354,-88.2331078333,0.0,0.0,0.0,0.0,0.0,0.0,0.0,0.0,0.0,0.0,0.0,0,0.0,0.0,0.0007357360000000001,0.0007357360000000001,90.0,90.0,90.0,89.9543762207,90.2726821899,90.01803588870001,51.363998413100006,14.5852813721,2.3000001907,0,2,25,1,62,196
149,1530632943240,4856240, RC,0,39.9586186,-88.445067899,0,0.0,0.0,0.0,0.0,0.0,0.000551802,0.0,0.0,0.0,0.0,0.0,0.0,0.0,1500,1500,0.0,0.0,40.048354,-88.2331078333,0.0,0.0,0.0,0.0,0.0,0.0,0.0,0.0,0.0,0.0,0.0,0,0.0,0.0,0.000551802,0.000551802,90.0,90.0,90.0,89.9543762207,90.2726821899,90.01803588870001,51.363998413100006,14.5852813721,2.3000001907,0,2,25,1,61,197
150,1530632943290,4856290, RC,0,39.9586186,-88.445067899,0,0.0,0.0,0.0,0.0,0.0,0.000459835,0.0,0.0,0.0,0.0,0.0,0.0,0.0,1500,1500,0.0,0.0,40.048354,-88.2331078333,0.0,0.0,0.0,0.0,0.0,0.0,0.0,0.0,0.0,0.0,0.0,0,0.0,0.0,0.00036786800000000004,0.000551802,90.0,90.0,90.0,89.8907089233,90.2726821899,90.01803588870001,51.363998413100006,14.5855045319,2.7899999619,0,2,25,1,62,199
151,1530632943340,4856340, RC,0,39.9586186,-88.445067899,0,0.0,0.0,0.0,0.0,0.0,0.00036786800000000004,0.0,0.0,0.0,0.0,0.0,0.0,0.0,1500,1500,0.0,0.0,40.048354,-88.2331078333,0.0,0.0,0.0,0.0,0.0,0.0,0.0,0.0,0.0,0.0,0.0,0,0.0,0.0,0.00036786800000000004,0.00036786800000000004,90.0,90.0,90.0,90.0816955566,90.20902252200001,90.01803588870001,51.363998413100006,14.5855045319,2.7899999619,0,2,25,1,64,200
152,1530632943391,4856391, RC,0,39.9586186,-88.445067899,0,0.0,0.0,0.0,0.0,0.0,0.000275901,0.0,0.0,0.0,0.0,0.0,0.0,0.0,1500,1500,0.0,0.0,40.048354,-88.2331078333,0.0,0.0,0.0,0.0,0.0,0.0,0.0,0.0,0.0,0.0,0.0,0,0.0,0.0,0.00018393400000000002,0.00036786800000000004,90.0,90.0,90.0,90.0816955566,90.20902252200001,90.01803588870001,51.363998413100006,14.5855045319,2.7899999619,0,2,25,1,62,201
153,1530632943441,4856441, RC,0,39.9586186,-88.445067899,0,0.0,0.0,0.0,0.0,0.0,0.00018393400000000002,0.0,0.0,0.0,0.0,0.0,0.0,0.0,1500,1500,0.0,0.0,40.048354,-88.2331078333,0.0,0.0,0.0,0.0,0.0,0.0,0.0,0.0,0.0,0.0,0.0,0,0.0,0.0,0.00018393400000000002,0.00018393400000000002,90.0,90.0,90.0,90.01803588870001,90.20902252200001,90.01803588870001,51.363998413100006,14.5855045319,2.7899999619,0,2,25,1,60,203
154,1530632943491,4856491, RC,0,39.9586186,-88.445067899,0,0.0,0.0,0.0,0.0,0.0,0.00018393400000000002,0.0,0.0,0.0,0.0,0.0,0.0,0.0,1500,1500,0.0,0.0,40.048354,-88.2331078333,0.0,0.0,0.0,0.0,0.0,0.0,0.0,0.0,0.0,0.0,0.0,0,0.0,0.0,0.00018393400000000002,0.00018393400000000002,90.0,90.0,90.0,90.01803588870001,90.20902252200001,90.01803588870001,51.363998413100006,14.5855045319,2.7899999619,0,2,25,1,63,204
