,(0)linux time (ms),    (1)uptime  (ms),      (2)drive mode,(3)mpc step counter,(4)mpc origin latitude  (deg),(5)mpc origin longitude  (deg),(6)closest trajectory point index to robot,(7)mpc error x (W;E)  (m),(8)mpc error y (W;E)  (m),(9)abs mpc error (m),(10)input [x] for mhe (m),(11)input [y] for mhe (m),(12)input [speed] for mhe (m/s),(13)input [vyaw] for mhe (rad/s),(14)mhe output x  (m),(15)mhe output y  (m),(16)mhe output speed  (m/s),(17)mhe output yaw  (rad),(18)mpc reference heading (rad),(19)mpc turn rate command (rad/s),(20)turn rate command as PWM,(21)throttle command as PWM,(22)primary gps latitude (deg),(23)primary gps longitude (deg),(24)secondary gps latitude  (deg),(25)secondary gps longitude (deg),(26)accelerometer x (m/s^2),(27)accelerometer y (m/s^2),(28)accelerometer z (m/s^2),(29)gyro yaw rate (rad/s),(30)gyro pitch rate   (rad/s),(31)gyro roll rate (rad/s),      (32)yaw (rad),  (33)pitch   (rad),     (34)roll (rad),(35)sonar1 measurement (m),(36)ultrasonic sensor measurement (m),(37)primary gps time (s),(38)normalized turn rate command,(39)normalized throttle command,(40)speed calculation from encoder left (m/s),(41)speed calculation from encoder right (m/s),(42)front gimbal target angle (degrees from straight down),(43)left gimbal target angle  (degrees from straight down),(44)right gimbal target angle  (degrees from straight down),(45)front gimbal measured angle  (degrees from straight down),(46)left gimbal measured angle    (degrees from straight down),(47)right gimbal measured angle  (degrees from straight down),(48)internal temperature (C),(49)battery voltage (V),(50)primary gps type,(51)secondary gps type,    (52)MPC R value, (53)MPC Q[0] value,Unnamed: 54,weed_num,start
0,1530630398174,2311174, RC,0,39.9586186,-88.445067899,0,0.0,0.0,0.0,0.0,0.0,0.0025750757000000003,0.0,0.0,0.0,0.0,0.0,0.0,0.0,1500,1500,0.0,0.0,40.0483298333,-88.2330535,0.0,0.0,0.0,0.0,0.0,0.0,0.0,0.0,0.0,0.0,0.0,0,0.0,0.0,0.0027590097999999996,0.0023911418,90.0,90.0,90.0,89.3814163208,89.25408935549999,88.9994430542,39.5279998779,15.1496906281,2.7899999619,0,2,25,1,150,11
1,1530630398225,2311225, RC,0,39.9586186,-88.445067899,0,0.0,0.0,0.0,0.0,0.0,0.0026670429,0.0,0.0,0.0,0.0,0.0,0.0,0.0,1500,1500,0.0,0.0,40.0483298333,-88.2330535,0.0,0.0,0.0,0.0,0.0,0.0,0.0,0.0,0.0,0.0,0.0,0,0.0,0.0,0.0034947458000000003,0.0018393398,90.0,90.0,90.0,89.3177566528,89.3177566528,88.93578338620001,39.5279998779,15.1496906281,2.7899999619,0,2,25,1,142,14
2,1530630398275,2311275, RC,0,39.9586186,-88.445067899,0,0.0,0.0,0.0,0.0,0.0,0.0030349109000000003,0.0,0.0,0.0,0.0,0.0,0.0,0.0,1500,1500,0.0,0.0,40.0483298333,-88.2330535,0.0,0.0,0.0,0.0,0.0,0.0,0.0,0.0,0.0,0.0,0.0,0,0.0,0.0,0.0049662176,0.001287538,90.0,90.0,90.0,89.3177566528,89.3814163208,88.8721160889,39.5279998779,15.1496906281,2.7899999619,0,2,25,1,143,16
3,1530630398325,2311325, RC,0,39.9586186,-88.445067899,0,0.0,0.0,0.0,0.0,0.0,0.0035867128000000004,0.0,0.0,0.0,0.0,0.0,0.0,0.0,1500,1500,0.0,0.0,40.0483298333,-88.2330535,0.0,0.0,0.0,0.0,0.0,0.0,0.0,0.0,0.0,0.0,0.0,0,0.0,0.0,0.0057019535,0.0014714720000000001,90.0,90.0,90.0,89.12677001950001,89.44507598879999,88.74479675290002,39.5279998779,15.1496906281,2.7899999619,0,2,25,1,150,18
4,1530630398376,2311376, RC,0,39.9586186,-88.445067899,0,0.0,0.0,0.0,0.0,0.0,0.0045983498,0.0,0.0,0.0,0.0,0.0,0.0,0.0,1500,1500,0.0,0.0,40.0483298333,-88.2330535,0.0,0.0,0.0,0.0,0.0,0.0,0.0,0.0,0.0,0.0,0.0,0,0.0,0.0,0.0062537556999999995,0.0029429439000000003,90.0,90.0,90.0,89.5087432861,89.5724029541,88.6174697876,39.5279998779,15.1496906281,2.7899999619,0,2,25,1,151,20
5,1530630398426,2311426, RC,0,39.9586186,-88.445067899,0,0.0,0.0,0.0,0.0,0.0,0.0055180197,0.0,0.0,0.0,0.0,0.0,0.0,0.0,1500,1500,0.0,0.0,40.0483298333,-88.2330535,0.0,0.0,0.0,0.0,0.0,0.0,0.0,0.0,0.0,0.0,0.0,0,0.0,0.0,0.006989491600000001,0.0040465477,90.0,90.0,90.0,90.01803588870001,89.5724029541,88.55381011959999,39.5279998779,15.1496906281,2.7899999619,0,2,25,1,137,22
6,1530630398476,2311476, RC,0,39.9586186,-88.445067899,0,0.0,0.0,0.0,0.0,0.0,0.00643769,0.0,0.0,0.0,0.0,0.0,0.0,0.0,1500,1500,0.0,0.0,40.0483298333,-88.2330535,0.0,0.0,0.0,0.0,0.0,0.0,0.0,0.0,0.0,0.0,0.0,0,0.0,0.0,0.008277029699999999,0.0045983498,90.0,90.0,90.0,89.9543762207,89.63606262209998,88.4901504517,39.5279998779,15.1496906281,2.7899999619,0,2,25,1,158,24
7,1530630398527,2311527, RC,0,39.9586186,-88.445067899,0,0.0,0.0,0.0,0.0,0.0,0.0065296571999999995,0.0,0.0,0.0,0.0,0.0,0.0,0.0,1500,1500,0.0,0.0,40.0483298333,-88.2330535,0.0,0.0,0.0,0.0,0.0,0.0,0.0,0.0,0.0,0.0,0.0,0,0.0,0.0,0.0088288318,0.004230482,90.0,90.0,90.0,89.82704925540001,89.6997299194,88.4264831543,39.5279998779,15.1496906281,2.7899999619,0,2,25,1,162,27
8,1530630398577,2311577, RC,0,39.9586186,-88.445067899,0,0.0,0.0,0.0,0.0,0.0,0.0068975249,0.0,0.0,0.0,0.0,0.0,0.0,0.0,1500,1500,0.0,0.0,40.0483298333,-88.2330535,0.0,0.0,0.0,0.0,0.0,0.0,0.0,0.0,0.0,0.0,0.0,0,0.0,0.0,0.0091966996,0.0045983498,90.0,90.0,90.0,89.6997299194,89.7633895874,88.36282348629999,39.5279998779,15.1496906281,2.7899999619,0,2,25,1,139,30
9,1530630398627,2311627, RC,0,39.9586186,-88.445067899,0,0.0,0.0,0.0,0.0,0.0,0.0068055578000000005,0.0,0.0,0.0,0.0,0.0,0.0,0.0,1500,1500,0.0,0.0,40.0483298333,-88.2330535,0.0,0.0,0.0,0.0,0.0,0.0,0.0,0.0,0.0,0.0,0.0,0,0.0,0.0,0.009380633900000001,0.004230482,90.0,90.0,90.0,89.5724029541,89.7633895874,88.2991638184,39.5279998779,15.1496906281,2.7899999619,0,2,25,1,135,33
10,1530630398678,2311678, RC,0,39.9586186,-88.445067899,0,0.0,0.0,0.0,0.0,0.0,0.0073573599,0.0,0.0,0.0,0.0,0.0,0.0,0.0,1500,1500,0.0,0.0,40.0483298333,-88.2330535,0.0,0.0,0.0,0.0,0.0,0.0,0.0,0.0,0.0,0.0,0.0,0,0.0,0.0,0.009380633900000001,0.0053340858,90.0,90.0,90.0,89.44507598879999,89.82704925540001,88.4901504517,39.5279998779,15.1496906281,2.7899999619,0,2,25,1,143,36
11,1530630398728,2311728, RC,0,39.9586186,-88.445067899,0,0.0,0.0,0.0,0.0,0.0,0.008277029699999999,0.0,0.0,0.0,0.0,0.0,0.0,0.0,1500,1500,0.0,0.0,40.0483298333,-88.2330535,0.0,0.0,0.0,0.0,0.0,0.0,0.0,0.0,0.0,0.0,0.0,0,0.0,0.0,0.0097485017,0.0068055578000000005,90.0,90.0,90.0,89.25408935549999,89.8907089233,88.74479675290002,39.5279998779,15.1496906281,2.7899999619,0,2,25,1,158,39
12,1530630398778,2311778, RC,0,39.9586186,-88.445067899,0,0.0,0.0,0.0,0.0,0.0,0.0089207981,0.0,0.0,0.0,0.0,0.0,0.0,0.0,1500,1500,0.0,0.0,40.0483298333,-88.2330535,0.0,0.0,0.0,0.0,0.0,0.0,0.0,0.0,0.0,0.0,0.0,0,0.0,0.0,0.0101163695,0.0077252276000000005,90.0,90.0,90.0,89.25408935549999,89.8907089233,88.74479675290002,39.5279998779,15.1496906281,2.7899999619,0,2,25,1,157,41
13,1530630398829,2311829, RC,0,39.9586186,-88.445067899,0,0.0,0.0,0.0,0.0,0.0,0.0091966996,0.0,0.0,0.0,0.0,0.0,0.0,0.0,1500,1500,0.0,0.0,40.0483298333,-88.2330535,0.0,0.0,0.0,0.0,0.0,0.0,0.0,0.0,0.0,0.0,0.0,0,0.0,0.0,0.0103003038,0.0080930954,90.0,90.0,90.0,90.4636688232,89.8907089233,88.681137085,39.5279998779,15.1496906281,2.7899999619,0,2,25,1,156,43
14,1530630398879,2311879, RC,0,39.9586186,-88.445067899,0,0.0,0.0,0.0,0.0,0.0,0.0087368647,0.0,0.0,0.0,0.0,0.0,0.0,0.0,1500,1500,0.0,0.0,40.0483273333,-88.2330565,0.0,0.0,0.0,0.0,0.0,0.0,0.0,0.0,0.0,0.0,0.0,0,0.0,0.0,0.0095645674,0.007909161999999999,90.0,90.0,79.0,90.3363494873,89.9543762207,88.681137085,39.5279998779,15.1496906281,2.7899999619,0,2,25,1,163,45
15,1530630398929,2311929, RC,0,39.9586186,-88.445067899,0,0.0,0.0,0.0,0.0,0.0,0.0091966996,0.0,0.0,0.0,0.0,0.0,0.0,0.0,1500,1500,0.0,0.0,40.0483273333,-88.2330565,0.0,0.0,0.0,0.0,0.0,0.0,0.0,0.0,0.0,0.0,0.0,0,0.0,0.0,0.0099324351,0.008460964100000001,90.0,90.0,79.0,90.20902252200001,89.9543762207,88.8084564209,39.5279998779,15.1496906281,2.7899999619,0,2,25,1,148,47
16,1530630398980,2311980, RC,0,39.9586186,-88.445067899,0,0.0,0.0,0.0,0.0,0.0,0.0088288318,0.0,0.0,0.0,0.0,0.0,0.0,0.0,1500,1500,0.0,0.0,40.0483273333,-88.2330565,0.0,0.0,0.0,0.0,0.0,0.0,0.0,0.0,0.0,0.0,0.0,0,0.0,0.0,0.009380633900000001,0.008277029699999999,90.0,90.0,79.0,90.20902252200001,89.9543762207,97.9757843018,39.5279998779,15.1496906281,2.7899999619,0,2,25,1,128,49
17,1530630399030,2312030, RC,0,39.9586186,-88.445067899,0,0.0,0.0,0.0,0.0,0.0,0.0088288318,0.0,0.0,0.0,0.0,0.0,0.0,0.0,1500,1500,0.0,0.0,40.0483273333,-88.2330565,0.0,0.0,0.0,0.0,0.0,0.0,0.0,0.0,0.0,0.0,0.0,0,0.0,0.0,0.009380633900000001,0.008277029699999999,90.0,90.0,79.0,90.20902252200001,89.9543762207,99.31268310549999,39.5279998779,15.145007133499998,3.1199998856,0,2,25,1,172,51
18,1530630399081,2312081, RC,0,39.9586186,-88.445067899,0,0.0,0.0,0.0,0.0,0.0,0.0081850626,0.0,0.0,0.0,0.0,0.0,0.0,0.0,1500,1500,0.0,0.0,40.0483273333,-88.2330565,0.0,0.0,0.0,0.0,0.0,0.0,0.0,0.0,0.0,0.0,0.0,0,0.0,0.0,0.008460964100000001,0.007909161999999999,90.0,90.0,72.0,90.20902252200001,89.8907089233,99.3763504028,39.5279998779,15.145007133499998,3.1199998856,0,2,25,1,194,53
19,1530630399131,2312131, RC,0,39.9586186,-88.445067899,0,0.0,0.0,0.0,0.0,0.0,0.0067135906,0.0,0.0,0.0,0.0,0.0,0.0,0.0,1500,1500,0.0,0.0,40.0483273333,-88.2330565,0.0,0.0,0.0,0.0,0.0,0.0,0.0,0.0,0.0,0.0,0.0,0,0.0,0.0,0.006989491600000001,0.0064376895,90.0,90.0,72.0,90.2726821899,89.8907089233,100.1402893066,39.5279998779,15.145007133499998,3.1199998856,0,2,25,1,177,55
20,1530630399182,2312182, RC,0,39.9586186,-88.445067899,0,0.0,0.0,0.0,0.0,0.0,0.0051501514000000005,0.0,0.0,0.0,0.0,0.0,0.0,0.0,1500,1500,0.0,0.0,40.0483273333,-88.2330565,0.0,0.0,0.0,0.0,0.0,0.0,0.0,0.0,0.0,0.0,0.0,0,0.0,0.0,0.0053340858,0.0049662176,90.0,90.0,66.0,90.2726821899,89.8907089233,107.20677185059999,39.5279998779,15.145007133499998,3.1199998856,0,2,25,1,160,57
21,1530630399232,2312232, RC,0,39.9586186,-88.445067899,0,0.0,0.0,0.0,0.0,0.0,0.0042304816,0.0,0.0,0.0,0.0,0.0,0.0,0.0,1500,1500,0.0,0.0,40.0483273333,-88.2330565,0.0,0.0,0.0,0.0,0.0,0.0,0.0,0.0,0.0,0.0,0.0,0,0.0,0.0,0.0044144159,0.0040465477,90.0,90.0,66.0,90.2726821899,89.8907089233,109.6895904541,39.5279998779,15.145007133499998,3.1199998856,0,2,25,1,133,59
22,1530630399283,2312283, RC,0,39.9586186,-88.445067899,0,0.0,0.0,0.0,0.0,0.0,0.0031268778000000004,0.0,0.0,0.0,0.0,0.0,0.0,0.0,1500,1500,0.0,0.0,40.0483273333,-88.2330565,0.0,0.0,0.0,0.0,0.0,0.0,0.0,0.0,0.0,0.0,0.0,0,0.0,0.0,0.0033108116999999997,0.0029429439000000003,90.0,90.0,64.0,90.2726821899,89.8907089233,110.32621002200001,39.5279998779,15.145007133499998,3.1199998856,0,2,25,1,164,61
23,1530630399333,2312333, RC,0,39.9586186,-88.445067899,0,0.0,0.0,0.0,0.0,0.0,0.0026670429,0.0,0.0,0.0,0.0,0.0,0.0,0.0,1500,1500,0.0,0.0,40.0483273333,-88.2330565,0.0,0.0,0.0,0.0,0.0,0.0,0.0,0.0,0.0,0.0,0.0,0,0.0,0.0,0.0027590097999999996,0.002575076,90.0,90.0,64.0,90.2726821899,89.8907089233,113.4456481934,39.5279998779,15.145007133499998,3.1199998856,0,2,25,1,166,63
24,1530630399384,2312384, RC,0,39.9586186,-88.445067899,0,0.0,0.0,0.0,0.0,0.0,0.0019313069000000001,0.0,0.0,0.0,0.0,0.0,0.0,0.0,1500,1500,0.0,0.0,40.0483273333,-88.2330565,0.0,0.0,0.0,0.0,0.0,0.0,0.0,0.0,0.0,0.0,0.0,0,0.0,0.0,0.0020232738,0.0018393398,90.0,90.0,61.0,90.2726821899,89.8907089233,114.5278930664,39.5279998779,15.145007133499998,3.1199998856,0,2,25,1,162,65
25,1530630399435,2312435, RC,0,39.9586186,-88.445067899,0,0.0,0.0,0.0,0.0,0.0,0.0015634389000000002,0.0,0.0,0.0,0.0,0.0,0.0,0.0,1500,1500,0.0,0.0,40.0483273333,-88.2330565,0.0,0.0,0.0,0.0,0.0,0.0,0.0,0.0,0.0,0.0,0.0,0,0.0,0.0,0.0016554058999999999,0.0014714720000000001,90.0,90.0,61.0,90.2726821899,89.8907089233,115.291847229,39.5279998779,15.145007133499998,3.1199998856,0,2,25,1,194,67
26,1530630399485,2312485, RC,0,39.9586186,-88.445067899,0,0.0,0.0,0.0,0.0,0.0,0.0011955709,0.0,0.0,0.0,0.0,0.0,0.0,0.0,1500,1500,0.0,0.0,40.0483273333,-88.2330565,0.0,0.0,0.0,0.0,0.0,0.0,0.0,0.0,0.0,0.0,0.0,0,0.0,0.0,0.001287538,0.001103604,90.0,90.0,61.0,90.2726821899,89.8907089233,118.2839584351,39.5279998779,15.145007133499998,3.1199998856,0,2,25,1,161,69
27,1530630399536,2312536, RC,0,39.9586186,-88.445067899,0,0.0,0.0,0.0,0.0,0.0,0.0010116369,0.0,0.0,0.0,0.0,0.0,0.0,0.0,1500,1500,0.0,0.0,40.0483273333,-88.2330565,0.0,0.0,0.0,0.0,0.0,0.0,0.0,0.0,0.0,0.0,0.0,0,0.0,0.0,0.001103604,0.0009196699,90.0,90.0,61.0,90.2726821899,89.82704925540001,118.7932434082,39.5279998779,15.145007133499998,3.1199998856,0,2,25,1,181,72
28,1530630399586,2312586, RC,0,39.9586186,-88.445067899,0,0.0,0.0,0.0,0.0,0.0,0.0007357360000000001,0.0,0.0,0.0,0.0,0.0,0.0,0.0,1500,1500,0.0,0.0,40.0483273333,-88.2330565,0.0,0.0,0.0,0.0,0.0,0.0,0.0,0.0,0.0,0.0,0.0,0,0.0,0.0,0.0007357360000000001,0.0007357360000000001,90.0,90.0,61.0,90.2726821899,89.82704925540001,118.7932434082,39.5279998779,15.145007133499998,3.1199998856,0,2,25,1,159,74
29,1530630399637,2312637, RC,0,39.9586186,-88.445067899,0,0.0,0.0,0.0,0.0,0.0,0.000551802,0.0,0.0,0.0,0.0,0.0,0.0,0.0,1500,1500,0.0,0.0,40.0483273333,-88.2330565,0.0,0.0,0.0,0.0,0.0,0.0,0.0,0.0,0.0,0.0,0.0,0,0.0,0.0,0.000551802,0.000551802,90.0,90.0,61.0,90.2726821899,89.82704925540001,118.7932434082,39.5279998779,15.145007133499998,3.1199998856,0,2,25,1,148,76
30,1530630399687,2312687, RC,0,39.9586186,-88.445067899,0,0.0,0.0,0.0,0.0,0.0,0.00036786800000000004,0.0,0.0,0.0,0.0,0.0,0.0,0.0,1500,1500,0.0,0.0,40.0483273333,-88.2330565,0.0,0.0,0.0,0.0,0.0,0.0,0.0,0.0,0.0,0.0,0.0,0,0.0,0.0,0.00036786800000000004,0.00036786800000000004,90.0,90.0,61.0,90.2726821899,89.82704925540001,118.7932434082,39.5279998779,15.145007133499998,3.1199998856,0,2,25,1,150,77
31,1530630399738,2312738, RC,0,39.9586186,-88.445067899,0,0.0,0.0,0.0,0.0,0.0,0.00036786800000000004,0.0,0.0,0.0,0.0,0.0,0.0,0.0,1500,1500,0.0,0.0,40.0483273333,-88.2330565,0.0,0.0,0.0,0.0,0.0,0.0,0.0,0.0,0.0,0.0,0.0,0,0.0,0.0,0.00036786800000000004,0.00036786800000000004,90.0,90.0,61.0,90.2726821899,89.82704925540001,118.7932434082,39.5279998779,15.145007133499998,3.1199998856,0,2,25,1,160,80
32,1530630399789,2312789, RC,0,39.9586186,-88.445067899,0,0.0,0.0,0.0,0.0,0.0,0.00018393400000000002,0.0,0.0,0.0,0.0,0.0,0.0,0.0,1500,1500,0.0,0.0,40.0483273333,-88.2330565,0.0,0.0,0.0,0.0,0.0,0.0,0.0,0.0,0.0,0.0,0.0,0,0.0,0.0,0.00018393400000000002,0.00018393400000000002,90.0,90.0,61.0,90.2726821899,89.82704925540001,118.7932434082,39.5279998779,15.145007133499998,3.1199998856,0,2,25,1,147,82
33,1530630399839,2312839, RC,0,39.9586186,-88.445067899,0,0.0,0.0,0.0,0.0,0.0,0.00018393400000000002,0.0,0.0,0.0,0.0,0.0,0.0,0.0,1500,1500,0.0,0.0,40.0483225,-88.2330601667,0.0,0.0,0.0,0.0,0.0,0.0,0.0,0.0,0.0,0.0,0.0,0,0.0,0.0,0.00018393400000000002,0.00018393400000000002,90.0,90.0,61.0,90.2726821899,89.82704925540001,118.7932434082,39.5279998779,15.145007133499998,3.1199998856,0,2,25,1,175,84
34,1530630399890,2312890, RC,0,39.9586186,-88.445067899,0,0.0,0.0,0.0,0.0,0.0,0.00018393400000000002,0.0,0.0,0.0,0.0,0.0,0.0,0.0,1500,1500,0.0,0.0,40.0483225,-88.2330601667,0.0,0.0,0.0,0.0,0.0,0.0,0.0,0.0,0.0,0.0,0.0,0,0.0,0.0,0.00018393400000000002,0.00018393400000000002,90.0,90.0,61.0,90.2726821899,89.82704925540001,118.7932434082,39.5279998779,15.145007133499998,3.1199998856,0,2,25,1,174,86
35,1530630399941,2312941, RC,0,39.9586186,-88.445067899,0,0.0,0.0,0.0,0.0,0.0,9.196700000000001e-05,0.0,0.0,0.0,0.0,0.0,0.0,0.0,1500,1500,0.0,0.0,40.0483225,-88.2330601667,0.0,0.0,0.0,0.0,0.0,0.0,0.0,0.0,0.0,0.0,0.0,0,0.0,0.0,0.00018393400000000002,0.0,90.0,90.0,61.0,90.2726821899,89.82704925540001,118.7932434082,39.5279998779,15.145007133499998,3.1199998856,0,2,25,1,166,88
36,1530630399991,2312991, RC,0,39.9586186,-88.445067899,0,0.0,0.0,0.0,0.0,0.0,0.0,0.0,0.0,0.0,0.0,0.0,0.0,0.0,1500,1500,0.0,0.0,40.0483225,-88.2330601667,0.0,0.0,0.0,0.0,0.0,0.0,0.0,0.0,0.0,0.0,0.0,0,0.0,0.0,0.0,0.0,90.0,90.0,61.0,90.2726821899,89.82704925540001,118.7932434082,39.5279998779,15.140390396099999,3.4499998093,0,2,25,1,172,89
37,1530630400042,2313042, RC,0,39.9586186,-88.445067899,0,0.0,0.0,0.0,0.0,0.0,0.0,0.0,0.0,0.0,0.0,0.0,0.0,0.0,1500,1500,0.0,0.0,40.0483225,-88.2330601667,0.0,0.0,0.0,0.0,0.0,0.0,0.0,0.0,0.0,0.0,0.0,0,0.0,0.0,0.0,0.0,90.0,90.0,61.0,90.2726821899,89.82704925540001,118.7932434082,39.5279998779,15.140390396099999,3.4499998093,0,2,25,1,156,92
38,1530630400092,2313092, RC,0,39.9586186,-88.445067899,0,0.0,0.0,0.0,0.0,0.0,0.0,0.0,0.0,0.0,0.0,0.0,0.0,0.0,1500,1500,0.0,0.0,40.0483225,-88.2330601667,0.0,0.0,0.0,0.0,0.0,0.0,0.0,0.0,0.0,0.0,0.0,0,0.0,0.0,0.0,0.0,90.0,90.0,61.0,90.2726821899,89.82704925540001,118.7932434082,39.5279998779,15.140390396099999,3.4499998093,0,2,25,1,174,93
39,1530630400143,2313143, RC,0,39.9586186,-88.445067899,0,0.0,0.0,0.0,0.0,0.0,0.0,0.0,0.0,0.0,0.0,0.0,0.0,0.0,1500,1500,0.0,0.0,40.0483225,-88.2330601667,0.0,0.0,0.0,0.0,0.0,0.0,0.0,0.0,0.0,0.0,0.0,0,0.0,0.0,0.0,0.0,90.0,90.0,61.0,90.2726821899,89.82704925540001,118.7932434082,39.5279998779,15.140390396099999,3.4499998093,0,2,25,1,169,95
40,1530630400194,2313194, RC,0,39.9586186,-88.445067899,0,0.0,0.0,0.0,0.0,0.0,0.0,0.0,0.0,0.0,0.0,0.0,0.0,0.0,1500,1500,0.0,0.0,40.0483225,-88.2330601667,0.0,0.0,0.0,0.0,0.0,0.0,0.0,0.0,0.0,0.0,0.0,0,0.0,0.0,0.0,0.0,90.0,90.0,61.0,90.2726821899,89.82704925540001,118.7932434082,39.5279998779,15.140390396099999,3.4499998093,0,2,25,1,157,98
41,1530630400244,2313244, RC,0,39.9586186,-88.445067899,0,0.0,0.0,0.0,0.0,0.0,0.0,0.0,0.0,0.0,0.0,0.0,0.0,0.0,1500,1500,0.0,0.0,40.0483225,-88.2330601667,0.0,0.0,0.0,0.0,0.0,0.0,0.0,0.0,0.0,0.0,0.0,0,0.0,0.0,0.0,0.0,90.0,90.0,61.0,90.2726821899,89.82704925540001,118.7932434082,39.5279998779,15.140390396099999,3.4499998093,0,2,25,1,164,99
42,1530630400295,2313295, RC,0,39.9586186,-88.445067899,0,0.0,0.0,0.0,0.0,0.0,0.0,0.0,0.0,0.0,0.0,0.0,0.0,0.0,1500,1500,0.0,0.0,40.0483225,-88.2330601667,0.0,0.0,0.0,0.0,0.0,0.0,0.0,0.0,0.0,0.0,0.0,0,0.0,0.0,0.0,0.0,90.0,90.0,61.0,90.2726821899,89.82704925540001,118.7932434082,39.5279998779,15.140390396099999,3.4499998093,0,2,25,1,183,101
43,1530630400346,2313346, RC,0,39.9586186,-88.445067899,0,0.0,0.0,0.0,0.0,0.0,0.0,0.0,0.0,0.0,0.0,0.0,0.0,0.0,1500,1500,0.0,0.0,40.0483225,-88.2330601667,0.0,0.0,0.0,0.0,0.0,0.0,0.0,0.0,0.0,0.0,0.0,0,0.0,0.0,0.0,0.0,90.0,90.0,61.0,90.2726821899,89.82704925540001,118.7932434082,39.5279998779,15.140390396099999,3.4499998093,0,2,25,1,183,103
44,1530630400396,2313396, RC,0,39.9586186,-88.445067899,0,0.0,0.0,0.0,0.0,0.0,0.0,0.0,0.0,0.0,0.0,0.0,0.0,0.0,1500,1500,0.0,0.0,40.0483225,-88.2330601667,0.0,0.0,0.0,0.0,0.0,0.0,0.0,0.0,0.0,0.0,0.0,0,0.0,0.0,0.0,0.0,90.0,90.0,61.0,90.2726821899,89.82704925540001,118.7932434082,39.5279998779,15.140390396099999,3.4499998093,0,2,25,1,178,105
45,1530630400447,2313447, RC,0,39.9586186,-88.445067899,0,0.0,0.0,0.0,0.0,0.0,0.0,0.0,0.0,0.0,0.0,0.0,0.0,0.0,1500,1500,0.0,0.0,40.0483225,-88.2330601667,0.0,0.0,0.0,0.0,0.0,0.0,0.0,0.0,0.0,0.0,0.0,0,0.0,0.0,0.0,0.0,90.0,90.0,61.0,90.2726821899,89.82704925540001,118.7932434082,39.5279998779,15.140390396099999,3.4499998093,0,2,25,1,168,107
46,1530630400498,2313498, RC,0,39.9586186,-88.445067899,0,0.0,0.0,0.0,0.0,0.0,0.0,0.0,0.0,0.0,0.0,0.0,0.0,0.0,1500,1500,0.0,0.0,40.0483225,-88.2330601667,0.0,0.0,0.0,0.0,0.0,0.0,0.0,0.0,0.0,0.0,0.0,0,0.0,0.0,0.0,0.0,90.0,90.0,61.0,90.2726821899,89.82704925540001,118.7932434082,39.5279998779,15.140390396099999,3.4499998093,0,2,25,1,150,109
47,1530630400548,2313548, RC,0,39.9586186,-88.445067899,0,0.0,0.0,0.0,0.0,0.0,0.0,0.0,0.0,0.0,0.0,0.0,0.0,0.0,1500,1500,0.0,0.0,40.0483225,-88.2330601667,0.0,0.0,0.0,0.0,0.0,0.0,0.0,0.0,0.0,0.0,0.0,0,0.0,0.0,0.0,0.0,90.0,90.0,61.0,90.2726821899,89.82704925540001,118.7932434082,39.5279998779,15.140390396099999,3.4499998093,0,2,25,1,168,111
48,1530630400599,2313599, RC,0,39.9586186,-88.445067899,0,0.0,0.0,0.0,0.0,0.0,0.0,0.0,0.0,0.0,0.0,0.0,0.0,0.0,1500,1500,0.0,0.0,40.0483225,-88.2330601667,0.0,0.0,0.0,0.0,0.0,0.0,0.0,0.0,0.0,0.0,0.0,0,0.0,0.0,0.0,0.0,90.0,90.0,61.0,90.2726821899,89.82704925540001,118.7932434082,39.5279998779,15.140390396099999,3.4499998093,0,2,25,1,164,113
49,1530630400649,2313649, RC,0,39.9586186,-88.445067899,0,0.0,0.0,0.0,0.0,0.0,0.0,0.0,0.0,0.0,0.0,0.0,0.0,0.0,1500,1500,0.0,0.0,40.0483225,-88.2330601667,0.0,0.0,0.0,0.0,0.0,0.0,0.0,0.0,0.0,0.0,0.0,0,0.0,0.0,0.0,0.0,90.0,90.0,61.0,90.2726821899,89.82704925540001,118.7932434082,39.5279998779,15.140390396099999,3.4499998093,0,2,25,1,162,115
50,1530630400700,2313700, RC,0,39.9586186,-88.445067899,0,0.0,0.0,0.0,0.0,0.0,0.0,0.0,0.0,0.0,0.0,0.0,0.0,0.0,1500,1500,0.0,0.0,40.0483225,-88.2330601667,0.0,0.0,0.0,0.0,0.0,0.0,0.0,0.0,0.0,0.0,0.0,0,0.0,0.0,0.0,0.0,90.0,90.0,61.0,90.2726821899,89.82704925540001,118.7932434082,39.5279998779,15.140390396099999,3.4499998093,0,2,25,1,152,117
51,1530630400751,2313751, RC,0,39.9586186,-88.445067899,0,0.0,0.0,0.0,0.0,0.0,0.0,0.0,0.0,0.0,0.0,0.0,0.0,0.0,1500,1500,0.0,0.0,40.0483225,-88.2330601667,0.0,0.0,0.0,0.0,0.0,0.0,0.0,0.0,0.0,0.0,0.0,0,0.0,0.0,0.0,0.0,90.0,90.0,61.0,90.2726821899,89.82704925540001,118.7932434082,39.5279998779,15.140390396099999,3.4499998093,0,2,25,1,170,119
52,1530630400801,2313801, RC,0,39.9586186,-88.445067899,0,0.0,0.0,0.0,0.0,0.0,0.0,0.0,0.0,0.0,0.0,0.0,0.0,0.0,1500,1500,0.0,0.0,40.0483225,-88.2330601667,0.0,0.0,0.0,0.0,0.0,0.0,0.0,0.0,0.0,0.0,0.0,0,0.0,0.0,0.0,0.0,90.0,90.0,61.0,90.2726821899,89.82704925540001,118.7932434082,39.5279998779,15.140390396099999,3.4499998093,0,2,25,1,175,121
53,1530630400852,2313852, RC,0,39.9586186,-88.445067899,0,0.0,0.0,0.0,0.0,0.0,0.0,0.0,0.0,0.0,0.0,0.0,0.0,0.0,1500,1500,0.0,0.0,40.0483225,-88.2330601667,0.0,0.0,0.0,0.0,0.0,0.0,0.0,0.0,0.0,0.0,0.0,0,0.0,0.0,0.0,0.0,90.0,90.0,61.0,90.2726821899,89.82704925540001,118.7932434082,39.5279998779,15.140390396099999,3.4499998093,0,2,25,1,158,123
54,1530630400902,2313902, RC,0,39.9586186,-88.445067899,0,0.0,0.0,0.0,0.0,0.0,0.0,0.0,0.0,0.0,0.0,0.0,0.0,0.0,1500,1500,0.0,0.0,40.0483196667,-88.2330645,0.0,0.0,0.0,0.0,0.0,0.0,0.0,0.0,0.0,0.0,0.0,0,0.0,0.0,0.0,0.0,90.0,90.0,61.0,90.2726821899,89.82704925540001,118.7932434082,39.5279998779,15.140390396099999,3.4499998093,0,2,25,1,171,125
55,1530630400953,2313953, RC,0,39.9586186,-88.445067899,0,0.0,0.0,0.0,0.0,0.0,0.0,0.0,0.0,0.0,0.0,0.0,0.0,0.0,1500,1500,0.0,0.0,40.0483196667,-88.2330645,0.0,0.0,0.0,0.0,0.0,0.0,0.0,0.0,0.0,0.0,0.0,0,0.0,0.0,0.0,0.0,90.0,90.0,61.0,90.2726821899,89.82704925540001,118.7932434082,39.5279998779,15.140390396099999,3.4499998093,0,2,25,1,169,127
56,1530630401004,2314004, RC,0,39.9586186,-88.445067899,0,0.0,0.0,0.0,0.0,0.0,0.0,0.0,0.0,0.0,0.0,0.0,0.0,0.0,1500,1500,0.0,0.0,40.0483196667,-88.2330645,0.0,0.0,0.0,0.0,0.0,0.0,0.0,0.0,0.0,0.0,0.0,0,0.0,0.0,0.0,0.0,90.0,90.0,63.0,90.2726821899,89.82704925540001,118.7932434082,39.5279998779,15.1356906891,3.0599999427999998,0,2,25,1,169,129
57,1530630401054,2314054, RC,0,39.9586186,-88.445067899,0,0.0,0.0,0.0,0.0,0.0,0.0,0.0,0.0,0.0,0.0,0.0,0.0,0.0,1500,1500,0.0,0.0,40.0483196667,-88.2330645,0.0,0.0,0.0,0.0,0.0,0.0,0.0,0.0,0.0,0.0,0.0,0,0.0,0.0,0.0,0.0,90.0,90.0,63.0,90.2726821899,89.82704925540001,118.7932434082,39.5279998779,15.1356906891,3.0599999427999998,0,2,25,1,166,131
58,1530630401105,2314105, RC,0,39.9586186,-88.445067899,0,0.0,0.0,0.0,0.0,0.0,0.0,0.0,0.0,0.0,0.0,0.0,0.0,0.0,1500,1500,0.0,0.0,40.0483196667,-88.2330645,0.0,0.0,0.0,0.0,0.0,0.0,0.0,0.0,0.0,0.0,0.0,0,0.0,0.0,0.0,0.0,90.0,90.0,63.0,90.2726821899,89.82704925540001,118.6659317017,39.5279998779,15.1356906891,3.0599999427999998,0,2,25,1,155,133
59,1530630401155,2314155, RC,0,39.9586186,-88.445067899,0,0.0,0.0,0.0,0.0,0.0,0.0,0.0,0.0,0.0,0.0,0.0,0.0,0.0,1500,1500,0.0,0.0,40.0483196667,-88.2330645,0.0,0.0,0.0,0.0,0.0,0.0,0.0,0.0,0.0,0.0,0.0,0,0.0,0.0,0.0,0.0,90.0,90.0,63.0,90.2726821899,89.82704925540001,117.4563446045,39.5279998779,15.1356906891,3.0599999427999998,0,2,25,1,165,135
60,1530630401206,2314206, RC,0,39.9586186,-88.445067899,0,0.0,0.0,0.0,0.0,0.0,0.0,0.0,0.0,0.0,0.0,0.0,0.0,0.0,1500,1500,0.0,0.0,40.0483196667,-88.2330645,0.0,0.0,0.0,0.0,0.0,0.0,0.0,0.0,0.0,0.0,0.0,0,0.0,0.0,0.0,0.0,90.0,90.0,64.0,90.2726821899,89.82704925540001,117.0107192993,39.5279998779,15.1356906891,3.0599999427999998,0,2,25,1,166,137
61,1530630401257,2314257, RC,0,39.9586186,-88.445067899,0,0.0,0.0,0.0,0.0,0.0,0.0,0.0,0.0,0.0,0.0,0.0,0.0,0.0,1500,1500,0.0,0.0,40.0483196667,-88.2330645,0.0,0.0,0.0,0.0,0.0,0.0,0.0,0.0,0.0,0.0,0.0,0,0.0,0.0,0.0,0.0,90.0,90.0,64.0,90.2726821899,89.82704925540001,116.565071106,39.5279998779,15.1356906891,3.0599999427999998,0,2,25,1,138,139
62,1530630401307,2314307, RC,0,39.9586186,-88.445067899,0,0.0,0.0,0.0,0.0,0.0,0.0,0.0,0.0,0.0,0.0,0.0,0.0,0.0,1500,1500,0.0,0.0,40.0483196667,-88.2330645,0.0,0.0,0.0,0.0,0.0,0.0,0.0,0.0,0.0,0.0,0.0,0,0.0,0.0,0.0,0.0,90.0,90.0,64.0,90.2726821899,89.82704925540001,116.1831054688,39.5279998779,15.1356906891,3.0599999427999998,0,2,25,1,150,141
63,1530630401358,2314358, RC,0,39.9586186,-88.445067899,0,0.0,0.0,0.0,0.0,0.0,0.0,0.0,0.0,0.0,0.0,0.0,0.0,0.0,1500,1500,0.0,0.0,40.0483196667,-88.2330645,0.0,0.0,0.0,0.0,0.0,0.0,0.0,0.0,0.0,0.0,0.0,0,0.0,0.0,0.0,0.0,90.0,90.0,64.0,90.2726821899,89.82704925540001,116.05578613280001,39.5279998779,15.1356906891,3.0599999427999998,0,2,25,1,156,143
64,1530630401409,2314409, RC,0,39.9586186,-88.445067899,0,0.0,0.0,0.0,0.0,0.0,0.0,0.0,0.0,0.0,0.0,0.0,0.0,0.0,1500,1500,0.0,0.0,40.0483196667,-88.2330645,0.0,0.0,0.0,0.0,0.0,0.0,0.0,0.0,0.0,0.0,0.0,0,0.0,0.0,0.0,0.0,90.0,90.0,64.0,90.20902252200001,89.82704925540001,115.80113220209999,39.5279998779,15.1356906891,3.0599999427999998,0,2,25,1,158,145
65,1530630401459,2314459, RC,0,39.9586186,-88.445067899,0,0.0,0.0,0.0,0.0,0.0,0.0,0.0,0.0,0.0,0.0,0.0,0.0,0.0,1500,1500,0.0,0.0,40.0483196667,-88.2330645,0.0,0.0,0.0,0.0,0.0,0.0,0.0,0.0,0.0,0.0,0.0,0,0.0,0.0,0.0,0.0,90.0,90.0,64.0,90.20902252200001,89.82704925540001,115.7374725342,39.5279998779,15.1356906891,3.0599999427999998,0,2,25,1,170,147
66,1530630401510,2314510, RC,0,39.9586186,-88.445067899,0,0.0,0.0,0.0,0.0,0.0,0.0,0.0,0.0,0.0,0.0,0.0,0.0,0.0,1500,1500,0.0,0.0,40.0483196667,-88.2330645,0.0,0.0,0.0,0.0,0.0,0.0,0.0,0.0,0.0,0.0,0.0,0,0.0,0.0,0.0,0.0,90.0,90.0,64.0,90.20902252200001,89.82704925540001,115.67381286620001,39.5279998779,15.1356906891,3.0599999427999998,0,2,25,1,159,149
67,1530630401560,2314560, RC,0,39.9586186,-88.445067899,0,0.0,0.0,0.0,0.0,0.0,0.0,0.0,0.0,0.0,0.0,0.0,0.0,0.0,1500,1500,0.0,0.0,40.0483196667,-88.2330645,0.0,0.0,0.0,0.0,0.0,0.0,0.0,0.0,0.0,0.0,0.0,0,0.0,0.0,0.0,0.0,90.0,90.0,64.0,90.20902252200001,89.82704925540001,115.6101455688,39.5279998779,15.1356906891,3.0599999427999998,0,2,25,1,164,151
68,1530630401611,2314611, RC,0,39.9586186,-88.445067899,0,0.0,0.0,0.0,0.0,0.0,0.0,0.0,0.0,0.0,0.0,0.0,0.0,0.0,1500,1500,0.0,0.0,40.0483196667,-88.2330645,0.0,0.0,0.0,0.0,0.0,0.0,0.0,0.0,0.0,0.0,0.0,0,0.0,0.0,0.0,0.0,90.0,90.0,64.0,90.20902252200001,89.82704925540001,115.6101455688,39.5279998779,15.1356906891,3.0599999427999998,0,2,25,1,160,154
69,1530630401661,2314661, RC,0,39.9586186,-88.445067899,0,0.0,0.0,0.0,0.0,0.0,0.0,0.0,0.0,0.0,0.0,0.0,0.0,0.0,1500,1500,0.0,0.0,40.0483196667,-88.2330645,0.0,0.0,0.0,0.0,0.0,0.0,0.0,0.0,0.0,0.0,0.0,0,0.0,0.0,0.0,0.0,90.0,90.0,64.0,90.20902252200001,89.82704925540001,115.6101455688,39.5279998779,15.1356906891,3.0599999427999998,0,2,25,1,168,157
70,1530630401712,2314712, RC,0,39.9586186,-88.445067899,0,0.0,0.0,0.0,0.0,0.0,0.0,0.0,0.0,0.0,0.0,0.0,0.0,0.0,1500,1500,0.0,0.0,40.0483196667,-88.2330645,0.0,0.0,0.0,0.0,0.0,0.0,0.0,0.0,0.0,0.0,0.0,0,0.0,0.0,0.0,0.0,90.0,90.0,63.0,90.20902252200001,89.82704925540001,115.6101455688,39.5279998779,15.1356906891,3.0599999427999998,0,2,25,1,149,161
71,1530630401763,2314763, RC,0,39.9586186,-88.445067899,0,0.0,0.0,0.0,0.0,0.0,0.0,0.0,0.0,0.0,0.0,0.0,0.0,0.0,1500,1500,0.0,0.0,40.0483196667,-88.2330645,0.0,0.0,0.0,0.0,0.0,0.0,0.0,0.0,0.0,0.0,0.0,0,0.0,0.0,0.0,0.0,90.0,90.0,63.0,90.20902252200001,89.82704925540001,115.6101455688,39.5279998779,15.1356906891,3.0599999427999998,0,2,25,1,166,164
72,1530630401813,2314813, RC,0,39.9586186,-88.445067899,0,0.0,0.0,0.0,0.0,0.0,0.0,0.0,0.0,0.0,0.0,0.0,0.0,0.0,1500,1500,0.0,0.0,40.0483196667,-88.2330645,0.0,0.0,0.0,0.0,0.0,0.0,0.0,0.0,0.0,0.0,0.0,0,0.0,0.0,0.0,0.0,90.0,90.0,61.0,90.20902252200001,89.82704925540001,115.6101455688,39.5279998779,15.1356906891,3.0599999427999998,0,2,25,1,179,166
73,1530630401864,2314864, RC,0,39.9586186,-88.445067899,0,0.0,0.0,0.0,0.0,0.0,0.0,0.0,0.0,0.0,0.0,0.0,0.0,0.0,1500,1500,0.0,0.0,40.0483196667,-88.2330645,0.0,0.0,0.0,0.0,0.0,0.0,0.0,0.0,0.0,0.0,0.0,0,0.0,0.0,0.0,0.0,90.0,90.0,61.0,90.20902252200001,89.82704925540001,115.6101455688,39.5279998779,15.1356906891,3.0599999427999998,0,2,25,1,158,169
74,1530630401915,2314915, RC,0,39.9586186,-88.445067899,0,0.0,0.0,0.0,0.0,0.0,0.0,0.0,0.0,0.0,0.0,0.0,0.0,0.0,1500,1500,0.0,0.0,40.0483178333,-88.2330673333,0.0,0.0,0.0,0.0,0.0,0.0,0.0,0.0,0.0,0.0,0.0,0,0.0,0.0,0.0,0.0,90.0,90.0,61.0,90.20902252200001,89.82704925540001,115.67381286620001,39.5279998779,15.1356906891,3.0599999427999998,0,2,25,1,155,171
75,1530630401965,2314965, RC,0,39.9586186,-88.445067899,0,0.0,0.0,0.0,0.0,0.0,0.0,0.0,0.0,0.0,0.0,0.0,0.0,0.0,1500,1500,0.0,0.0,40.0483178333,-88.2330673333,0.0,0.0,0.0,0.0,0.0,0.0,0.0,0.0,0.0,0.0,0.0,0,0.0,0.0,0.0,0.0,90.0,90.0,61.0,90.20902252200001,89.82704925540001,118.0293045044,39.5279998779,15.1356906891,3.0599999427999998,0,2,25,1,131,174
76,1530630402016,2315016, RC,0,39.9586186,-88.445067899,0,0.0,0.0,0.0,0.0,0.0,0.0,0.0,0.0,0.0,0.0,0.0,0.0,0.0,1500,1500,0.0,0.0,40.0483178333,-88.2330673333,0.0,0.0,0.0,0.0,0.0,0.0,0.0,0.0,0.0,0.0,0.0,0,0.0,0.0,0.0,0.0,90.0,90.0,61.0,90.20902252200001,89.82704925540001,118.72959136959999,39.5279998779,15.1310195923,2.7400000094999997,0,2,25,1,201,176
77,1530630402067,2315067, RC,0,39.9586186,-88.445067899,0,0.0,0.0,0.0,0.0,0.0,0.0,0.0,0.0,0.0,0.0,0.0,0.0,0.0,1500,1500,0.0,0.0,40.0483178333,-88.2330673333,0.0,0.0,0.0,0.0,0.0,0.0,0.0,0.0,0.0,0.0,0.0,0,0.0,0.0,0.0,0.0,90.0,90.0,61.0,90.20902252200001,89.82704925540001,118.72959136959999,39.5279998779,15.1310195923,2.7400000094999997,0,2,25,1,179,179
78,1530630402117,2315117, RC,0,39.9586186,-88.445067899,0,0.0,0.0,0.0,0.0,0.0,0.0,0.0,0.0,0.0,0.0,0.0,0.0,0.0,1500,1500,0.0,0.0,40.0483178333,-88.2330673333,0.0,0.0,0.0,0.0,0.0,0.0,0.0,0.0,0.0,0.0,0.0,0,0.0,0.0,0.0,0.0,90.0,90.0,61.0,90.20902252200001,89.82704925540001,118.72959136959999,39.5279998779,15.1310195923,2.7400000094999997,0,2,25,1,168,181
79,1530630402168,2315168, RC,0,39.9586186,-88.445067899,0,0.0,0.0,0.0,0.0,0.0,0.0,0.0,0.0,0.0,0.0,0.0,0.0,0.0,1500,1500,0.0,0.0,40.0483178333,-88.2330673333,0.0,0.0,0.0,0.0,0.0,0.0,0.0,0.0,0.0,0.0,0.0,0,0.0,0.0,0.0,0.0,90.0,90.0,61.0,90.20902252200001,89.82704925540001,118.72959136959999,39.5279998779,15.1310195923,2.7400000094999997,0,2,25,1,175,184
80,1530630402218,2315218, RC,0,39.9586186,-88.445067899,0,0.0,0.0,0.0,0.0,0.0,0.0,0.0,0.0,0.0,0.0,0.0,0.0,0.0,1500,1500,0.0,0.0,40.0483178333,-88.2330673333,0.0,0.0,0.0,0.0,0.0,0.0,0.0,0.0,0.0,0.0,0.0,0,0.0,0.0,0.0,0.0,90.0,90.0,61.0,90.20902252200001,89.82704925540001,118.72959136959999,39.5279998779,15.1310195923,2.7400000094999997,0,2,25,1,182,186
81,1530630402269,2315269, RC,0,39.9586186,-88.445067899,0,0.0,0.0,0.0,0.0,0.0,0.0,0.0,0.0,0.0,0.0,0.0,0.0,0.0,1500,1500,0.0,0.0,40.0483178333,-88.2330673333,0.0,0.0,0.0,0.0,0.0,0.0,0.0,0.0,0.0,0.0,0.0,0,0.0,0.0,0.0,0.0,90.0,90.0,61.0,90.20902252200001,89.82704925540001,118.72959136959999,39.5279998779,15.1310195923,2.7400000094999997,0,2,25,1,160,189
82,1530630402332,2315332, RC,0,39.9586186,-88.445067899,0,0.0,0.0,0.0,0.0,0.0,0.0,0.0,0.0,0.0,0.0,0.0,0.0,0.0,1500,1500,0.0,0.0,40.0483178333,-88.2330673333,0.0,0.0,0.0,0.0,0.0,0.0,0.0,0.0,0.0,0.0,0.0,0,0.0,0.0,0.0,0.0,90.0,90.0,61.0,90.20902252200001,89.82704925540001,118.72959136959999,39.5279998779,15.1310195923,2.7400000094999997,0,2,25,1,184,192
83,1530630402383,2315383, RC,0,39.9586186,-88.445067899,0,0.0,0.0,0.0,0.0,0.0,0.0,0.0,0.0,0.0,0.0,0.0,0.0,0.0,1500,1500,0.0,0.0,40.0483178333,-88.2330673333,0.0,0.0,0.0,0.0,0.0,0.0,0.0,0.0,0.0,0.0,0.0,0,0.0,0.0,0.0,0.0,90.0,90.0,61.0,90.2726821899,89.82704925540001,118.72959136959999,39.5279998779,15.1310195923,2.7400000094999997,0,2,25,1,142,194
84,1530630402434,2315434, RC,0,39.9586186,-88.445067899,0,0.0,0.0,0.0,0.0,0.0,0.0,0.0,0.0,0.0,0.0,0.0,0.0,0.0,1500,1500,0.0,0.0,40.0483178333,-88.2330673333,0.0,0.0,0.0,0.0,0.0,0.0,0.0,0.0,0.0,0.0,0.0,0,0.0,0.0,0.0,0.0,90.0,90.0,61.0,90.2726821899,89.82704925540001,118.72959136959999,39.5279998779,15.1310195923,2.7400000094999997,0,2,25,1,167,197
85,1530630402484,2315484, RC,0,39.9586186,-88.445067899,0,0.0,0.0,0.0,0.0,0.0,0.0,0.0,0.0,0.0,0.0,0.0,0.0,0.0,1500,1500,0.0,0.0,40.0483178333,-88.2330673333,0.0,0.0,0.0,0.0,0.0,0.0,0.0,0.0,0.0,0.0,0.0,0,0.0,0.0,0.0,0.0,90.0,90.0,61.0,90.2726821899,89.82704925540001,118.72959136959999,39.5279998779,15.1310195923,2.7400000094999997,0,2,25,1,154,199
86,1530630402535,2315535, RC,0,39.9586186,-88.445067899,0,0.0,0.0,0.0,0.0,0.0,0.0,0.0,0.0,0.0,0.0,0.0,0.0,0.0,1500,1500,0.0,0.0,40.0483178333,-88.2330673333,0.0,0.0,0.0,0.0,0.0,0.0,0.0,0.0,0.0,0.0,0.0,0,0.0,0.0,0.0,0.0,90.0,90.0,60.0,90.2726821899,89.82704925540001,118.72959136959999,39.5279998779,15.1310195923,2.7400000094999997,0,2,25,1,163,202
87,1530630402586,2315586, RC,0,39.9586186,-88.445067899,0,0.0,0.0,0.0,0.0,0.0,0.0,0.0,0.0,0.0,0.0,0.0,0.0,0.0,1500,1500,0.0,0.0,40.0483178333,-88.2330673333,0.0,0.0,0.0,0.0,0.0,0.0,0.0,0.0,0.0,0.0,0.0,0,0.0,0.0,0.0,0.0,90.0,90.0,60.0,90.2726821899,89.82704925540001,118.72959136959999,39.5279998779,15.1310195923,2.7400000094999997,0,2,25,1,169,205
88,1530630402636,2315636, RC,0,39.9586186,-88.445067899,0,0.0,0.0,0.0,0.0,0.0,0.0,0.0,0.0,0.0,0.0,0.0,0.0,0.0,1500,1500,0.0,0.0,40.0483178333,-88.2330673333,0.0,0.0,0.0,0.0,0.0,0.0,0.0,0.0,0.0,0.0,0.0,0,0.0,0.0,0.0,0.0,90.0,90.0,60.0,90.2726821899,89.82704925540001,118.72959136959999,39.5279998779,15.1310195923,2.7400000094999997,0,2,25,1,179,207
89,1530630402687,2315687, RC,0,39.9586186,-88.445067899,0,0.0,0.0,0.0,0.0,0.0,0.0,0.0,0.0,0.0,0.0,0.0,0.0,0.0,1500,1500,0.0,0.0,40.0483178333,-88.2330673333,0.0,0.0,0.0,0.0,0.0,0.0,0.0,0.0,0.0,0.0,0.0,0,0.0,0.0,0.0,0.0,90.0,90.0,60.0,90.2726821899,89.82704925540001,118.72959136959999,39.5279998779,15.1310195923,2.7400000094999997,0,2,25,1,159,210
90,1530630402737,2315737, RC,0,39.9586186,-88.445067899,0,0.0,0.0,0.0,0.0,0.0,0.0,0.0,0.0,0.0,0.0,0.0,0.0,0.0,1500,1500,0.0,0.0,40.0483178333,-88.2330673333,0.0,0.0,0.0,0.0,0.0,0.0,0.0,0.0,0.0,0.0,0.0,0,0.0,0.0,0.0,0.0,90.0,90.0,60.0,90.2726821899,90.20902252200001,118.72959136959999,39.5279998779,15.1310195923,2.7400000094999997,0,2,25,1,155,212
91,1530630402788,2315788, RC,0,39.9586186,-88.445067899,0,0.0,0.0,0.0,0.0,0.0,0.0,0.0,0.0,0.0,0.0,0.0,0.0,0.0,1500,1500,0.0,0.0,40.0483178333,-88.2330673333,0.0,0.0,0.0,0.0,0.0,0.0,0.0,0.0,0.0,0.0,0.0,0,0.0,0.0,0.0,0.0,90.0,90.0,60.0,90.2726821899,90.20902252200001,118.72959136959999,39.5279998779,15.1310195923,2.7400000094999997,0,2,25,1,161,215
92,1530630402839,2315839, RC,0,39.9586186,-88.445067899,0,0.0,0.0,0.0,0.0,0.0,0.0,0.0,0.0,0.0,0.0,0.0,0.0,0.0,1500,1500,0.0,0.0,40.0483178333,-88.2330673333,0.0,0.0,0.0,0.0,0.0,0.0,0.0,0.0,0.0,0.0,0.0,0,0.0,0.0,0.0,0.0,90.0,90.0,60.0,90.2726821899,89.5724029541,118.72959136959999,39.5279998779,15.1310195923,2.7400000094999997,0,2,25,1,163,217
93,1530630402889,2315889, RC,0,39.9586186,-88.445067899,0,0.0,0.0,0.0,0.0,0.0,0.0,0.0,0.0,0.0,0.0,0.0,0.0,0.0,1500,1500,0.0,0.0,40.0483168333,-88.2330696667,0.0,0.0,0.0,0.0,0.0,0.0,0.0,0.0,0.0,0.0,0.0,0,0.0,0.0,0.0,0.0,90.0,90.0,60.0,90.3363494873,89.63606262209998,118.72959136959999,39.5279998779,15.1310195923,2.7400000094999997,0,2,25,1,177,220
94,1530630402940,2315940, RC,0,39.9586186,-88.445067899,0,0.0,0.0,0.0,0.0,0.0,0.0,0.0,0.0,0.0,0.0,0.0,0.0,0.0,1500,1500,0.0,0.0,40.0483168333,-88.2330696667,0.0,0.0,0.0,0.0,0.0,0.0,0.0,0.0,0.0,0.0,0.0,0,0.0,0.0,0.0,0.0,90.0,90.0,60.0,90.3363494873,89.63606262209998,118.72959136959999,39.5279998779,15.1310195923,2.7400000094999997,0,2,25,1,156,222
95,1530630402991,2315991, RC,0,39.9586186,-88.445067899,0,0.0,0.0,0.0,0.0,0.0,0.0,0.0,0.0,0.0,0.0,0.0,0.0,0.0,1500,1500,0.0,0.0,40.0483168333,-88.2330696667,0.0,0.0,0.0,0.0,0.0,0.0,0.0,0.0,0.0,0.0,0.0,0,0.0,0.0,0.0,0.0,90.0,90.0,60.0,90.3363494873,89.63606262209998,118.72959136959999,39.5279998779,15.126182556199998,2.7399997711,0,2,25,1,175,225
96,1530630403041,2316041, RC,0,39.9586186,-88.445067899,0,0.0,0.0,0.0,0.0,0.0,0.0,0.0,0.0,0.0,0.0,0.0,0.0,0.0,1500,1500,0.0,0.0,40.0483168333,-88.2330696667,0.0,0.0,0.0,0.0,0.0,0.0,0.0,0.0,0.0,0.0,0.0,0,0.0,0.0,0.0,0.0,90.0,90.0,60.0,90.40000915530001,89.63606262209998,118.72959136959999,39.5279998779,15.126182556199998,2.7399997711,0,2,25,1,178,227
97,1530630403092,2316092, RC,0,39.9586186,-88.445067899,0,0.0,0.0,0.0,0.0,0.0,0.0,0.0,0.0,0.0,0.0,0.0,0.0,0.0,1500,1500,0.0,0.0,40.0483168333,-88.2330696667,0.0,0.0,0.0,0.0,0.0,0.0,0.0,0.0,0.0,0.0,0.0,0,0.0,0.0,0.0,0.0,90.0,90.0,60.0,90.40000915530001,89.8907089233,118.72959136959999,39.5279998779,15.126182556199998,2.7399997711,0,2,25,1,175,229
98,1530630403142,2316142, RC,0,39.9586186,-88.445067899,0,0.0,0.0,0.0,0.0,0.0,0.0,0.0,0.0,0.0,0.0,0.0,0.0,0.0,1500,1500,0.0,0.0,40.0483168333,-88.2330696667,0.0,0.0,0.0,0.0,0.0,0.0,0.0,0.0,0.0,0.0,0.0,0,0.0,0.0,0.0,0.0,90.0,90.0,60.0,90.40000915530001,89.8907089233,118.72959136959999,39.5279998779,15.126182556199998,2.7399997711,0,2,25,1,164,230
99,1530630403193,2316193, RC,0,39.9586186,-88.445067899,0,0.0,0.0,0.0,0.0,0.0,0.0,0.0,0.0,0.0,0.0,0.0,0.0,0.0,1500,1500,0.0,0.0,40.0483168333,-88.2330696667,0.0,0.0,0.0,0.0,0.0,0.0,0.0,0.0,0.0,0.0,0.0,0,0.0,0.0,0.0,0.0,90.0,90.0,60.0,90.40000915530001,89.8907089233,118.72959136959999,39.5279998779,15.126182556199998,2.7399997711,0,2,25,1,135,232
100,1530630403244,2316244, RC,0,39.9586186,-88.445067899,0,0.0,0.0,0.0,0.0,0.0,0.0,0.0,0.0,0.0,0.0,0.0,0.0,0.0,1500,1500,0.0,0.0,40.0483168333,-88.2330696667,0.0,0.0,0.0,0.0,0.0,0.0,0.0,0.0,0.0,0.0,0.0,0,0.0,0.0,0.0,0.0,90.0,90.0,60.0,90.40000915530001,89.8907089233,118.72959136959999,39.5279998779,15.126182556199998,2.7399997711,0,2,25,1,177,234
101,1530630403294,2316294, RC,0,39.9586186,-88.445067899,0,0.0,0.0,0.0,0.0,0.0,0.0,0.0,0.0,0.0,0.0,0.0,0.0,0.0,1500,1500,0.0,0.0,40.0483168333,-88.2330696667,0.0,0.0,0.0,0.0,0.0,0.0,0.0,0.0,0.0,0.0,0.0,0,0.0,0.0,0.0,0.0,90.0,90.0,60.0,90.40000915530001,89.8907089233,118.72959136959999,39.5279998779,15.126182556199998,2.7399997711,0,2,25,1,133,236
102,1530630403345,2316345, RC,0,39.9586186,-88.445067899,0,0.0,0.0,0.0,0.0,0.0,0.0,0.0,0.0,0.0,0.0,0.0,0.0,0.0,1500,1500,0.0,0.0,40.0483168333,-88.2330696667,0.0,0.0,0.0,0.0,0.0,0.0,0.0,0.0,0.0,0.0,0.0,0,0.0,0.0,0.0,0.0,90.0,90.0,60.0,90.40000915530001,89.8907089233,118.72959136959999,39.5279998779,15.126182556199998,2.7399997711,0,2,25,1,158,238
103,1530630403395,2316395, RC,0,39.9586186,-88.445067899,0,0.0,0.0,0.0,0.0,0.0,0.0,0.0,0.0,0.0,0.0,0.0,0.0,0.0,1500,1500,0.0,0.0,40.0483168333,-88.2330696667,0.0,0.0,0.0,0.0,0.0,0.0,0.0,0.0,0.0,0.0,0.0,0,0.0,0.0,0.0,0.0,90.0,90.0,60.0,90.40000915530001,89.8907089233,118.72959136959999,39.5279998779,15.126182556199998,2.7399997711,0,2,25,1,139,240
104,1530630403446,2316446, RC,0,39.9586186,-88.445067899,0,0.0,0.0,0.0,0.0,0.0,0.0,0.0,0.0,0.0,0.0,0.0,0.0,0.0,1500,1500,0.0,0.0,40.0483168333,-88.2330696667,0.0,0.0,0.0,0.0,0.0,0.0,0.0,0.0,0.0,0.0,0.0,0,0.0,0.0,0.0,0.0,90.0,90.0,60.0,90.40000915530001,89.8907089233,118.72959136959999,39.5279998779,15.126182556199998,2.7399997711,0,2,25,1,165,242
105,1530630403496,2316496, RC,0,39.9586186,-88.445067899,0,0.0,0.0,0.0,0.0,0.0,0.0,0.0,0.0,0.0,0.0,0.0,0.0,0.0,1500,1500,0.0,0.0,40.0483168333,-88.2330696667,0.0,0.0,0.0,0.0,0.0,0.0,0.0,0.0,0.0,0.0,0.0,0,0.0,0.0,0.0,0.0,90.0,90.0,60.0,90.40000915530001,89.8907089233,118.72959136959999,39.5279998779,15.126182556199998,2.7399997711,0,2,25,1,160,244
106,1530630403547,2316547, RC,0,39.9586186,-88.445067899,0,0.0,0.0,0.0,0.0,0.0,0.0,0.0,0.0,0.0,0.0,0.0,0.0,0.0,1500,1500,0.0,0.0,40.0483168333,-88.2330696667,0.0,0.0,0.0,0.0,0.0,0.0,0.0,0.0,0.0,0.0,0.0,0,0.0,0.0,0.0,0.0,90.0,90.0,60.0,90.40000915530001,89.8907089233,118.72959136959999,39.5279998779,15.126182556199998,2.7399997711,0,2,25,1,141,246
107,1530630403598,2316598, RC,0,39.9586186,-88.445067899,0,0.0,0.0,0.0,0.0,0.0,0.0,0.0,0.0,0.0,0.0,0.0,0.0,0.0,1500,1500,0.0,0.0,40.0483168333,-88.2330696667,0.0,0.0,0.0,0.0,0.0,0.0,0.0,0.0,0.0,0.0,0.0,0,0.0,0.0,0.0,0.0,90.0,82.0,60.0,90.40000915530001,89.8907089233,118.72959136959999,39.5279998779,15.126182556199998,2.7399997711,0,2,25,1,171,248
108,1530630403648,2316648, RC,0,39.9586186,-88.445067899,0,0.0,0.0,0.0,0.0,0.0,0.0,0.0,0.0,0.0,0.0,0.0,0.0,0.0,1500,1500,0.0,0.0,40.0483168333,-88.2330696667,0.0,0.0,0.0,0.0,0.0,0.0,0.0,0.0,0.0,0.0,0.0,0,0.0,0.0,0.0,0.0,90.0,82.0,60.0,90.40000915530001,90.2726821899,118.72959136959999,39.5279998779,15.126182556199998,2.7399997711,0,2,25,1,149,250
109,1530630403699,2316699, RC,0,39.9586186,-88.445067899,0,0.0,0.0,0.0,0.0,0.0,0.0,0.0,0.0,0.0,0.0,0.0,0.0,0.0,1500,1500,0.0,0.0,40.0483168333,-88.2330696667,0.0,0.0,0.0,0.0,0.0,0.0,0.0,0.0,0.0,0.0,0.0,0,0.0,0.0,0.0,0.0,90.0,82.0,60.0,90.40000915530001,96.76620483399999,118.72959136959999,39.5279998779,15.126182556199998,2.7399997711,0,2,25,1,176,252
110,1530630403749,2316749, RC,0,39.9586186,-88.445067899,0,0.0,0.0,0.0,0.0,0.0,0.0,0.0,0.0,0.0,0.0,0.0,0.0,0.0,1500,1500,0.0,0.0,40.0483168333,-88.2330696667,0.0,0.0,0.0,0.0,0.0,0.0,0.0,0.0,0.0,0.0,0.0,0,0.0,0.0,0.0,0.0,90.0,82.0,60.0,90.40000915530001,99.69465637209998,118.72959136959999,39.5279998779,15.126182556199998,2.7399997711,0,2,25,1,139,254
111,1530630403800,2316800, RC,0,39.9586186,-88.445067899,0,0.0,0.0,0.0,0.0,0.0,0.0,0.0,0.0,0.0,0.0,0.0,0.0,0.0,1500,1500,0.0,0.0,40.0483168333,-88.2330696667,0.0,0.0,0.0,0.0,0.0,0.0,0.0,0.0,0.0,0.0,0.0,0,0.0,0.0,0.0,0.0,90.0,82.0,60.0,90.40000915530001,97.02085876459999,118.72959136959999,39.5279998779,15.126182556199998,2.7399997711,0,2,25,1,164,256
112,1530630403850,2316850, RC,0,39.9586186,-88.445067899,0,0.0,0.0,0.0,0.0,0.0,0.0,0.0,0.0,0.0,0.0,0.0,0.0,0.0,1500,1500,0.0,0.0,40.0483168333,-88.2330696667,0.0,0.0,0.0,0.0,0.0,0.0,0.0,0.0,0.0,0.0,0.0,0,0.0,0.0,0.0,0.0,90.0,82.0,60.0,90.40000915530001,96.70254516600001,118.72959136959999,39.5279998779,15.126182556199998,2.7399997711,0,2,25,1,131,258
113,1530630403901,2316901, RC,0,39.9586186,-88.445067899,0,0.0,0.0,0.0,0.0,0.0,0.0,0.0,0.0,0.0,0.0,0.0,0.0,0.0,1500,1500,0.0,0.0,40.0483173333,-88.2330721667,0.0,0.0,0.0,0.0,0.0,0.0,0.0,0.0,0.0,0.0,0.0,0,0.0,0.0,0.0,0.0,90.0,82.0,60.0,90.40000915530001,97.9757843018,118.72959136959999,39.5279998779,15.126182556199998,2.7399997711,0,2,25,1,150,260
114,1530630403952,2316952, RC,0,39.9586186,-88.445067899,0,0.0,0.0,0.0,0.0,0.0,0.0,0.0,0.0,0.0,0.0,0.0,0.0,0.0,1500,1500,0.0,0.0,40.0483173333,-88.2330721667,0.0,0.0,0.0,0.0,0.0,0.0,0.0,0.0,0.0,0.0,0.0,0,0.0,0.0,0.0,0.0,90.0,82.0,60.0,90.40000915530001,97.84845733639999,118.72959136959999,39.5279998779,15.126182556199998,2.7399997711,0,2,25,1,148,262
115,1530630404002,2317002, RC,0,39.9586186,-88.445067899,0,0.0,0.0,0.0,0.0,0.0,0.0,0.0,0.0,0.0,0.0,0.0,0.0,0.0,1500,1500,0.0,0.0,40.0483173333,-88.2330721667,0.0,0.0,0.0,0.0,0.0,0.0,0.0,0.0,0.0,0.0,0.0,0,0.0,0.0,0.0,0.0,90.0,82.0,60.0,90.40000915530001,97.7847976685,118.72959136959999,39.5279998779,15.121386528,2.6799998283,0,2,25,1,168,264
116,1530630404053,2317053, RC,0,39.9586186,-88.445067899,0,0.0,0.0,0.0,0.0,0.0,0.0,0.0,0.0,0.0,0.0,0.0,0.0,0.0,1500,1500,0.0,0.0,40.0483173333,-88.2330721667,0.0,0.0,0.0,0.0,0.0,0.0,0.0,0.0,0.0,0.0,0.0,0,0.0,0.0,0.0,0.0,90.0,82.0,60.0,90.4636688232,97.7847976685,118.72959136959999,39.5279998779,15.121386528,2.6799998283,0,2,25,1,152,266
117,1530630404103,2317103, RC,0,39.9586186,-88.445067899,0,0.0,0.0,0.0,0.0,0.0,0.0,0.0,0.0,0.0,0.0,0.0,0.0,0.0,1500,1500,0.0,0.0,40.0483173333,-88.2330721667,0.0,0.0,0.0,0.0,0.0,0.0,0.0,0.0,0.0,0.0,0.0,0,0.0,0.0,0.0,0.0,90.0,82.0,60.0,90.4636688232,97.7847976685,118.72959136959999,39.5279998779,15.121386528,2.6799998283,0,2,25,1,141,268
118,1530630404154,2317154, RC,0,39.9586186,-88.445067899,0,0.0,0.0,0.0,0.0,0.0,0.0,0.0,0.0,0.0,0.0,0.0,0.0,0.0,1500,1500,0.0,0.0,40.0483173333,-88.2330721667,0.0,0.0,0.0,0.0,0.0,0.0,0.0,0.0,0.0,0.0,0.0,0,0.0,0.0,0.0,0.0,90.0,82.0,60.0,90.4636688232,97.7847976685,118.72959136959999,39.5279998779,15.121386528,2.6799998283,0,2,25,1,184,270
119,1530630404205,2317205, RC,0,39.9586186,-88.445067899,0,0.0,0.0,0.0,0.0,0.0,0.0,0.0,0.0,0.0,0.0,0.0,0.0,0.0,1500,1500,0.0,0.0,40.0483173333,-88.2330721667,0.0,0.0,0.0,0.0,0.0,0.0,0.0,0.0,0.0,0.0,0.0,0,0.0,0.0,0.0,0.0,90.0,82.0,60.0,90.4636688232,97.7847976685,118.72959136959999,39.5279998779,15.121386528,2.6799998283,0,2,25,1,138,272
120,1530630404255,2317255, RC,0,39.9586186,-88.445067899,0,0.0,0.0,0.0,0.0,0.0,0.0,0.0,0.0,0.0,0.0,0.0,0.0,0.0,1500,1500,0.0,0.0,40.0483173333,-88.2330721667,0.0,0.0,0.0,0.0,0.0,0.0,0.0,0.0,0.0,0.0,0.0,0,0.0,0.0,0.0,0.0,90.0,82.0,60.0,90.4636688232,97.7847976685,118.72959136959999,39.5279998779,15.121386528,2.6799998283,0,2,25,1,153,274
121,1530630404306,2317306, RC,0,39.9586186,-88.445067899,0,0.0,0.0,0.0,0.0,0.0,0.0,0.0,0.0,0.0,0.0,0.0,0.0,0.0,1500,1500,0.0,0.0,40.0483173333,-88.2330721667,0.0,0.0,0.0,0.0,0.0,0.0,0.0,0.0,0.0,0.0,0.0,0,0.0,0.0,0.0,0.0,90.0,82.0,60.0,90.4636688232,97.7847976685,118.72959136959999,39.5279998779,15.121386528,2.6799998283,0,2,25,1,148,276
122,1530630404356,2317356, RC,0,39.9586186,-88.445067899,0,0.0,0.0,0.0,0.0,0.0,0.0,0.0,0.0,0.0,0.0,0.0,0.0,0.0,1500,1500,0.0,0.0,40.0483173333,-88.2330721667,0.0,0.0,0.0,0.0,0.0,0.0,0.0,0.0,0.0,0.0,0.0,0,0.0,0.0,0.0,0.0,90.0,82.0,60.0,90.4636688232,97.7847976685,118.72959136959999,39.5279998779,15.121386528,2.6799998283,0,2,25,1,161,278
123,1530630404407,2317407, RC,0,39.9586186,-88.445067899,0,0.0,0.0,0.0,0.0,0.0,0.0,0.0,0.0,0.0,0.0,0.0,0.0,0.0,1500,1500,0.0,0.0,40.0483173333,-88.2330721667,0.0,0.0,0.0,0.0,0.0,0.0,0.0,0.0,0.0,0.0,0.0,0,0.0,0.0,0.0,0.0,90.0,82.0,60.0,90.4636688232,97.7847976685,118.72959136959999,39.5279998779,15.121386528,2.6799998283,0,2,25,1,156,280
124,1530630404457,2317457, RC,0,39.9586186,-88.445067899,0,0.0,0.0,0.0,0.0,0.0,0.0,0.0,0.0,0.0,0.0,0.0,0.0,0.0,1500,1500,0.0,0.0,40.0483173333,-88.2330721667,0.0,0.0,0.0,0.0,0.0,0.0,0.0,0.0,0.0,0.0,0.0,0,0.0,0.0,0.0,0.0,90.0,82.0,60.0,90.2726821899,97.7847976685,118.72959136959999,39.5279998779,15.121386528,2.6799998283,0,2,25,1,152,282
125,1530630404508,2317508, RC,0,39.9586186,-88.445067899,0,0.0,0.0,0.0,0.0,0.0,0.0,0.0,0.0,0.0,0.0,0.0,0.0,0.0,1500,1500,0.0,0.0,40.0483173333,-88.2330721667,0.0,0.0,0.0,0.0,0.0,0.0,0.0,0.0,0.0,0.0,0.0,0,0.0,0.0,0.0,0.0,90.0,82.0,60.0,90.2726821899,97.7847976685,118.72959136959999,39.5279998779,15.121386528,2.6799998283,0,2,25,1,159,284
126,1530630404558,2317558, RC,0,39.9586186,-88.445067899,0,0.0,0.0,0.0,0.0,0.0,0.0,0.0,0.0,0.0,0.0,0.0,0.0,0.0,1500,1500,0.0,0.0,40.0483173333,-88.2330721667,0.0,0.0,0.0,0.0,0.0,0.0,0.0,0.0,0.0,0.0,0.0,0,0.0,0.0,0.0,0.0,90.0,82.0,60.0,90.2726821899,97.7847976685,118.72959136959999,39.5279998779,15.121386528,2.6799998283,0,2,25,1,183,286
127,1530630404609,2317609, RC,0,39.9586186,-88.445067899,0,0.0,0.0,0.0,0.0,0.0,0.0,0.0,0.0,0.0,0.0,0.0,0.0,0.0,1500,1500,0.0,0.0,40.0483173333,-88.2330721667,0.0,0.0,0.0,0.0,0.0,0.0,0.0,0.0,0.0,0.0,0.0,0,0.0,0.0,0.0,0.0,90.0,82.0,60.0,90.2726821899,97.7847976685,118.72959136959999,39.5279998779,15.121386528,2.6799998283,0,2,25,1,140,288
128,1530630404660,2317660, RC,0,39.9586186,-88.445067899,0,0.0,0.0,0.0,0.0,0.0,0.0,0.0,0.0,0.0,0.0,0.0,0.0,0.0,1500,1500,0.0,0.0,40.0483173333,-88.2330721667,0.0,0.0,0.0,0.0,0.0,0.0,0.0,0.0,0.0,0.0,0.0,0,0.0,0.0,0.0,0.0,90.0,82.0,60.0,90.2726821899,97.7847976685,118.72959136959999,39.5279998779,15.121386528,2.6799998283,0,2,25,1,158,290
129,1530630404710,2317710, RC,0,39.9586186,-88.445067899,0,0.0,0.0,0.0,0.0,0.0,0.0,0.0,0.0,0.0,0.0,0.0,0.0,0.0,1500,1500,0.0,0.0,40.0483173333,-88.2330721667,0.0,0.0,0.0,0.0,0.0,0.0,0.0,0.0,0.0,0.0,0.0,0,0.0,0.0,0.0,0.0,90.0,82.0,60.0,90.2726821899,97.7847976685,118.72959136959999,39.5279998779,15.121386528,2.6799998283,0,2,25,1,157,291
130,1530630404761,2317761, RC,0,39.9586186,-88.445067899,0,0.0,0.0,0.0,0.0,0.0,0.0,0.0,0.0,0.0,0.0,0.0,0.0,0.0,1500,1500,0.0,0.0,40.0483173333,-88.2330721667,0.0,0.0,0.0,0.0,0.0,0.0,0.0,0.0,0.0,0.0,0.0,0,0.0,0.0,0.0,0.0,90.0,82.0,60.0,90.2726821899,97.7847976685,118.72959136959999,39.5279998779,15.121386528,2.6799998283,0,2,25,1,168,293
131,1530630404811,2317811, RC,0,39.9586186,-88.445067899,0,0.0,0.0,0.0,0.0,0.0,0.0,0.0,0.0,0.0,0.0,0.0,0.0,0.0,1500,1500,0.0,0.0,40.0483173333,-88.2330721667,0.0,0.0,0.0,0.0,0.0,0.0,0.0,0.0,0.0,0.0,0.0,0,0.0,0.0,0.0,0.0,90.0,82.0,60.0,90.2726821899,97.7847976685,118.72959136959999,39.5279998779,15.121386528,2.6799998283,0,2,25,1,154,295
132,1530630404862,2317862, RC,0,39.9586186,-88.445067899,0,0.0,0.0,0.0,0.0,0.0,0.0,0.0,0.0,0.0,0.0,0.0,0.0,0.0,1500,1500,0.0,0.0,40.0483168333,-88.2330748333,0.0,0.0,0.0,0.0,0.0,0.0,0.0,0.0,0.0,0.0,0.0,0,0.0,0.0,0.0,0.0,90.0,82.0,60.0,90.2726821899,97.7847976685,118.72959136959999,39.5279998779,15.121386528,2.6799998283,0,2,25,1,183,297
133,1530630404912,2317912, RC,0,39.9586186,-88.445067899,0,0.0,0.0,0.0,0.0,0.0,0.0,0.0,0.0,0.0,0.0,0.0,0.0,0.0,1500,1500,0.0,0.0,40.0483168333,-88.2330748333,0.0,0.0,0.0,0.0,0.0,0.0,0.0,0.0,0.0,0.0,0.0,0,0.0,0.0,0.0,0.0,90.0,82.0,60.0,90.2726821899,97.7847976685,118.72959136959999,39.5279998779,15.121386528,2.6799998283,0,2,25,1,177,299
134,1530630404963,2317963, RC,0,39.9586186,-88.445067899,0,0.0,0.0,0.0,0.0,0.0,0.0,0.0,0.0,0.0,0.0,0.0,0.0,0.0,1500,1500,0.0,0.0,40.0483168333,-88.2330748333,0.0,0.0,0.0,0.0,0.0,0.0,0.0,0.0,0.0,0.0,0.0,0,0.0,0.0,0.0,0.0,90.0,82.0,60.0,90.2726821899,97.7847976685,118.72959136959999,39.5279998779,15.121386528,2.6799998283,0,2,25,1,170,301
135,1530630405013,2318013, RC,0,39.9586186,-88.445067899,0,0.0,0.0,0.0,0.0,0.0,0.0,0.0,0.0,0.0,0.0,0.0,0.0,0.0,1500,1500,0.0,0.0,40.0483168333,-88.2330748333,0.0,0.0,0.0,0.0,0.0,0.0,0.0,0.0,0.0,0.0,0.0,0,0.0,0.0,0.0,0.0,90.0,82.0,60.0,90.2726821899,97.7847976685,118.72959136959999,39.5279998779,15.1166715622,2.9499998093,0,2,25,1,172,303
136,1530630405064,2318064, RC,0,39.9586186,-88.445067899,0,0.0,0.0,0.0,0.0,0.0,0.0,0.0,0.0,0.0,0.0,0.0,0.0,0.0,1500,1500,0.0,0.0,40.0483168333,-88.2330748333,0.0,0.0,0.0,0.0,0.0,0.0,0.0,0.0,0.0,0.0,0.0,0,0.0,0.0,0.0,0.0,90.0,82.0,60.0,90.2726821899,97.7847976685,118.72959136959999,39.5279998779,15.1166715622,2.9499998093,0,2,25,1,175,305
137,1530630405115,2318115, RC,0,39.9586186,-88.445067899,0,0.0,0.0,0.0,0.0,0.0,0.0,0.0,0.0,0.0,0.0,0.0,0.0,0.0,1500,1500,0.0,0.0,40.0483168333,-88.2330748333,0.0,0.0,0.0,0.0,0.0,0.0,0.0,0.0,0.0,0.0,0.0,0,0.0,0.0,0.0,0.0,90.0,82.0,60.0,90.2726821899,97.7847976685,118.72959136959999,39.5279998779,15.1166715622,2.9499998093,0,2,25,1,153,307
138,1530630405165,2318165, RC,0,39.9586186,-88.445067899,0,0.0,0.0,0.0,0.0,0.0,0.0,0.0,0.0,0.0,0.0,0.0,0.0,0.0,1500,1500,0.0,0.0,40.0483168333,-88.2330748333,0.0,0.0,0.0,0.0,0.0,0.0,0.0,0.0,0.0,0.0,0.0,0,0.0,0.0,0.0,0.0,90.0,82.0,60.0,90.2726821899,97.7847976685,118.72959136959999,39.5279998779,15.1166715622,2.9499998093,0,2,25,1,178,309
139,1530630405216,2318216, RC,0,39.9586186,-88.445067899,0,0.0,0.0,0.0,0.0,0.0,0.0,0.0,0.0,0.0,0.0,0.0,0.0,0.0,1500,1500,0.0,0.0,40.0483168333,-88.2330748333,0.0,0.0,0.0,0.0,0.0,0.0,0.0,0.0,0.0,0.0,0.0,0,0.0,0.0,0.0,0.0,90.0,82.0,60.0,90.2726821899,97.7847976685,118.72959136959999,39.5279998779,15.1166715622,2.9499998093,0,2,25,1,159,311
140,1530630405266,2318266, RC,0,39.9586186,-88.445067899,0,0.0,0.0,0.0,0.0,0.0,0.0,0.0,0.0,0.0,0.0,0.0,0.0,0.0,1500,1500,0.0,0.0,40.0483168333,-88.2330748333,0.0,0.0,0.0,0.0,0.0,0.0,0.0,0.0,0.0,0.0,0.0,0,0.0,0.0,0.0,0.0,90.0,82.0,60.0,90.20902252200001,97.7847976685,118.72959136959999,39.5279998779,15.1166715622,2.9499998093,0,2,25,1,180,313
141,1530630405317,2318317, RC,0,39.9586186,-88.445067899,0,0.0,0.0,0.0,0.0,0.0,0.0,0.0,0.0,0.0,0.0,0.0,0.0,0.0,1500,1500,0.0,0.0,40.0483168333,-88.2330748333,0.0,0.0,0.0,0.0,0.0,0.0,0.0,0.0,0.0,0.0,0.0,0,0.0,0.0,0.0,0.0,90.0,82.0,60.0,90.2726821899,97.7847976685,118.72959136959999,39.5279998779,15.1166715622,2.9499998093,0,2,25,1,169,315
142,1530630405367,2318367, RC,0,39.9586186,-88.445067899,0,0.0,0.0,0.0,0.0,0.0,0.0,0.0,0.0,0.0,0.0,0.0,0.0,0.0,1500,1500,0.0,0.0,40.0483168333,-88.2330748333,0.0,0.0,0.0,0.0,0.0,0.0,0.0,0.0,0.0,0.0,0.0,0,0.0,0.0,0.0,0.0,90.0,82.0,60.0,90.2726821899,97.7847976685,119.5571899414,39.5279998779,15.1166715622,2.9499998093,0,2,25,1,162,317
143,1530630405418,2318418, RC,0,39.9586186,-88.445067899,0,0.0,0.0,0.0,0.0,0.0,0.0,0.0,0.0,0.0,0.0,0.0,0.0,0.0,1500,1500,0.0,0.0,40.0483168333,-88.2330748333,0.0,0.0,0.0,0.0,0.0,0.0,0.0,0.0,0.0,0.0,0.0,0,0.0,0.0,0.0,0.0,90.0,82.0,60.0,90.2726821899,97.7847976685,119.6845169067,39.5279998779,15.1166715622,2.9499998093,0,2,25,1,142,319
144,1530630405468,2318468, RC,0,39.9586186,-88.445067899,0,0.0,0.0,0.0,0.0,0.0,0.0,0.0,0.0,0.0,0.0,0.0,0.0,0.0,1500,1500,0.0,0.0,40.0483168333,-88.2330748333,0.0,0.0,0.0,0.0,0.0,0.0,0.0,0.0,0.0,0.0,0.0,0,0.0,0.0,0.0,0.0,90.0,82.0,60.0,90.2726821899,97.7847976685,119.6845169067,39.5279998779,15.1166715622,2.9499998093,0,2,25,1,149,321
145,1530630405519,2318519, RC,0,39.9586186,-88.445067899,0,0.0,0.0,0.0,0.0,0.0,0.0,0.0,0.0,0.0,0.0,0.0,0.0,0.0,1500,1500,0.0,0.0,40.0483168333,-88.2330748333,0.0,0.0,0.0,0.0,0.0,0.0,0.0,0.0,0.0,0.0,0.0,0,0.0,0.0,0.0,0.0,90.0,82.0,60.0,90.2726821899,97.7847976685,119.6845169067,39.5279998779,15.1166715622,2.9499998093,0,2,25,1,167,323
146,1530630405570,2318570, RC,0,39.9586186,-88.445067899,0,0.0,0.0,0.0,0.0,0.0,0.0,0.0,0.0,0.0,0.0,0.0,0.0,0.0,1500,1500,0.0,0.0,40.0483168333,-88.2330748333,0.0,0.0,0.0,0.0,0.0,0.0,0.0,0.0,0.0,0.0,0.0,0,0.0,0.0,0.0,0.0,90.0,82.0,60.0,90.2726821899,97.7847976685,119.6845169067,39.5279998779,15.1166715622,2.9499998093,0,2,25,1,127,325
147,1530630405620,2318620, RC,0,39.9586186,-88.445067899,0,0.0,0.0,0.0,0.0,0.0,0.0,0.0,0.0,0.0,0.0,0.0,0.0,0.0,1500,1500,0.0,0.0,40.0483168333,-88.2330748333,0.0,0.0,0.0,0.0,0.0,0.0,0.0,0.0,0.0,0.0,0.0,0,0.0,0.0,0.0,0.0,90.0,82.0,60.0,90.2726821899,97.7847976685,119.6845169067,39.5279998779,15.1166715622,2.9499998093,0,2,25,1,156,327
148,1530630405671,2318671, RC,0,39.9586186,-88.445067899,0,0.0,0.0,0.0,0.0,0.0,0.0,0.0,0.0,0.0,0.0,0.0,0.0,0.0,1500,1500,0.0,0.0,40.0483168333,-88.2330748333,0.0,0.0,0.0,0.0,0.0,0.0,0.0,0.0,0.0,0.0,0.0,0,0.0,0.0,0.0,0.0,90.0,82.0,60.0,90.2726821899,97.7847976685,119.6845169067,39.5279998779,15.1166715622,2.9499998093,0,2,25,1,163,329
149,1530630405721,2318721, RC,0,39.9586186,-88.445067899,0,0.0,0.0,0.0,0.0,0.0,0.0,0.0,0.0,0.0,0.0,0.0,0.0,0.0,1500,1500,0.0,0.0,40.0483168333,-88.2330748333,0.0,0.0,0.0,0.0,0.0,0.0,0.0,0.0,0.0,0.0,0.0,0,0.0,0.0,0.0,0.0,90.0,82.0,60.0,90.2726821899,97.7847976685,119.6845169067,39.5279998779,15.1166715622,2.9499998093,0,2,25,1,157,331
150,1530630405772,2318772, RC,0,39.9586186,-88.445067899,0,0.0,0.0,0.0,0.0,0.0,0.0,0.0,0.0,0.0,0.0,0.0,0.0,0.0,1500,1500,0.0,0.0,40.0483168333,-88.2330748333,0.0,0.0,0.0,0.0,0.0,0.0,0.0,0.0,0.0,0.0,0.0,0,0.0,0.0,0.0,0.0,90.0,82.0,60.0,90.2726821899,97.7847976685,119.6845169067,39.5279998779,15.1166715622,2.9499998093,0,2,25,1,151,333
151,1530630405822,2318822, RC,0,39.9586186,-88.445067899,0,0.0,0.0,0.0,0.0,0.0,0.0,0.0,0.0,0.0,0.0,0.0,0.0,0.0,1500,1500,0.0,0.0,40.0483161667,-88.2330775,0.0,0.0,0.0,0.0,0.0,0.0,0.0,0.0,0.0,0.0,0.0,0,0.0,0.0,0.0,0.0,90.0,82.0,60.0,90.2726821899,97.7847976685,119.6845169067,39.5279998779,15.1166715622,2.9499998093,0,2,25,1,143,335
152,1530630405873,2318873, RC,0,39.9586186,-88.445067899,0,0.0,0.0,0.0,0.0,0.0,0.0,0.0,0.0,0.0,0.0,0.0,0.0,0.0,1500,1500,0.0,0.0,40.0483161667,-88.2330775,0.0,0.0,0.0,0.0,0.0,0.0,0.0,0.0,0.0,0.0,0.0,0,0.0,0.0,0.0,0.0,90.0,82.0,60.0,90.2726821899,97.7847976685,119.6845169067,39.5279998779,15.1166715622,2.9499998093,0,2,25,1,161,337
153,1530630405924,2318924, RC,0,39.9586186,-88.445067899,0,0.0,0.0,0.0,0.0,0.0,0.0,0.0,0.0,0.0,0.0,0.0,0.0,0.0,1500,1500,0.0,0.0,40.0483161667,-88.2330775,0.0,0.0,0.0,0.0,0.0,0.0,0.0,0.0,0.0,0.0,0.0,0,0.0,0.0,0.0,0.0,90.0,82.0,60.0,90.2726821899,97.7847976685,119.6845169067,39.5279998779,15.1166715622,2.9499998093,0,2,25,1,148,339
154,1530630405974,2318974, RC,0,39.9586186,-88.445067899,0,0.0,0.0,0.0,0.0,0.0,0.0,0.0,0.0,0.0,0.0,0.0,0.0,0.0,1500,1500,0.0,0.0,40.0483161667,-88.2330775,0.0,0.0,0.0,0.0,0.0,0.0,0.0,0.0,0.0,0.0,0.0,0,0.0,0.0,0.0,0.0,90.0,82.0,60.0,90.2726821899,97.7847976685,119.6845169067,39.5279998779,15.1166715622,2.9499998093,0,2,25,1,144,341
155,1530630406025,2319025, RC,0,39.9586186,-88.445067899,0,0.0,0.0,0.0,0.0,0.0,0.0,0.0,0.0,0.0,0.0,0.0,0.0,0.0,1500,1500,0.0,0.0,40.0483161667,-88.2330775,0.0,0.0,0.0,0.0,0.0,0.0,0.0,0.0,0.0,0.0,0.0,0,0.0,0.0,0.0,0.0,90.0,82.0,60.0,90.2726821899,97.7847976685,119.6845169067,39.5279998779,15.111933708199999,2.7999999523000003,0,2,25,1,170,343
156,1530630406075,2319075, RC,0,39.9586186,-88.445067899,0,0.0,0.0,0.0,0.0,0.0,0.0,0.0,0.0,0.0,0.0,0.0,0.0,0.0,1500,1500,0.0,0.0,40.0483161667,-88.2330775,0.0,0.0,0.0,0.0,0.0,0.0,0.0,0.0,0.0,0.0,0.0,0,0.0,0.0,0.0,0.0,90.0,82.0,60.0,90.2726821899,97.7847976685,119.6845169067,39.5279998779,15.111933708199999,2.7999999523000003,0,2,25,1,160,344
157,1530630406126,2319126, RC,0,39.9586186,-88.445067899,0,0.0,0.0,0.0,0.0,0.0,0.0,0.0,0.0,0.0,0.0,0.0,0.0,0.0,1500,1500,0.0,0.0,40.0483161667,-88.2330775,0.0,0.0,0.0,0.0,0.0,0.0,0.0,0.0,0.0,0.0,0.0,0,0.0,0.0,0.0,0.0,90.0,82.0,60.0,90.2726821899,97.7847976685,119.6845169067,39.5279998779,15.111933708199999,2.7999999523000003,0,2,25,1,161,346
158,1530630406176,2319176, RC,0,39.9586186,-88.445067899,0,0.0,0.0,0.0,0.0,0.0,0.0,0.0,0.0,0.0,0.0,0.0,0.0,0.0,1500,1500,0.0,0.0,40.0483161667,-88.2330775,0.0,0.0,0.0,0.0,0.0,0.0,0.0,0.0,0.0,0.0,0.0,0,0.0,0.0,0.0,0.0,90.0,82.0,60.0,90.2726821899,97.7847976685,119.6845169067,39.5279998779,15.111933708199999,2.7999999523000003,0,2,25,1,172,348
159,1530630406227,2319227, RC,0,39.9586186,-88.445067899,0,0.0,0.0,0.0,0.0,0.0,0.0,0.0,0.0,0.0,0.0,0.0,0.0,0.0,1500,1500,0.0,0.0,40.0483161667,-88.2330775,0.0,0.0,0.0,0.0,0.0,0.0,0.0,0.0,0.0,0.0,0.0,0,0.0,0.0,0.0,0.0,90.0,82.0,60.0,90.2726821899,97.7847976685,119.6845169067,39.5279998779,15.111933708199999,2.7999999523000003,0,2,25,1,134,350
160,1530630406277,2319277, RC,0,39.9586186,-88.445067899,0,0.0,0.0,0.0,0.0,0.0,0.0,0.0,0.0,0.0,0.0,0.0,0.0,0.0,1500,1500,0.0,0.0,40.0483161667,-88.2330775,0.0,0.0,0.0,0.0,0.0,0.0,0.0,0.0,0.0,0.0,0.0,0,0.0,0.0,0.0,0.0,90.0,82.0,60.0,90.2726821899,97.7847976685,119.6845169067,39.5279998779,15.111933708199999,2.7999999523000003,0,2,25,1,161,352
161,1530630406328,2319328, RC,0,39.9586186,-88.445067899,0,0.0,0.0,0.0,0.0,0.0,0.0,0.0,0.0,0.0,0.0,0.0,0.0,0.0,1500,1500,0.0,0.0,40.0483161667,-88.2330775,0.0,0.0,0.0,0.0,0.0,0.0,0.0,0.0,0.0,0.0,0.0,0,0.0,0.0,0.0,0.0,90.0,82.0,60.0,90.2726821899,97.7847976685,119.6845169067,39.5279998779,15.111933708199999,2.7999999523000003,0,2,25,1,151,354
162,1530630406379,2319379, RC,0,39.9586186,-88.445067899,0,0.0,0.0,0.0,0.0,0.0,0.0,0.0,0.0,0.0,0.0,0.0,0.0,0.0,1500,1500,0.0,0.0,40.0483161667,-88.2330775,0.0,0.0,0.0,0.0,0.0,0.0,0.0,0.0,0.0,0.0,0.0,0,0.0,0.0,0.0,0.0,90.0,82.0,60.0,90.2726821899,97.7847976685,119.6845169067,39.5279998779,15.111933708199999,2.7999999523000003,0,2,25,1,153,356
163,1530630406429,2319429, RC,0,39.9586186,-88.445067899,0,0.0,0.0,0.0,0.0,0.0,0.0,0.0,0.0,0.0,0.0,0.0,0.0,0.0,1500,1500,0.0,0.0,40.0483161667,-88.2330775,0.0,0.0,0.0,0.0,0.0,0.0,0.0,0.0,0.0,0.0,0.0,0,0.0,0.0,0.0,0.0,90.0,82.0,60.0,90.2726821899,97.7847976685,119.6845169067,39.5279998779,15.111933708199999,2.7999999523000003,0,2,25,1,147,358
164,1530630406480,2319480, RC,0,39.9586186,-88.445067899,0,0.0,0.0,0.0,0.0,0.0,0.0,0.0,0.0,0.0,0.0,0.0,0.0,0.0,1500,1500,0.0,0.0,40.0483161667,-88.2330775,0.0,0.0,0.0,0.0,0.0,0.0,0.0,0.0,0.0,0.0,0.0,0,0.0,0.0,0.0,0.0,90.0,82.0,60.0,90.2726821899,97.7847976685,119.6845169067,39.5279998779,15.111933708199999,2.7999999523000003,0,2,25,1,162,360
165,1530630406530,2319530, RC,0,39.9586186,-88.445067899,0,0.0,0.0,0.0,0.0,0.0,0.0,0.0,0.0,0.0,0.0,0.0,0.0,0.0,1500,1500,0.0,0.0,40.0483161667,-88.2330775,0.0,0.0,0.0,0.0,0.0,0.0,0.0,0.0,0.0,0.0,0.0,0,0.0,0.0,0.0,0.0,90.0,82.0,60.0,90.2726821899,97.7847976685,119.6845169067,39.5279998779,15.111933708199999,2.7999999523000003,0,2,25,1,136,362
