,(0)linux time (ms),    (1)uptime  (ms),      (2)drive mode,(3)mpc step counter,(4)mpc origin latitude  (deg),(5)mpc origin longitude  (deg),(6)closest trajectory point index to robot,(7)mpc error x (W;E)  (m),(8)mpc error y (W;E)  (m),(9)abs mpc error (m),(10)input [x] for mhe (m),(11)input [y] for mhe (m),(12)input [speed] for mhe (m/s),(13)input [vyaw] for mhe (rad/s),(14)mhe output x  (m),(15)mhe output y  (m),(16)mhe output speed  (m/s),(17)mhe output yaw  (rad),(18)mpc reference heading (rad),(19)mpc turn rate command (rad/s),(20)turn rate command as PWM,(21)throttle command as PWM,(22)primary gps latitude (deg),(23)primary gps longitude (deg),(24)secondary gps latitude  (deg),(25)secondary gps longitude (deg),(26)accelerometer x (m/s^2),(27)accelerometer y (m/s^2),(28)accelerometer z (m/s^2),(29)gyro yaw rate (rad/s),(30)gyro pitch rate   (rad/s),(31)gyro roll rate (rad/s),      (32)yaw (rad),  (33)pitch   (rad),     (34)roll (rad),(35)sonar1 measurement (m),(36)ultrasonic sensor measurement (m),(37)primary gps time (s),(38)normalized turn rate command,(39)normalized throttle command,(40)speed calculation from encoder left (m/s),(41)speed calculation from encoder right (m/s),(42)front gimbal target angle (degrees from straight down),(43)left gimbal target angle  (degrees from straight down),(44)right gimbal target angle  (degrees from straight down),(45)front gimbal measured angle  (degrees from straight down),(46)left gimbal measured angle    (degrees from straight down),(47)right gimbal measured angle  (degrees from straight down),(48)internal temperature (C),(49)battery voltage (V),(50)primary gps type,(51)secondary gps type,    (52)MPC R value, (53)MPC Q[0] value,Unnamed: 54,weed_num,start
0,1530632160487,4073487, RC,0,39.9586186,-88.445067899,0,0.0,0.0,0.0,0.0,0.0,0.0,0.0,0.0,0.0,0.0,0.0,0.0,0.0,1500,1500,0.0,0.0,40.048355,-88.232749,0.0,0.0,0.0,0.0,0.0,0.0,0.0,0.0,0.0,0.0,0.0,0,0.0,0.0,0.0,0.0,28.0,90.0,90.0,150.43324279790002,89.5724029541,89.82704925540001,47.059997558599996,14.80560112,2.6900000572000002,0,2,25,1,346,18
1,1530632160537,4073537, RC,0,39.9586186,-88.445067899,0,0.0,0.0,0.0,0.0,0.0,0.0,0.0,0.0,0.0,0.0,0.0,0.0,0.0,1500,1500,0.0,0.0,40.048355,-88.232749,0.0,0.0,0.0,0.0,0.0,0.0,0.0,0.0,0.0,0.0,0.0,0,0.0,0.0,0.0,0.0,28.0,90.0,90.0,150.43324279790002,89.5087432861,89.7633895874,47.059997558599996,14.80560112,2.6900000572000002,0,2,25,1,333,20
2,1530632160588,4073588, RC,0,39.9586186,-88.445067899,0,0.0,0.0,0.0,0.0,0.0,0.0,0.0,0.0,0.0,0.0,0.0,0.0,0.0,1500,1500,0.0,0.0,40.048355,-88.232749,0.0,0.0,0.0,0.0,0.0,0.0,0.0,0.0,0.0,0.0,0.0,0,0.0,0.0,0.0,0.0,28.0,90.0,90.0,150.43324279790002,89.44507598879999,89.7633895874,47.059997558599996,14.80560112,2.6900000572000002,0,2,25,1,328,22
3,1530632160638,4073638, RC,0,39.9586186,-88.445067899,0,0.0,0.0,0.0,0.0,0.0,0.0,0.0,0.0,0.0,0.0,0.0,0.0,0.0,1500,1500,0.0,0.0,40.048355,-88.232749,0.0,0.0,0.0,0.0,0.0,0.0,0.0,0.0,0.0,0.0,0.0,0,0.0,0.0,0.0,0.0,28.0,90.0,90.0,150.43324279790002,89.3814163208,89.7633895874,47.059997558599996,14.8006668091,2.9500000476999997,0,2,25,1,336,24
4,1530632160689,4073689, RC,0,39.9586186,-88.445067899,0,0.0,0.0,0.0,0.0,0.0,0.0,0.0,0.0,0.0,0.0,0.0,0.0,0.0,1500,1500,0.0,0.0,40.048355,-88.232749,0.0,0.0,0.0,0.0,0.0,0.0,0.0,0.0,0.0,0.0,0.0,0,0.0,0.0,0.0,0.0,28.0,90.0,90.0,150.43324279790002,89.3177566528,89.7633895874,47.059997558599996,14.8006668091,2.9500000476999997,0,2,25,1,331,26
5,1530632160739,4073739, RC,0,39.9586186,-88.445067899,0,0.0,0.0,0.0,0.0,0.0,0.0,0.0,0.0,0.0,0.0,0.0,0.0,0.0,1500,1500,0.0,0.0,40.048355,-88.232749,0.0,0.0,0.0,0.0,0.0,0.0,0.0,0.0,0.0,0.0,0.0,0,0.0,0.0,0.0,0.0,28.0,90.0,90.0,150.43324279790002,89.25408935549999,89.7633895874,47.059997558599996,14.8006668091,2.9500000476999997,0,2,25,1,338,28
6,1530632160789,4073789, RC,0,39.9586186,-88.445067899,0,0.0,0.0,0.0,0.0,0.0,0.0,0.0,0.0,0.0,0.0,0.0,0.0,0.0,1500,1500,0.0,0.0,40.0483561667,-88.232748,0.0,0.0,0.0,0.0,0.0,0.0,0.0,0.0,0.0,0.0,0.0,0,0.0,0.0,0.0,0.0,28.0,90.0,90.0,150.43324279790002,89.25408935549999,89.7633895874,47.059997558599996,14.8006668091,2.9500000476999997,0,2,25,1,336,31
7,1530632160840,4073840, RC,0,39.9586186,-88.445067899,0,0.0,0.0,0.0,0.0,0.0,0.0,0.0,0.0,0.0,0.0,0.0,0.0,0.0,1500,1500,0.0,0.0,40.0483561667,-88.232748,0.0,0.0,0.0,0.0,0.0,0.0,0.0,0.0,0.0,0.0,0.0,0,0.0,0.0,0.0,0.0,28.0,90.0,90.0,150.43324279790002,89.1904296875,89.6997299194,47.059997558599996,14.8006668091,2.9500000476999997,0,2,25,1,337,33
8,1530632160890,4073890, RC,0,39.9586186,-88.445067899,0,0.0,0.0,0.0,0.0,0.0,0.0,0.0,0.0,0.0,0.0,0.0,0.0,0.0,1500,1500,0.0,0.0,40.0483561667,-88.232748,0.0,0.0,0.0,0.0,0.0,0.0,0.0,0.0,0.0,0.0,0.0,0,0.0,0.0,0.0,0.0,28.0,90.0,90.0,150.43324279790002,89.5724029541,89.6997299194,47.059997558599996,14.8006668091,2.9500000476999997,0,2,25,1,336,35
9,1530632160940,4073940, RC,0,39.9586186,-88.445067899,0,0.0,0.0,0.0,0.0,0.0,0.0,0.0,0.0,0.0,0.0,0.0,0.0,0.0,1500,1500,0.0,0.0,40.0483561667,-88.232748,0.0,0.0,0.0,0.0,0.0,0.0,0.0,0.0,0.0,0.0,0.0,0,0.0,0.0,0.0,0.0,28.0,90.0,90.0,150.43324279790002,90.4636688232,89.6997299194,47.059997558599996,14.8006668091,2.9500000476999997,0,2,25,1,321,37
10,1530632160991,4073991, RC,0,39.9586186,-88.445067899,0,0.0,0.0,0.0,0.0,0.0,0.0,0.0,0.0,0.0,0.0,0.0,0.0,0.0,1500,1500,0.0,0.0,40.0483561667,-88.232748,0.0,0.0,0.0,0.0,0.0,0.0,0.0,0.0,0.0,0.0,0.0,0,0.0,0.0,0.0,0.0,28.0,90.0,90.0,150.43324279790002,89.63606262209998,89.6997299194,47.059997558599996,14.8006668091,2.9500000476999997,0,2,25,1,346,39
11,1530632161079,4074079, RC,0,39.9586186,-88.445067899,0,0.0,0.0,0.0,0.0,0.0,0.0,0.0,0.0,0.0,0.0,0.0,0.0,0.0,1500,1500,0.0,0.0,40.0483561667,-88.232748,0.0,0.0,0.0,0.0,0.0,0.0,0.0,0.0,0.0,0.0,0.0,0,0.0,0.0,0.0,0.0,28.0,90.0,90.0,150.43324279790002,89.63606262209998,89.6997299194,47.059997558599996,14.8006668091,2.9500000476999997,0,2,25,1,316,43
12,1530632161129,4074129, RC,0,39.9586186,-88.445067899,0,0.0,0.0,0.0,0.0,0.0,0.0,0.0,0.0,0.0,0.0,0.0,0.0,0.0,1500,1500,0.0,0.0,40.0483561667,-88.232748,0.0,0.0,0.0,0.0,0.0,0.0,0.0,0.0,0.0,0.0,0.0,0,0.0,0.0,0.0,0.0,28.0,90.0,90.0,150.43324279790002,89.5724029541,89.6997299194,47.5979995728,14.8006668091,2.9500000476999997,0,2,25,1,337,45
13,1530632161180,4074180, RC,0,39.9586186,-88.445067899,0,0.0,0.0,0.0,0.0,0.0,0.0,0.0,0.0,0.0,0.0,0.0,0.0,0.0,1500,1500,0.0,0.0,40.0483561667,-88.232748,0.0,0.0,0.0,0.0,0.0,0.0,0.0,0.0,0.0,0.0,0.0,0,0.0,0.0,0.0,0.0,28.0,90.0,90.0,150.43324279790002,89.5724029541,89.6997299194,47.5979995728,14.8006668091,2.9500000476999997,0,2,25,1,329,47
14,1530632161230,4074230, RC,0,39.9586186,-88.445067899,0,0.0,0.0,0.0,0.0,0.0,0.0,0.0,0.0,0.0,0.0,0.0,0.0,0.0,1500,1500,0.0,0.0,40.0483561667,-88.232748,0.0,0.0,0.0,0.0,0.0,0.0,0.0,0.0,0.0,0.0,0.0,0,0.0,0.0,0.0,0.0,28.0,90.0,90.0,150.43324279790002,89.5724029541,89.6997299194,47.5979995728,14.8006668091,2.9500000476999997,0,2,25,1,333,49
15,1530632161280,4074280, RC,0,39.9586186,-88.445067899,0,0.0,0.0,0.0,0.0,0.0,0.0,0.0,0.0,0.0,0.0,0.0,0.0,0.0,1500,1500,0.0,0.0,40.0483561667,-88.232748,0.0,0.0,0.0,0.0,0.0,0.0,0.0,0.0,0.0,0.0,0.0,0,0.0,0.0,0.0,0.0,28.0,90.0,90.0,150.43324279790002,89.5087432861,89.6997299194,47.5979995728,14.8006668091,2.9500000476999997,0,2,25,1,336,51
16,1530632161331,4074331, RC,0,39.9586186,-88.445067899,0,0.0,0.0,0.0,0.0,0.0,0.0,0.0,0.0,0.0,0.0,0.0,0.0,0.0,1500,1500,0.0,0.0,40.0483561667,-88.232748,0.0,0.0,0.0,0.0,0.0,0.0,0.0,0.0,0.0,0.0,0.0,0,0.0,0.0,0.0,0.0,28.0,90.0,90.0,150.43324279790002,89.5087432861,89.6997299194,47.5979995728,14.8006668091,2.9500000476999997,0,2,25,1,326,53
17,1530632161381,4074381, RC,0,39.9586186,-88.445067899,0,0.0,0.0,0.0,0.0,0.0,0.0,0.0,0.0,0.0,0.0,0.0,0.0,0.0,1500,1500,0.0,0.0,40.0483561667,-88.232748,0.0,0.0,0.0,0.0,0.0,0.0,0.0,0.0,0.0,0.0,0.0,0,0.0,0.0,0.0,0.0,28.0,90.0,90.0,150.43324279790002,89.5087432861,89.6997299194,47.5979995728,14.8006668091,2.9500000476999997,0,2,25,1,333,56
18,1530632161431,4074431, RC,0,39.9586186,-88.445067899,0,0.0,0.0,0.0,0.0,0.0,0.0,0.0,0.0,0.0,0.0,0.0,0.0,0.0,1500,1500,0.0,0.0,40.0483561667,-88.232748,0.0,0.0,0.0,0.0,0.0,0.0,0.0,0.0,0.0,0.0,0.0,0,0.0,0.0,0.0,0.0,28.0,90.0,90.0,150.43324279790002,89.44507598879999,89.6997299194,47.5979995728,14.8006668091,2.9500000476999997,0,2,25,1,334,58
19,1530632161482,4074482, RC,0,39.9586186,-88.445067899,0,0.0,0.0,0.0,0.0,0.0,0.0,0.0,0.0,0.0,0.0,0.0,0.0,0.0,1500,1500,0.0,0.0,40.0483561667,-88.232748,0.0,0.0,0.0,0.0,0.0,0.0,0.0,0.0,0.0,0.0,0.0,0,0.0,0.0,0.0,0.0,28.0,90.0,90.0,150.43324279790002,89.44507598879999,89.6997299194,47.5979995728,14.8006668091,2.9500000476999997,0,2,25,1,322,60
20,1530632161532,4074532, RC,0,39.9586186,-88.445067899,0,0.0,0.0,0.0,0.0,0.0,0.0,0.0,0.0,0.0,0.0,0.0,0.0,0.0,1500,1500,0.0,0.0,40.0483561667,-88.232748,0.0,0.0,0.0,0.0,0.0,0.0,0.0,0.0,0.0,0.0,0.0,0,0.0,0.0,0.0,0.0,28.0,90.0,90.0,150.43324279790002,89.44507598879999,89.6997299194,47.5979995728,14.8006668091,2.9500000476999997,0,2,25,1,329,62
21,1530632161582,4074582, RC,0,39.9586186,-88.445067899,0,0.0,0.0,0.0,0.0,0.0,0.0,0.0,0.0,0.0,0.0,0.0,0.0,0.0,1500,1500,0.0,0.0,40.0483561667,-88.232748,0.0,0.0,0.0,0.0,0.0,0.0,0.0,0.0,0.0,0.0,0.0,0,0.0,0.0,0.0,0.0,28.0,90.0,90.0,150.43324279790002,89.3814163208,89.6997299194,47.5979995728,14.8006668091,2.9500000476999997,0,2,25,1,331,64
22,1530632161633,4074633, RC,0,39.9586186,-88.445067899,0,0.0,0.0,0.0,0.0,0.0,0.0,0.0,0.0,0.0,0.0,0.0,0.0,0.0,1500,1500,0.0,0.0,40.0483561667,-88.232748,0.0,0.0,0.0,0.0,0.0,0.0,0.0,0.0,0.0,0.0,0.0,0,0.0,0.0,0.0,0.0,28.0,90.0,90.0,150.43324279790002,89.3814163208,89.6997299194,47.5979995728,14.8006668091,2.9500000476999997,0,2,25,1,322,66
23,1530632161683,4074683, RC,0,39.9586186,-88.445067899,0,0.0,0.0,0.0,0.0,0.0,0.0,0.0,0.0,0.0,0.0,0.0,0.0,0.0,1500,1500,0.0,0.0,40.0483561667,-88.232748,0.0,0.0,0.0,0.0,0.0,0.0,0.0,0.0,0.0,0.0,0.0,0,0.0,0.0,0.0,0.0,28.0,90.0,90.0,150.43324279790002,89.7633895874,89.6997299194,47.5979995728,14.800889968900002,3.4099998474,0,2,25,1,318,68
24,1530632161733,4074733, RC,0,39.9586186,-88.445067899,0,0.0,0.0,0.0,0.0,0.0,0.0,0.0,0.0,0.0,0.0,0.0,0.0,0.0,1500,1500,0.0,0.0,40.0483561667,-88.232748,0.0,0.0,0.0,0.0,0.0,0.0,0.0,0.0,0.0,0.0,0.0,0,0.0,0.0,0.0,0.0,28.0,90.0,90.0,150.43324279790002,89.7633895874,89.6997299194,47.5979995728,14.800889968900002,3.4099998474,0,2,25,1,333,70
25,1530632161784,4074784, RC,0,39.9586186,-88.445067899,0,0.0,0.0,0.0,0.0,0.0,0.0,0.0,0.0,0.0,0.0,0.0,0.0,0.0,1500,1500,0.0,0.0,40.0483561667,-88.232748,0.0,0.0,0.0,0.0,0.0,0.0,0.0,0.0,0.0,0.0,0.0,0,0.0,0.0,0.0,0.0,28.0,90.0,90.0,150.43324279790002,89.7633895874,89.6997299194,47.5979995728,14.800889968900002,3.4099998474,0,2,25,1,348,73
26,1530632161834,4074834, RC,0,39.9586186,-88.445067899,0,0.0,0.0,0.0,0.0,0.0,0.0,0.0,0.0,0.0,0.0,0.0,0.0,0.0,1500,1500,0.0,0.0,40.0483563333,-88.232748,0.0,0.0,0.0,0.0,0.0,0.0,0.0,0.0,0.0,0.0,0.0,0,0.0,0.0,0.0,0.0,28.0,90.0,90.0,150.43324279790002,89.6997299194,89.6997299194,47.5979995728,14.800889968900002,3.4099998474,0,2,25,1,337,75
27,1530632161884,4074884, RC,0,39.9586186,-88.445067899,0,0.0,0.0,0.0,0.0,0.0,0.0,0.0,0.0,0.0,0.0,0.0,0.0,0.0,1500,1500,0.0,0.0,40.0483563333,-88.232748,0.0,0.0,0.0,0.0,0.0,0.0,0.0,0.0,0.0,0.0,0.0,0,0.0,0.0,0.0,0.0,28.0,90.0,90.0,150.43324279790002,89.6997299194,89.6997299194,47.5979995728,14.800889968900002,3.4099998474,0,2,25,1,331,77
28,1530632161935,4074935, RC,0,39.9586186,-88.445067899,0,0.0,0.0,0.0,0.0,0.0,0.0,0.0,0.0,0.0,0.0,0.0,0.0,0.0,1500,1500,0.0,0.0,40.0483563333,-88.232748,0.0,0.0,0.0,0.0,0.0,0.0,0.0,0.0,0.0,0.0,0.0,0,0.0,0.0,0.0,0.0,28.0,90.0,90.0,150.43324279790002,89.6997299194,89.8907089233,47.5979995728,14.800889968900002,3.4099998474,0,2,25,1,330,79
29,1530632161985,4074985, RC,0,39.9586186,-88.445067899,0,0.0,0.0,0.0,0.0,0.0,0.0,0.0,0.0,0.0,0.0,0.0,0.0,0.0,1500,1500,0.0,0.0,40.0483563333,-88.232748,0.0,0.0,0.0,0.0,0.0,0.0,0.0,0.0,0.0,0.0,0.0,0,0.0,0.0,0.0,0.0,28.0,90.0,90.0,150.43324279790002,89.6997299194,89.8907089233,47.5979995728,14.800889968900002,3.4099998474,0,2,25,1,340,81
30,1530632162035,4075035, RC,0,39.9586186,-88.445067899,0,0.0,0.0,0.0,0.0,0.0,0.0,0.0,0.0,0.0,0.0,0.0,0.0,0.0,1500,1500,0.0,0.0,40.0483563333,-88.232748,0.0,0.0,0.0,0.0,0.0,0.0,0.0,0.0,0.0,0.0,0.0,0,0.0,0.0,0.0,0.0,28.0,90.0,90.0,150.43324279790002,89.63606262209998,89.8907089233,47.5979995728,14.800889968900002,3.4099998474,0,2,25,1,356,83
31,1530632162086,4075086, RC,0,39.9586186,-88.445067899,0,0.0,0.0,0.0,0.0,0.0,0.0,0.0,0.0,0.0,0.0,0.0,0.0,0.0,1500,1500,0.0,0.0,40.0483563333,-88.232748,0.0,0.0,0.0,0.0,0.0,0.0,0.0,0.0,0.0,0.0,0.0,0,0.0,0.0,0.0,0.0,28.0,90.0,90.0,150.43324279790002,89.63606262209998,89.8907089233,47.5979995728,14.800889968900002,3.4099998474,0,2,25,1,352,85
32,1530632162136,4075136, RC,0,39.9586186,-88.445067899,0,0.0,0.0,0.0,0.0,0.0,0.0,0.0,0.0,0.0,0.0,0.0,0.0,0.0,1500,1500,0.0,0.0,40.0483563333,-88.232748,0.0,0.0,0.0,0.0,0.0,0.0,0.0,0.0,0.0,0.0,0.0,0,0.0,0.0,0.0,0.0,28.0,90.0,90.0,150.43324279790002,89.63606262209998,89.8907089233,47.5979995728,14.800889968900002,3.4099998474,0,2,25,1,339,87
33,1530632162187,4075187, RC,0,39.9586186,-88.445067899,0,0.0,0.0,0.0,0.0,0.0,0.0,0.0,0.0,0.0,0.0,0.0,0.0,0.0,1500,1500,0.0,0.0,40.0483563333,-88.232748,0.0,0.0,0.0,0.0,0.0,0.0,0.0,0.0,0.0,0.0,0.0,0,0.0,0.0,0.0,0.0,28.0,90.0,90.0,150.43324279790002,89.63606262209998,89.8907089233,47.5979995728,14.800889968900002,3.4099998474,0,2,25,1,350,90
34,1530632162237,4075237, RC,0,39.9586186,-88.445067899,0,0.0,0.0,0.0,0.0,0.0,0.0,0.0,0.0,0.0,0.0,0.0,0.0,0.0,1500,1500,0.0,0.0,40.0483563333,-88.232748,0.0,0.0,0.0,0.0,0.0,0.0,0.0,0.0,0.0,0.0,0.0,0,0.0,0.0,0.0,0.0,28.0,90.0,90.0,150.43324279790002,89.63606262209998,89.8907089233,47.5979995728,14.800889968900002,3.4099998474,0,2,25,1,349,92
35,1530632162287,4075287, RC,0,39.9586186,-88.445067899,0,0.0,0.0,0.0,0.0,0.0,0.0,0.0,0.0,0.0,0.0,0.0,0.0,0.0,1500,1500,0.0,0.0,40.0483563333,-88.232748,0.0,0.0,0.0,0.0,0.0,0.0,0.0,0.0,0.0,0.0,0.0,0,0.0,0.0,0.0,0.0,28.0,90.0,90.0,150.43324279790002,90.01803588870001,89.8907089233,47.5979995728,14.800889968900002,3.4099998474,0,2,25,1,366,94
36,1530632162338,4075338, RC,0,39.9586186,-88.445067899,0,0.0,0.0,0.0,0.0,0.0,0.0,0.0,0.0,0.0,0.0,0.0,0.0,0.0,1500,1500,0.0,0.0,40.0483563333,-88.232748,0.0,0.0,0.0,0.0,0.0,0.0,0.0,0.0,0.0,0.0,0.0,0,0.0,0.0,0.0,0.0,28.0,90.0,90.0,150.43324279790002,90.0816955566,89.8907089233,47.5979995728,14.800889968900002,3.4099998474,0,2,25,1,356,96
37,1530632162388,4075388, RC,0,39.9586186,-88.445067899,0,0.0,0.0,0.0,0.0,0.0,0.0,0.0,0.0,0.0,0.0,0.0,0.0,0.0,1500,1500,0.0,0.0,40.0483563333,-88.232748,0.0,0.0,0.0,0.0,0.0,0.0,0.0,0.0,0.0,0.0,0.0,0,0.0,0.0,0.0,0.0,28.0,90.0,90.0,150.43324279790002,90.0816955566,89.8907089233,47.5979995728,14.800889968900002,3.4099998474,0,2,25,1,350,98
38,1530632162438,4075438, RC,0,39.9586186,-88.445067899,0,0.0,0.0,0.0,0.0,0.0,0.0,0.0,0.0,0.0,0.0,0.0,0.0,0.0,1500,1500,0.0,0.0,40.0483563333,-88.232748,0.0,0.0,0.0,0.0,0.0,0.0,0.0,0.0,0.0,0.0,0.0,0,0.0,0.0,0.0,0.0,28.0,90.0,90.0,150.43324279790002,90.0816955566,89.8907089233,47.5979995728,14.800889968900002,3.4099998474,0,2,25,1,355,100
39,1530632162489,4075489, RC,0,39.9586186,-88.445067899,0,0.0,0.0,0.0,0.0,0.0,0.0,0.0,0.0,0.0,0.0,0.0,0.0,0.0,1500,1500,0.0,0.0,40.0483563333,-88.232748,0.0,0.0,0.0,0.0,0.0,0.0,0.0,0.0,0.0,0.0,0.0,0,0.0,0.0,0.0,0.0,28.0,90.0,90.0,150.43324279790002,90.0816955566,89.8907089233,47.5979995728,14.800889968900002,3.4099998474,0,2,25,1,352,102
40,1530632162539,4075539, RC,0,39.9586186,-88.445067899,0,0.0,0.0,0.0,0.0,0.0,0.0,0.0,0.0,0.0,0.0,0.0,0.0,0.0,1500,1500,0.0,0.0,40.0483563333,-88.232748,0.0,0.0,0.0,0.0,0.0,0.0,0.0,0.0,0.0,0.0,0.0,0,0.0,0.0,0.0,0.0,28.0,90.0,90.0,150.43324279790002,90.0816955566,89.8907089233,47.5979995728,14.800889968900002,3.4099998474,0,2,25,1,363,104
41,1530632162590,4075590, RC,0,39.9586186,-88.445067899,0,0.0,0.0,0.0,0.0,0.0,0.0,0.0,0.0,0.0,0.0,0.0,0.0,0.0,1500,1500,0.0,0.0,40.0483563333,-88.232748,0.0,0.0,0.0,0.0,0.0,0.0,0.0,0.0,0.0,0.0,0.0,0,0.0,0.0,0.0,0.0,28.0,90.0,90.0,150.43324279790002,90.01803588870001,89.8907089233,47.5979995728,14.800889968900002,3.4099998474,0,2,25,1,340,106
42,1530632162640,4075640, RC,0,39.9586186,-88.445067899,0,0.0,0.0,0.0,0.0,0.0,0.0,0.0,0.0,0.0,0.0,0.0,0.0,0.0,1500,1500,0.0,0.0,40.0483563333,-88.232748,0.0,0.0,0.0,0.0,0.0,0.0,0.0,0.0,0.0,0.0,0.0,0,0.0,0.0,0.0,0.0,28.0,90.0,90.0,150.43324279790002,89.7633895874,89.8907089233,47.5979995728,14.8010663986,3.2300000191000002,0,2,25,1,358,108
43,1530632162690,4075690, RC,0,39.9586186,-88.445067899,0,0.0,0.0,0.0,0.0,0.0,0.0,0.0,0.0,0.0,0.0,0.0,0.0,0.0,1500,1500,0.0,0.0,40.0483563333,-88.232748,0.0,0.0,0.0,0.0,0.0,0.0,0.0,0.0,0.0,0.0,0.0,0,0.0,0.0,0.0,0.0,28.0,90.0,90.0,150.43324279790002,89.7633895874,89.8907089233,47.5979995728,14.8010663986,3.2300000191000002,0,2,25,1,343,111
44,1530632162741,4075741, RC,0,39.9586186,-88.445067899,0,0.0,0.0,0.0,0.0,0.0,0.0,0.0,0.0,0.0,0.0,0.0,0.0,0.0,1500,1500,0.0,0.0,40.0483563333,-88.232748,0.0,0.0,0.0,0.0,0.0,0.0,0.0,0.0,0.0,0.0,0.0,0,0.0,0.0,0.0,0.0,28.0,90.0,90.0,150.43324279790002,89.7633895874,89.8907089233,47.5979995728,14.8010663986,3.2300000191000002,0,2,25,1,366,113
45,1530632162791,4075791, RC,0,39.9586186,-88.445067899,0,0.0,0.0,0.0,0.0,0.0,0.0,0.0,0.0,0.0,0.0,0.0,0.0,0.0,1500,1500,0.0,0.0,40.0483591667,-88.2327485,0.0,0.0,0.0,0.0,0.0,0.0,0.0,0.0,0.0,0.0,0.0,0,0.0,0.0,0.0,0.0,28.0,90.0,90.0,150.43324279790002,89.7633895874,89.8907089233,47.5979995728,14.8010663986,3.2300000191000002,0,2,25,1,363,115
46,1530632162841,4075841, RC,0,39.9586186,-88.445067899,0,0.0,0.0,0.0,0.0,0.0,0.0,0.0,0.0,0.0,0.0,0.0,0.0,0.0,1500,1500,0.0,0.0,40.0483591667,-88.2327485,0.0,0.0,0.0,0.0,0.0,0.0,0.0,0.0,0.0,0.0,0.0,0,0.0,0.0,0.0,0.0,28.0,90.0,90.0,150.43324279790002,89.7633895874,89.8907089233,47.5979995728,14.8010663986,3.2300000191000002,0,2,25,1,360,117
47,1530632162892,4075892, RC,0,39.9586186,-88.445067899,0,0.0,0.0,0.0,0.0,0.0,0.0,0.0,0.0,0.0,0.0,0.0,0.0,0.0,1500,1500,0.0,0.0,40.0483591667,-88.2327485,0.0,0.0,0.0,0.0,0.0,0.0,0.0,0.0,0.0,0.0,0.0,0,0.0,0.0,0.0,0.0,28.0,90.0,90.0,150.43324279790002,89.7633895874,89.8907089233,47.5979995728,14.8010663986,3.2300000191000002,0,2,25,1,350,119
48,1530632162942,4075942, RC,0,39.9586186,-88.445067899,0,0.0,0.0,0.0,0.0,0.0,0.0,0.0,0.0,0.0,0.0,0.0,0.0,0.0,1500,1500,0.0,0.0,40.0483591667,-88.2327485,0.0,0.0,0.0,0.0,0.0,0.0,0.0,0.0,0.0,0.0,0.0,0,0.0,0.0,0.0,0.0,28.0,90.0,90.0,150.43324279790002,89.7633895874,89.8907089233,47.5979995728,14.8010663986,3.2300000191000002,0,2,25,1,361,121
49,1530632162993,4075993, RC,0,39.9586186,-88.445067899,0,0.0,0.0,0.0,0.0,0.0,0.0,0.0,0.0,0.0,0.0,0.0,0.0,0.0,1500,1500,0.0,0.0,40.0483591667,-88.2327485,0.0,0.0,0.0,0.0,0.0,0.0,0.0,0.0,0.0,0.0,0.0,0,0.0,0.0,0.0,0.0,28.0,90.0,90.0,150.43324279790002,89.7633895874,89.8907089233,47.5979995728,14.8010663986,3.2300000191000002,0,2,25,1,338,123
50,1530632163043,4076043, RC,0,39.9586186,-88.445067899,0,0.0,0.0,0.0,0.0,0.0,0.0,0.0,0.0,0.0,0.0,0.0,0.0,0.0,1500,1500,0.0,0.0,40.0483591667,-88.2327485,0.0,0.0,0.0,0.0,0.0,0.0,0.0,0.0,0.0,0.0,0.0,0,0.0,0.0,0.0,0.0,28.0,90.0,90.0,150.43324279790002,89.7633895874,89.8907089233,47.5979995728,14.8010663986,3.2300000191000002,0,2,25,1,350,125
51,1530632163093,4076093, RC,0,39.9586186,-88.445067899,0,0.0,0.0,0.0,0.0,0.0,0.0,0.0,0.0,0.0,0.0,0.0,0.0,0.0,1500,1500,0.0,0.0,40.0483591667,-88.2327485,0.0,0.0,0.0,0.0,0.0,0.0,0.0,0.0,0.0,0.0,0.0,0,0.0,0.0,0.0,0.0,19.0,90.0,90.0,150.43324279790002,89.7633895874,89.8907089233,47.5979995728,14.8010663986,3.2300000191000002,0,2,25,1,346,127
52,1530632163144,4076144, RC,0,39.9586186,-88.445067899,0,0.0,0.0,0.0,0.0,0.0,0.0,0.0,0.0,0.0,0.0,0.0,0.0,0.0,1500,1500,0.0,0.0,40.0483591667,-88.2327485,0.0,0.0,0.0,0.0,0.0,0.0,0.0,0.0,0.0,0.0,0.0,0,0.0,0.0,0.0,0.0,19.0,90.0,90.0,150.43324279790002,89.7633895874,89.8907089233,47.5979995728,14.8010663986,3.2300000191000002,0,2,25,1,358,130
53,1530632163194,4076194, RC,0,39.9586186,-88.445067899,0,0.0,0.0,0.0,0.0,0.0,0.0,0.0,0.0,0.0,0.0,0.0,0.0,0.0,1500,1500,0.0,0.0,40.0483591667,-88.2327485,0.0,0.0,0.0,0.0,0.0,0.0,0.0,0.0,0.0,0.0,0.0,0,0.0,0.0,0.0,0.0,27.0,90.0,90.0,150.43324279790002,89.7633895874,89.8907089233,47.5979995728,14.8010663986,3.2300000191000002,0,2,25,1,354,132
54,1530632163244,4076244, RC,0,39.9586186,-88.445067899,0,0.0,0.0,0.0,0.0,0.0,0.0,0.0,0.0,0.0,0.0,0.0,0.0,0.0,1500,1500,0.0,0.0,40.0483591667,-88.2327485,0.0,0.0,0.0,0.0,0.0,0.0,0.0,0.0,0.0,0.0,0.0,0,0.0,0.0,0.0,0.0,27.0,90.0,90.0,150.43324279790002,89.7633895874,89.8907089233,47.5979995728,14.8010663986,3.2300000191000002,0,2,25,1,339,134
55,1530632163295,4076295, RC,0,39.9586186,-88.445067899,0,0.0,0.0,0.0,0.0,0.0,0.0,0.0,0.0,0.0,0.0,0.0,0.0,0.0,1500,1500,0.0,0.0,40.0483591667,-88.2327485,0.0,0.0,0.0,0.0,0.0,0.0,0.0,0.0,0.0,0.0,0.0,0,0.0,0.0,0.0,0.0,37.0,90.0,90.0,150.43324279790002,89.7633895874,89.8907089233,47.5979995728,14.8010663986,3.2300000191000002,0,2,25,1,344,136
56,1530632163345,4076345, RC,0,39.9586186,-88.445067899,0,0.0,0.0,0.0,0.0,0.0,0.0,0.0,0.0,0.0,0.0,0.0,0.0,0.0,1500,1500,0.0,0.0,40.0483591667,-88.2327485,0.0,0.0,0.0,0.0,0.0,0.0,0.0,0.0,0.0,0.0,0.0,0,0.0,0.0,0.0,0.0,37.0,90.0,90.0,148.5870513916,89.7633895874,89.8907089233,47.5979995728,14.8010663986,3.2300000191000002,0,2,25,1,364,138
57,1530632163395,4076395, RC,0,39.9586186,-88.445067899,0,0.0,0.0,0.0,0.0,0.0,0.0,0.0,0.0,0.0,0.0,0.0,0.0,0.0,1500,1500,0.0,0.0,40.0483591667,-88.2327485,0.0,0.0,0.0,0.0,0.0,0.0,0.0,0.0,0.0,0.0,0.0,0,0.0,0.0,0.0,0.0,39.0,90.0,90.0,144.57635498049999,89.7633895874,89.8907089233,47.5979995728,14.8010663986,3.2300000191000002,0,2,25,1,355,140
58,1530632163446,4076446, RC,0,39.9586186,-88.445067899,0,0.0,0.0,0.0,0.0,0.0,0.0,0.0,0.0,0.0,0.0,0.0,0.0,0.0,1500,1500,0.0,0.0,40.0483591667,-88.2327485,0.0,0.0,0.0,0.0,0.0,0.0,0.0,0.0,0.0,0.0,0.0,0,0.0,0.0,0.0,0.0,39.0,90.0,90.0,142.6028289795,89.7633895874,89.8907089233,47.5979995728,14.8010663986,3.2300000191000002,0,2,25,1,351,142
59,1530632163496,4076496, RC,0,39.9586186,-88.445067899,0,0.0,0.0,0.0,0.0,0.0,0.0,0.0,0.0,0.0,0.0,0.0,0.0,0.0,1500,1500,0.0,0.0,40.0483591667,-88.2327485,0.0,0.0,0.0,0.0,0.0,0.0,0.0,0.0,0.0,0.0,0.0,0,0.0,0.0,0.0,0.0,40.0,90.0,90.0,142.1571960449,89.7633895874,89.8907089233,47.5979995728,14.8010663986,3.2300000191000002,0,2,25,1,355,144
60,1530632163546,4076546, RC,0,39.9586186,-88.445067899,0,0.0,0.0,0.0,0.0,0.0,0.0,0.0,0.0,0.0,0.0,0.0,0.0,0.0,1500,1500,0.0,0.0,40.0483591667,-88.2327485,0.0,0.0,0.0,0.0,0.0,0.0,0.0,0.0,0.0,0.0,0.0,0,0.0,0.0,0.0,0.0,40.0,90.0,90.0,140.3746643066,90.145362854,89.8907089233,47.5979995728,14.8010663986,3.2300000191000002,0,2,25,1,347,146
61,1530632163597,4076597, RC,0,39.9586186,-88.445067899,0,0.0,0.0,0.0,0.0,0.0,0.0,0.0,0.0,0.0,0.0,0.0,0.0,0.0,1500,1500,0.0,0.0,40.0483591667,-88.2327485,0.0,0.0,0.0,0.0,0.0,0.0,0.0,0.0,0.0,0.0,0.0,0,0.0,0.0,0.0,0.0,45.0,90.0,90.0,139.41973876950001,90.0816955566,89.8907089233,47.5979995728,14.8010663986,3.2300000191000002,0,2,25,1,344,149
62,1530632163647,4076647, RC,0,39.9586186,-88.445067899,0,0.0,0.0,0.0,0.0,0.0,0.0,0.0,0.0,0.0,0.0,0.0,0.0,0.0,1500,1500,0.0,0.0,40.0483591667,-88.2327485,0.0,0.0,0.0,0.0,0.0,0.0,0.0,0.0,0.0,0.0,0.0,0,0.0,0.0,0.0,0.0,45.0,90.0,90.0,139.2924041748,90.0816955566,89.8907089233,47.5979995728,14.801366805999999,3.1799998282999997,0,2,25,1,348,151
63,1530632163697,4076697, RC,0,39.9586186,-88.445067899,0,0.0,0.0,0.0,0.0,0.0,0.0,0.0,0.0,0.0,0.0,0.0,0.0,0.0,1500,1500,0.0,0.0,40.0483591667,-88.2327485,0.0,0.0,0.0,0.0,0.0,0.0,0.0,0.0,0.0,0.0,0.0,0,0.0,0.0,0.0,0.0,46.0,90.0,90.0,134.7723999023,90.0816955566,89.8907089233,47.5979995728,14.801366805999999,3.1799998282999997,0,2,25,1,334,153
64,1530632163748,4076748, RC,0,39.9586186,-88.445067899,0,0.0,0.0,0.0,0.0,0.0,0.0,0.0,0.0,0.0,0.0,0.0,0.0,0.0,1500,1500,0.0,0.0,40.0483591667,-88.2327485,0.0,0.0,0.0,0.0,0.0,0.0,0.0,0.0,0.0,0.0,0.0,0,0.0,0.0,0.0,0.0,46.0,90.0,90.0,134.1357879639,90.0816955566,89.8907089233,47.5979995728,14.801366805999999,3.1799998282999997,0,2,25,1,351,155
65,1530632163798,4076798, RC,0,39.9586186,-88.445067899,0,0.0,0.0,0.0,0.0,0.0,0.0,0.0,0.0,0.0,0.0,0.0,0.0,0.0,1500,1500,0.0,0.0,40.048358,-88.2327465,0.0,0.0,0.0,0.0,0.0,0.0,0.0,0.0,0.0,0.0,0.0,0,0.0,0.0,0.0,0.0,49.0,90.0,90.0,134.00846862790002,90.0816955566,89.8907089233,47.5979995728,14.801366805999999,3.1799998282999997,0,2,25,1,355,157
66,1530632163848,4076848, RC,0,39.9586186,-88.445067899,0,0.0,0.0,0.0,0.0,0.0,0.0,0.0,0.0,0.0,0.0,0.0,0.0,0.0,1500,1500,0.0,0.0,40.048358,-88.2327465,0.0,0.0,0.0,0.0,0.0,0.0,0.0,0.0,0.0,0.0,0.0,0,0.0,0.0,0.0,0.0,49.0,90.0,90.0,133.8811340332,90.0816955566,89.8907089233,47.5979995728,14.801366805999999,3.1799998282999997,0,2,25,1,347,159
67,1530632163899,4076899, RC,0,39.9586186,-88.445067899,0,0.0,0.0,0.0,0.0,0.0,0.0,0.0,0.0,0.0,0.0,0.0,0.0,0.0,1500,1500,0.0,0.0,40.048358,-88.2327465,0.0,0.0,0.0,0.0,0.0,0.0,0.0,0.0,0.0,0.0,0.0,0,0.0,0.0,0.0,0.0,51.0,90.0,90.0,131.2709960938,90.0816955566,89.8907089233,47.5979995728,14.801366805999999,3.1799998282999997,0,2,25,1,350,161
68,1530632163949,4076949, RC,0,39.9586186,-88.445067899,0,0.0,0.0,0.0,0.0,0.0,0.0,0.0,0.0,0.0,0.0,0.0,0.0,0.0,1500,1500,0.0,0.0,40.048358,-88.2327465,0.0,0.0,0.0,0.0,0.0,0.0,0.0,0.0,0.0,0.0,0.0,0,0.0,0.0,0.0,0.0,51.0,90.0,90.0,130.5707244873,90.0816955566,89.8907089233,47.5979995728,14.801366805999999,3.1799998282999997,0,2,25,1,347,163
69,1530632163999,4076999, RC,0,39.9586186,-88.445067899,0,0.0,0.0,0.0,0.0,0.0,0.0,0.0,0.0,0.0,0.0,0.0,0.0,0.0,1500,1500,0.0,0.0,40.048358,-88.2327465,0.0,0.0,0.0,0.0,0.0,0.0,0.0,0.0,0.0,0.0,0.0,0,0.0,0.0,0.0,0.0,52.0,90.0,90.0,129.87043762209998,90.0816955566,89.8907089233,47.5979995728,14.801366805999999,3.1799998282999997,0,2,25,1,342,165
70,1530632164050,4077050, RC,0,39.9586186,-88.445067899,0,0.0,0.0,0.0,0.0,0.0,0.0,0.0,0.0,0.0,0.0,0.0,0.0,0.0,1500,1500,0.0,0.0,40.048358,-88.2327465,0.0,0.0,0.0,0.0,0.0,0.0,0.0,0.0,0.0,0.0,0.0,0,0.0,0.0,0.0,0.0,52.0,90.0,90.0,128.7881774902,90.0816955566,89.8907089233,47.5979995728,14.801366805999999,3.1799998282999997,0,2,25,1,348,167
71,1530632164100,4077100, RC,0,39.9586186,-88.445067899,0,0.0,0.0,0.0,0.0,0.0,0.0,0.0,0.0,0.0,0.0,0.0,0.0,0.0,1500,1500,0.0,0.0,40.048358,-88.2327465,0.0,0.0,0.0,0.0,0.0,0.0,0.0,0.0,0.0,0.0,0.0,0,0.0,0.0,0.0,0.0,54.0,90.0,90.0,127.32395935059999,90.0816955566,89.8907089233,47.5979995728,14.801366805999999,3.1799998282999997,0,2,25,1,351,170
72,1530632164151,4077151, RC,0,39.9586186,-88.445067899,0,0.0,0.0,0.0,0.0,0.0,0.0,0.0,0.0,0.0,0.0,0.0,0.0,0.0,1500,1500,0.0,0.0,40.048358,-88.2327465,0.0,0.0,0.0,0.0,0.0,0.0,0.0,0.0,0.0,0.0,0.0,0,0.0,0.0,0.0,0.0,54.0,90.0,90.0,127.1966323853,90.0816955566,89.8907089233,47.5979995728,14.801366805999999,3.1799998282999997,0,2,25,1,343,172
73,1530632164202,4077202, RC,0,39.9586186,-88.445067899,0,0.0,0.0,0.0,0.0,0.0,0.0,0.0,0.0,0.0,0.0,0.0,0.0,0.0,1500,1500,0.0,0.0,40.048358,-88.2327465,0.0,0.0,0.0,0.0,0.0,0.0,0.0,0.0,0.0,0.0,0.0,0,0.0,0.0,0.0,0.0,54.0,90.0,90.0,126.62367248540001,90.0816955566,89.8907089233,47.5979995728,14.801366805999999,3.1799998282999997,0,2,25,1,357,174
74,1530632164252,4077252, RC,0,39.9586186,-88.445067899,0,0.0,0.0,0.0,0.0,0.0,0.0,0.0,0.0,0.0,0.0,0.0,0.0,0.0,1500,1500,0.0,0.0,40.048358,-88.2327465,0.0,0.0,0.0,0.0,0.0,0.0,0.0,0.0,0.0,0.0,0.0,0,0.0,0.0,0.0,0.0,54.0,90.0,90.0,126.56002044680001,90.0816955566,89.8907089233,47.5979995728,14.801366805999999,3.1799998282999997,0,2,25,1,346,176
75,1530632164303,4077303, RC,0,39.9586186,-88.445067899,0,0.0,0.0,0.0,0.0,0.0,0.0,0.0,0.0,0.0,0.0,0.0,0.0,0.0,1500,1500,0.0,0.0,40.048358,-88.2327465,0.0,0.0,0.0,0.0,0.0,0.0,0.0,0.0,0.0,0.0,0.0,0,0.0,0.0,0.0,0.0,54.0,90.0,90.0,126.56002044680001,90.0816955566,89.8907089233,47.5979995728,14.801366805999999,3.1799998282999997,0,2,25,1,351,178
76,1530632164354,4077354, RC,0,39.9586186,-88.445067899,0,0.0,0.0,0.0,0.0,0.0,0.0,0.0,0.0,0.0,0.0,0.0,0.0,0.0,1500,1500,0.0,0.0,40.048358,-88.2327465,0.0,0.0,0.0,0.0,0.0,0.0,0.0,0.0,0.0,0.0,0.0,0,0.0,0.0,0.0,0.0,54.0,90.0,90.0,126.56002044680001,90.0816955566,89.8907089233,47.5979995728,14.801366805999999,3.1799998282999997,0,2,25,1,353,180
77,1530632164404,4077404, RC,0,39.9586186,-88.445067899,0,0.0,0.0,0.0,0.0,0.0,0.0,0.0,0.0,0.0,0.0,0.0,0.0,0.0,1500,1500,0.0,0.0,40.048358,-88.2327465,0.0,0.0,0.0,0.0,0.0,0.0,0.0,0.0,0.0,0.0,0.0,0,0.0,0.0,0.0,0.0,54.0,90.0,90.0,126.56002044680001,90.0816955566,89.8907089233,47.5979995728,14.801366805999999,3.1799998282999997,0,2,25,1,354,182
78,1530632164455,4077455, RC,0,39.9586186,-88.445067899,0,0.0,0.0,0.0,0.0,0.0,0.0,0.0,0.0,0.0,0.0,0.0,0.0,0.0,1500,1500,0.0,0.0,40.048358,-88.2327465,0.0,0.0,0.0,0.0,0.0,0.0,0.0,0.0,0.0,0.0,0.0,0,0.0,0.0,0.0,0.0,54.0,90.0,90.0,126.56002044680001,90.0816955566,89.8907089233,47.5979995728,14.801366805999999,3.1799998282999997,0,2,25,1,357,184
79,1530632164506,4077506, RC,0,39.9586186,-88.445067899,0,0.0,0.0,0.0,0.0,0.0,0.0,0.0,0.0,0.0,0.0,0.0,0.0,0.0,1500,1500,0.0,0.0,40.048358,-88.2327465,0.0,0.0,0.0,0.0,0.0,0.0,0.0,0.0,0.0,0.0,0.0,0,0.0,0.0,0.0,0.0,54.0,90.0,90.0,126.56002044680001,90.0816955566,89.8907089233,47.5979995728,14.801366805999999,3.1799998282999997,0,2,25,1,363,187
80,1530632164556,4077556, RC,0,39.9586186,-88.445067899,0,0.0,0.0,0.0,0.0,0.0,0.0,0.0,0.0,0.0,0.0,0.0,0.0,0.0,1500,1500,0.0,0.0,40.048358,-88.2327465,0.0,0.0,0.0,0.0,0.0,0.0,0.0,0.0,0.0,0.0,0.0,0,0.0,0.0,0.0,0.0,54.0,90.0,90.0,126.56002044680001,90.0816955566,89.8907089233,47.5979995728,14.801366805999999,3.1799998282999997,0,2,25,1,348,189
81,1530632164607,4077607, RC,0,39.9586186,-88.445067899,0,0.0,0.0,0.0,0.0,0.0,0.0,0.0,0.0,0.0,0.0,0.0,0.0,0.0,1500,1500,0.0,0.0,40.048358,-88.2327465,0.0,0.0,0.0,0.0,0.0,0.0,0.0,0.0,0.0,0.0,0.0,0,0.0,0.0,0.0,0.0,54.0,90.0,90.0,126.56002044680001,90.0816955566,89.8907089233,47.5979995728,14.801366805999999,3.1799998282999997,0,2,25,1,354,191
82,1530632164658,4077658, RC,0,39.9586186,-88.445067899,0,0.0,0.0,0.0,0.0,0.0,0.0,0.0,0.0,0.0,0.0,0.0,0.0,0.0,1500,1500,0.0,0.0,40.048358,-88.2327465,0.0,0.0,0.0,0.0,0.0,0.0,0.0,0.0,0.0,0.0,0.0,0,0.0,0.0,0.0,0.0,54.0,90.0,90.0,126.56002044680001,90.0816955566,89.8907089233,47.5979995728,14.801933288599999,3.6800000668,0,2,25,1,350,193
83,1530632164708,4077708, RC,0,39.9586186,-88.445067899,0,0.0,0.0,0.0,0.0,0.0,0.0,0.0,0.0,0.0,0.0,0.0,0.0,0.0,1500,1500,0.0,0.0,40.048358,-88.2327465,0.0,0.0,0.0,0.0,0.0,0.0,0.0,0.0,0.0,0.0,0.0,0,0.0,0.0,0.0,0.0,54.0,90.0,90.0,126.56002044680001,90.0816955566,89.8907089233,47.5979995728,14.801933288599999,3.6800000668,0,2,25,1,371,195
84,1530632164759,4077759, RC,0,39.9586186,-88.445067899,0,0.0,0.0,0.0,0.0,0.0,0.0,0.0,0.0,0.0,0.0,0.0,0.0,0.0,1500,1500,0.0,0.0,40.048358,-88.2327465,0.0,0.0,0.0,0.0,0.0,0.0,0.0,0.0,0.0,0.0,0.0,0,0.0,0.0,0.0,0.0,54.0,90.0,90.0,126.56002044680001,90.0816955566,89.8907089233,47.5979995728,14.801933288599999,3.6800000668,0,2,25,1,344,197
85,1530632164810,4077810, RC,0,39.9586186,-88.445067899,0,0.0,0.0,0.0,0.0,0.0,0.0,0.0,0.0,0.0,0.0,0.0,0.0,0.0,1500,1500,0.0,0.0,40.048358,-88.2327465,0.0,0.0,0.0,0.0,0.0,0.0,0.0,0.0,0.0,0.0,0.0,0,0.0,0.0,0.0,0.0,54.0,90.0,90.0,126.56002044680001,90.0816955566,89.8907089233,47.5979995728,14.801933288599999,3.6800000668,0,2,25,1,344,199
86,1530632164860,4077860, RC,0,39.9586186,-88.445067899,0,0.0,0.0,0.0,0.0,0.0,0.0,0.0,0.0,0.0,0.0,0.0,0.0,0.0,1500,1500,0.0,0.0,40.04836,-88.2327473333,0.0,0.0,0.0,0.0,0.0,0.0,0.0,0.0,0.0,0.0,0.0,0,0.0,0.0,0.0,0.0,54.0,90.0,90.0,126.56002044680001,90.0816955566,89.8907089233,47.5979995728,14.801933288599999,3.6800000668,0,2,25,1,355,201
87,1530632164911,4077911, RC,0,39.9586186,-88.445067899,0,0.0,0.0,0.0,0.0,0.0,0.0,0.0,0.0,0.0,0.0,0.0,0.0,0.0,1500,1500,0.0,0.0,40.04836,-88.2327473333,0.0,0.0,0.0,0.0,0.0,0.0,0.0,0.0,0.0,0.0,0.0,0,0.0,0.0,0.0,0.0,54.0,90.0,90.0,126.56002044680001,90.0816955566,89.8907089233,47.5979995728,14.801933288599999,3.6800000668,0,2,25,1,342,203
88,1530632164961,4077961, RC,0,39.9586186,-88.445067899,0,0.0,0.0,0.0,0.0,0.0,0.0,0.0,0.0,0.0,0.0,0.0,0.0,0.0,1500,1500,0.0,0.0,40.04836,-88.2327473333,0.0,0.0,0.0,0.0,0.0,0.0,0.0,0.0,0.0,0.0,0.0,0,0.0,0.0,0.0,0.0,54.0,90.0,90.0,126.56002044680001,90.0816955566,89.8907089233,47.5979995728,14.801933288599999,3.6800000668,0,2,25,1,359,205
89,1530632165012,4078012, RC,0,39.9586186,-88.445067899,0,0.0,0.0,0.0,0.0,0.0,0.0,0.0,0.0,0.0,0.0,0.0,0.0,0.0,1500,1500,0.0,0.0,40.04836,-88.2327473333,0.0,0.0,0.0,0.0,0.0,0.0,0.0,0.0,0.0,0.0,0.0,0,0.0,0.0,0.0,0.0,54.0,90.0,90.0,126.56002044680001,90.0816955566,89.8907089233,47.5979995728,14.801933288599999,3.6800000668,0,2,25,1,361,208
90,1530632165063,4078063, RC,0,39.9586186,-88.445067899,0,0.0,0.0,0.0,0.0,0.0,0.0,0.0,0.0,0.0,0.0,0.0,0.0,0.0,1500,1500,0.0,0.0,40.04836,-88.2327473333,0.0,0.0,0.0,0.0,0.0,0.0,0.0,0.0,0.0,0.0,0.0,0,0.0,0.0,0.0,0.0,54.0,90.0,90.0,126.56002044680001,90.0816955566,89.8907089233,47.5979995728,14.801933288599999,3.6800000668,0,2,25,1,346,210
91,1530632165113,4078113, RC,0,39.9586186,-88.445067899,0,0.0,0.0,0.0,0.0,0.0,0.0,0.0,0.0,0.0,0.0,0.0,0.0,0.0,1500,1500,0.0,0.0,40.04836,-88.2327473333,0.0,0.0,0.0,0.0,0.0,0.0,0.0,0.0,0.0,0.0,0.0,0,0.0,0.0,0.0,0.0,54.0,90.0,90.0,126.56002044680001,90.0816955566,89.8907089233,47.5979995728,14.801933288599999,3.6800000668,0,2,25,1,344,212
92,1530632165164,4078164, RC,0,39.9586186,-88.445067899,0,0.0,0.0,0.0,0.0,0.0,0.0,0.0,0.0,0.0,0.0,0.0,0.0,0.0,1500,1500,0.0,0.0,40.04836,-88.2327473333,0.0,0.0,0.0,0.0,0.0,0.0,0.0,0.0,0.0,0.0,0.0,0,0.0,0.0,0.0,0.0,54.0,90.0,90.0,126.56002044680001,90.0816955566,89.8907089233,47.5979995728,14.801933288599999,3.6800000668,0,2,25,1,352,214
93,1530632165214,4078214, RC,0,39.9586186,-88.445067899,0,0.0,0.0,0.0,0.0,0.0,0.0,0.0,0.0,0.0,0.0,0.0,0.0,0.0,1500,1500,0.0,0.0,40.04836,-88.2327473333,0.0,0.0,0.0,0.0,0.0,0.0,0.0,0.0,0.0,0.0,0.0,0,0.0,0.0,0.0,0.0,54.0,90.0,90.0,126.56002044680001,90.0816955566,89.8907089233,47.5979995728,14.801933288599999,3.6800000668,0,2,25,1,364,216
94,1530632165265,4078265, RC,0,39.9586186,-88.445067899,0,0.0,0.0,0.0,0.0,0.0,0.0,0.0,0.0,0.0,0.0,0.0,0.0,0.0,1500,1500,0.0,0.0,40.04836,-88.2327473333,0.0,0.0,0.0,0.0,0.0,0.0,0.0,0.0,0.0,0.0,0.0,0,0.0,0.0,0.0,0.0,54.0,90.0,90.0,126.56002044680001,90.0816955566,89.8907089233,47.5979995728,14.801933288599999,3.6800000668,0,2,25,1,362,218
95,1530632165316,4078316, RC,0,39.9586186,-88.445067899,0,0.0,0.0,0.0,0.0,0.0,0.0,0.0,0.0,0.0,0.0,0.0,0.0,0.0,1500,1500,0.0,0.0,40.04836,-88.2327473333,0.0,0.0,0.0,0.0,0.0,0.0,0.0,0.0,0.0,0.0,0.0,0,0.0,0.0,0.0,0.0,54.0,90.0,90.0,126.56002044680001,90.0816955566,89.8907089233,47.5979995728,14.801933288599999,3.6800000668,0,2,25,1,349,220
96,1530632165367,4078367, RC,0,39.9586186,-88.445067899,0,0.0,0.0,0.0,0.0,0.0,0.0,0.0,0.0,0.0,0.0,0.0,0.0,0.0,1500,1500,0.0,0.0,40.04836,-88.2327473333,0.0,0.0,0.0,0.0,0.0,0.0,0.0,0.0,0.0,0.0,0.0,0,0.0,0.0,0.0,0.0,54.0,90.0,90.0,126.56002044680001,90.0816955566,89.8907089233,47.5979995728,14.801933288599999,3.6800000668,0,2,25,1,338,222
97,1530632165418,4078418, RC,0,39.9586186,-88.445067899,0,0.0,0.0,0.0,0.0,0.0,0.0,0.0,0.0,0.0,0.0,0.0,0.0,0.0,1500,1500,0.0,0.0,40.04836,-88.2327473333,0.0,0.0,0.0,0.0,0.0,0.0,0.0,0.0,0.0,0.0,0.0,0,0.0,0.0,0.0,0.0,54.0,90.0,90.0,126.56002044680001,90.0816955566,89.8907089233,47.5979995728,14.801933288599999,3.6800000668,0,2,25,1,343,224
98,1530632165468,4078468, RC,0,39.9586186,-88.445067899,0,0.0,0.0,0.0,0.0,0.0,0.0,0.0,0.0,0.0,0.0,0.0,0.0,0.0,1500,1500,0.0,0.0,40.04836,-88.2327473333,0.0,0.0,0.0,0.0,0.0,0.0,0.0,0.0,0.0,0.0,0.0,0,0.0,0.0,0.0,0.0,54.0,90.0,90.0,126.56002044680001,90.0816955566,89.8907089233,47.5979995728,14.801933288599999,3.6800000668,0,2,25,1,354,227
99,1530632165519,4078519, RC,0,39.9586186,-88.445067899,0,0.0,0.0,0.0,0.0,0.0,0.0,0.0,0.0,0.0,0.0,0.0,0.0,0.0,1500,1500,0.0,0.0,40.04836,-88.2327473333,0.0,0.0,0.0,0.0,0.0,0.0,0.0,0.0,0.0,0.0,0.0,0,0.0,0.0,0.0,0.0,54.0,90.0,90.0,126.56002044680001,90.0816955566,89.8907089233,47.5979995728,14.801933288599999,3.6800000668,0,2,25,1,353,229
100,1530632165570,4078570, RC,0,39.9586186,-88.445067899,0,0.0,0.0,0.0,0.0,0.0,0.0,0.0,0.0,0.0,0.0,0.0,0.0,0.0,1500,1500,0.0,0.0,40.04836,-88.2327473333,0.0,0.0,0.0,0.0,0.0,0.0,0.0,0.0,0.0,0.0,0.0,0,0.0,0.0,0.0,0.0,54.0,90.0,90.0,126.56002044680001,90.0816955566,89.8907089233,47.5979995728,14.801933288599999,3.6800000668,0,2,25,1,355,231
101,1530632165620,4078620, RC,0,39.9586186,-88.445067899,0,0.0,0.0,0.0,0.0,0.0,0.0,0.0,0.0,0.0,0.0,0.0,0.0,0.0,1500,1500,0.0,0.0,40.04836,-88.2327473333,0.0,0.0,0.0,0.0,0.0,0.0,0.0,0.0,0.0,0.0,0.0,0,0.0,0.0,0.0,0.0,54.0,90.0,90.0,126.56002044680001,90.0816955566,89.8907089233,47.5979995728,14.801933288599999,3.6800000668,0,2,25,1,359,233
102,1530632165671,4078671, RC,0,39.9586186,-88.445067899,0,0.0,0.0,0.0,0.0,0.0,0.0,0.0,0.0,0.0,0.0,0.0,0.0,0.0,1500,1500,0.0,0.0,40.04836,-88.2327473333,0.0,0.0,0.0,0.0,0.0,0.0,0.0,0.0,0.0,0.0,0.0,0,0.0,0.0,0.0,0.0,54.0,90.0,90.0,126.56002044680001,90.0816955566,89.8907089233,47.5979995728,14.802197456400002,2.9700000286000003,0,2,25,1,343,235
103,1530632165722,4078722, RC,0,39.9586186,-88.445067899,0,0.0,0.0,0.0,0.0,0.0,0.0,0.0,0.0,0.0,0.0,0.0,0.0,0.0,1500,1500,0.0,0.0,40.04836,-88.2327473333,0.0,0.0,0.0,0.0,0.0,0.0,0.0,0.0,0.0,0.0,0.0,0,0.0,0.0,0.0,0.0,51.0,90.0,90.0,126.56002044680001,90.0816955566,89.8907089233,47.5979995728,14.802197456400002,2.9700000286000003,0,2,25,1,333,237
104,1530632165772,4078772, RC,0,39.9586186,-88.445067899,0,0.0,0.0,0.0,0.0,0.0,0.0,0.0,0.0,0.0,0.0,0.0,0.0,0.0,1500,1500,0.0,0.0,40.04836,-88.2327473333,0.0,0.0,0.0,0.0,0.0,0.0,0.0,0.0,0.0,0.0,0.0,0,0.0,0.0,0.0,0.0,51.0,90.0,90.0,127.64225769040002,90.0816955566,89.8907089233,47.5979995728,14.802197456400002,2.9700000286000003,0,2,25,1,358,239
105,1530632165823,4078823, RC,0,39.9586186,-88.445067899,0,0.0,0.0,0.0,0.0,0.0,0.0,0.0,0.0,0.0,0.0,0.0,0.0,0.0,1500,1500,0.0,0.0,40.0483611667,-88.2327463333,0.0,0.0,0.0,0.0,0.0,0.0,0.0,0.0,0.0,0.0,0.0,0,0.0,0.0,0.0,0.0,54.0,90.0,90.0,128.3425445557,90.0816955566,89.8907089233,47.5979995728,14.802197456400002,2.9700000286000003,0,2,25,1,348,241
106,1530632165874,4078874, RC,0,39.9586186,-88.445067899,0,0.0,0.0,0.0,0.0,0.0,0.0,0.0,0.0,0.0,0.0,0.0,0.0,0.0,1500,1500,0.0,0.0,40.0483611667,-88.2327463333,0.0,0.0,0.0,0.0,0.0,0.0,0.0,0.0,0.0,0.0,0.0,0,0.0,0.0,0.0,0.0,54.0,90.0,90.0,127.64225769040002,90.0816955566,89.8907089233,47.5979995728,14.802197456400002,2.9700000286000003,0,2,25,1,352,243
107,1530632165924,4078924, RC,0,39.9586186,-88.445067899,0,0.0,0.0,0.0,0.0,0.0,0.0,0.0,0.0,0.0,0.0,0.0,0.0,0.0,1500,1500,0.0,0.0,40.0483611667,-88.2327463333,0.0,0.0,0.0,0.0,0.0,0.0,0.0,0.0,0.0,0.0,0.0,0,0.0,0.0,0.0,0.0,63.0,90.0,90.0,127.005645752,90.0816955566,89.8907089233,47.5979995728,14.802197456400002,2.9700000286000003,0,2,25,1,355,245
108,1530632165975,4078975, RC,0,39.9586186,-88.445067899,0,0.0,0.0,0.0,0.0,0.0,0.0,0.0,0.0,0.0,0.0,0.0,0.0,0.0,1500,1500,0.0,0.0,40.0483611667,-88.2327463333,0.0,0.0,0.0,0.0,0.0,0.0,0.0,0.0,0.0,0.0,0.0,0,0.0,0.0,0.0,0.0,63.0,90.0,90.0,121.59437561040001,90.0816955566,89.8907089233,47.5979995728,14.802197456400002,2.9700000286000003,0,2,25,1,349,248
109,1530632166026,4079026, RC,0,39.9586186,-88.445067899,0,0.0,0.0,0.0,0.0,0.0,0.0,0.0,0.0,0.0,0.0,0.0,0.0,0.0,1500,1500,0.0,0.0,40.0483611667,-88.2327463333,0.0,0.0,0.0,0.0,0.0,0.0,0.0,0.0,0.0,0.0,0.0,0,0.0,0.0,0.0,0.0,72.0,90.0,90.0,113.3183135986,90.0816955566,89.8907089233,47.5979995728,14.802197456400002,2.9700000286000003,0,2,25,1,346,250
110,1530632166076,4079076, RC,0,39.9586186,-88.445067899,0,0.0,0.0,0.0,0.0,0.0,0.0,0.0,0.0,0.0,0.0,0.0,0.0,0.0,1500,1500,0.0,0.0,40.0483611667,-88.2327463333,0.0,0.0,0.0,0.0,0.0,0.0,0.0,0.0,0.0,0.0,0.0,0,0.0,0.0,0.0,0.0,72.0,90.0,90.0,108.9256439209,90.0816955566,89.8907089233,47.5979995728,14.802197456400002,2.9700000286000003,0,2,25,1,335,252
111,1530632166127,4079127, RC,0,39.9586186,-88.445067899,0,0.0,0.0,0.0,0.0,0.0,0.0,0.0,0.0,0.0,0.0,0.0,0.0,0.0,1500,1500,0.0,0.0,40.0483611667,-88.2327463333,0.0,0.0,0.0,0.0,0.0,0.0,0.0,0.0,0.0,0.0,0.0,0,0.0,0.0,0.0,0.0,76.0,90.0,90.0,109.1802902222,90.0816955566,89.8907089233,47.5979995728,14.802197456400002,2.9700000286000003,0,2,25,1,352,254
112,1530632166177,4079177, RC,0,39.9586186,-88.445067899,0,0.0,0.0,0.0,0.0,0.0,0.0,0.0,0.0,0.0,0.0,0.0,0.0,0.0,1500,1500,0.0,0.0,40.0483611667,-88.2327463333,0.0,0.0,0.0,0.0,0.0,0.0,0.0,0.0,0.0,0.0,0.0,0,0.0,0.0,0.0,0.0,76.0,90.0,90.0,104.0873336792,90.0816955566,89.8907089233,47.5979995728,14.802197456400002,2.9700000286000003,0,2,25,1,348,256
113,1530632166228,4079228, RC,0,39.9586186,-88.445067899,0,0.0,0.0,0.0,0.0,0.0,0.0,0.0,0.0,0.0,0.0,0.0,0.0,0.0,1500,1500,0.0,0.0,40.0483611667,-88.2327463333,0.0,0.0,0.0,0.0,0.0,0.0,0.0,0.0,0.0,0.0,0.0,0,0.0,0.0,0.0,0.0,77.0,90.0,90.0,103.5143737793,90.0816955566,89.8907089233,47.5979995728,14.802197456400002,2.9700000286000003,0,2,25,1,352,258
114,1530632166333,4079333, RC,0,39.9586186,-88.445067899,0,0.0,0.0,0.0,0.0,0.0,0.0,0.0,0.0,0.0,0.0,0.0,0.0,0.0,1500,1500,0.0,0.0,40.0483611667,-88.2327463333,0.0,0.0,0.0,0.0,0.0,0.0,0.0,0.0,0.0,0.0,0.0,0,0.0,0.0,0.0,0.0,77.0,90.0,90.0,103.387046814,90.0816955566,89.8907089233,47.5979995728,14.802197456400002,2.9700000286000003,0,2,25,1,345,262
115,1530632166383,4079383, RC,0,39.9586186,-88.445067899,0,0.0,0.0,0.0,0.0,0.0,0.0,0.0,0.0,0.0,0.0,0.0,0.0,0.0,1500,1500,0.0,0.0,40.0483611667,-88.2327463333,0.0,0.0,0.0,0.0,0.0,0.0,0.0,0.0,0.0,0.0,0.0,0,0.0,0.0,0.0,0.0,77.0,90.0,90.0,103.387046814,90.0816955566,89.8907089233,47.5979995728,14.802197456400002,2.9700000286000003,0,2,25,1,350,264
116,1530632166434,4079434, RC,0,39.9586186,-88.445067899,0,0.0,0.0,0.0,0.0,0.0,0.0,0.0,0.0,0.0,0.0,0.0,0.0,0.0,1500,1500,0.0,0.0,40.0483611667,-88.2327463333,0.0,0.0,0.0,0.0,0.0,0.0,0.0,0.0,0.0,0.0,0.0,0,0.0,0.0,0.0,0.0,77.0,90.0,90.0,103.387046814,90.0816955566,89.8907089233,47.5979995728,14.802197456400002,2.9700000286000003,0,2,25,1,356,267
117,1530632166484,4079484, RC,0,39.9586186,-88.445067899,0,0.0,0.0,0.0,0.0,0.0,0.0,0.0,0.0,0.0,0.0,0.0,0.0,0.0,1500,1500,0.0,0.0,40.0483611667,-88.2327463333,0.0,0.0,0.0,0.0,0.0,0.0,0.0,0.0,0.0,0.0,0.0,0,0.0,0.0,0.0,0.0,77.0,90.0,90.0,103.387046814,90.0816955566,89.8907089233,47.5979995728,14.802197456400002,2.9700000286000003,0,2,25,1,341,269
118,1530632166534,4079534, RC,0,39.9586186,-88.445067899,0,0.0,0.0,0.0,0.0,0.0,0.0,0.0,0.0,0.0,0.0,0.0,0.0,0.0,1500,1500,0.0,0.0,40.0483611667,-88.2327463333,0.0,0.0,0.0,0.0,0.0,0.0,0.0,0.0,0.0,0.0,0.0,0,0.0,0.0,0.0,0.0,77.0,90.0,90.0,103.387046814,90.0816955566,89.8907089233,47.5979995728,14.802197456400002,2.9700000286000003,0,2,25,1,350,271
119,1530632166585,4079585, RC,0,39.9586186,-88.445067899,0,0.0,0.0,0.0,0.0,0.0,0.0,0.0,0.0,0.0,0.0,0.0,0.0,0.0,1500,1500,0.0,0.0,40.0483611667,-88.2327463333,0.0,0.0,0.0,0.0,0.0,0.0,0.0,0.0,0.0,0.0,0.0,0,0.0,0.0,0.0,0.0,77.0,90.0,90.0,103.387046814,90.0816955566,89.8907089233,47.5979995728,14.802197456400002,2.9700000286000003,0,2,25,1,341,273
120,1530632166635,4079635, RC,0,39.9586186,-88.445067899,0,0.0,0.0,0.0,0.0,0.0,0.0,0.0,0.0,0.0,0.0,0.0,0.0,0.0,1500,1500,0.0,0.0,40.0483611667,-88.2327463333,0.0,0.0,0.0,0.0,0.0,0.0,0.0,0.0,0.0,0.0,0.0,0,0.0,0.0,0.0,0.0,77.0,90.0,90.0,103.387046814,90.0816955566,89.8907089233,47.5979995728,14.802197456400002,2.9700000286000003,0,2,25,1,335,275
121,1530632166685,4079685, RC,0,39.9586186,-88.445067899,0,0.0,0.0,0.0,0.0,0.0,0.0,0.0,0.0,0.0,0.0,0.0,0.0,0.0,1500,1500,0.0,0.0,40.0483611667,-88.2327463333,0.0,0.0,0.0,0.0,0.0,0.0,0.0,0.0,0.0,0.0,0.0,0,0.0,0.0,0.0,0.0,77.0,90.0,90.0,103.387046814,90.0816955566,89.8907089233,47.5979995728,14.7975130081,3.2899999619,0,2,25,1,349,277
122,1530632166736,4079736, RC,0,39.9586186,-88.445067899,0,0.0,0.0,0.0,0.0,0.0,0.0,0.0,0.0,0.0,0.0,0.0,0.0,0.0,1500,1500,0.0,0.0,40.0483611667,-88.2327463333,0.0,0.0,0.0,0.0,0.0,0.0,0.0,0.0,0.0,0.0,0.0,0,0.0,0.0,0.0,0.0,77.0,90.0,90.0,103.387046814,90.0816955566,89.8907089233,47.5979995728,14.7975130081,3.2899999619,0,2,25,1,353,279
123,1530632166786,4079786, RC,0,39.9586186,-88.445067899,0,0.0,0.0,0.0,0.0,0.0,0.0,0.0,0.0,0.0,0.0,0.0,0.0,0.0,1500,1500,0.0,0.0,40.0483611667,-88.2327463333,0.0,0.0,0.0,0.0,0.0,0.0,0.0,0.0,0.0,0.0,0.0,0,0.0,0.0,0.0,0.0,77.0,90.0,90.0,103.387046814,90.0816955566,89.8907089233,47.5979995728,14.7975130081,3.2899999619,0,2,25,1,339,281
124,1530632166836,4079836, RC,0,39.9586186,-88.445067899,0,0.0,0.0,0.0,0.0,0.0,0.0,0.0,0.0,0.0,0.0,0.0,0.0,0.0,1500,1500,0.0,0.0,40.0483623333,-88.2327451667,0.0,0.0,0.0,0.0,0.0,0.0,0.0,0.0,0.0,0.0,0.0,0,0.0,0.0,0.0,0.0,77.0,90.0,90.0,103.387046814,90.0816955566,89.8907089233,47.5979995728,14.7975130081,3.2899999619,0,2,25,1,361,283
125,1530632166887,4079887, RC,0,39.9586186,-88.445067899,0,0.0,0.0,0.0,0.0,0.0,0.0,0.0,0.0,0.0,0.0,0.0,0.0,0.0,1500,1500,0.0,0.0,40.0483623333,-88.2327451667,0.0,0.0,0.0,0.0,0.0,0.0,0.0,0.0,0.0,0.0,0.0,0,0.0,0.0,0.0,0.0,77.0,90.0,90.0,103.387046814,90.0816955566,89.8907089233,47.5979995728,14.7975130081,3.2899999619,0,2,25,1,360,285
126,1530632166937,4079937, RC,0,39.9586186,-88.445067899,0,0.0,0.0,0.0,0.0,0.0,0.0,0.0,0.0,0.0,0.0,0.0,0.0,0.0,1500,1500,0.0,0.0,40.0483623333,-88.2327451667,0.0,0.0,0.0,0.0,0.0,0.0,0.0,0.0,0.0,0.0,0.0,0,0.0,0.0,0.0,0.0,77.0,90.0,90.0,103.387046814,90.0816955566,89.8907089233,47.5979995728,14.7975130081,3.2899999619,0,2,25,1,352,287
127,1530632166988,4079988, RC,0,39.9586186,-88.445067899,0,0.0,0.0,0.0,0.0,0.0,0.0,0.0,0.0,0.0,0.0,0.0,0.0,0.0,1500,1500,0.0,0.0,40.0483623333,-88.2327451667,0.0,0.0,0.0,0.0,0.0,0.0,0.0,0.0,0.0,0.0,0.0,0,0.0,0.0,0.0,0.0,73.0,90.0,90.0,103.387046814,90.0816955566,89.8907089233,47.5979995728,14.7975130081,3.2899999619,0,2,25,1,346,289
128,1530632167038,4080038, RC,0,39.9586186,-88.445067899,0,0.0,0.0,0.0,0.0,0.0,0.0,0.0,0.0,0.0,0.0,0.0,0.0,0.0,1500,1500,0.0,0.0,40.0483623333,-88.2327451667,0.0,0.0,0.0,0.0,0.0,0.0,0.0,0.0,0.0,0.0,0.0,0,0.0,0.0,0.0,0.0,73.0,90.0,90.0,103.387046814,90.0816955566,89.8907089233,47.5979995728,14.7975130081,3.2899999619,0,2,25,1,351,292
129,1530632167088,4080088, RC,0,39.9586186,-88.445067899,0,0.0,0.0,0.0,0.0,0.0,0.0,0.0,0.0,0.0,0.0,0.0,0.0,0.0,1500,1500,0.0,0.0,40.0483623333,-88.2327451667,0.0,0.0,0.0,0.0,0.0,0.0,0.0,0.0,0.0,0.0,0.0,0,0.0,0.0,0.0,0.0,73.0,90.0,90.0,104.5966262817,90.0816955566,89.8907089233,47.5979995728,14.7975130081,3.2899999619,0,2,25,1,346,294
130,1530632167139,4080139, RC,0,39.9586186,-88.445067899,0,0.0,0.0,0.0,0.0,0.0,0.0,0.0,0.0,0.0,0.0,0.0,0.0,0.0,1500,1500,0.0,0.0,40.0483623333,-88.2327451667,0.0,0.0,0.0,0.0,0.0,0.0,0.0,0.0,0.0,0.0,0.0,0,0.0,0.0,0.0,0.0,73.0,90.0,90.0,105.80620574950001,90.0816955566,89.8907089233,47.5979995728,14.7975130081,3.2899999619,0,2,25,1,343,296
131,1530632167189,4080189, RC,0,39.9586186,-88.445067899,0,0.0,0.0,0.0,0.0,0.0,0.0,0.0,0.0,0.0,0.0,0.0,0.0,0.0,1500,1500,0.0,0.0,40.0483623333,-88.2327451667,0.0,0.0,0.0,0.0,0.0,0.0,0.0,0.0,0.0,0.0,0.0,0,0.0,0.0,0.0,0.0,79.0,90.0,90.0,107.0794448853,90.0816955566,89.8907089233,47.5979995728,14.7975130081,3.2899999619,0,2,25,1,356,298
132,1530632167240,4080240, RC,0,39.9586186,-88.445067899,0,0.0,0.0,0.0,0.0,0.0,0.0,0.0,0.0,0.0,0.0,0.0,0.0,0.0,1500,1500,0.0,0.0,40.0483623333,-88.2327451667,0.0,0.0,0.0,0.0,0.0,0.0,0.0,0.0,0.0,0.0,0.0,0,0.0,0.0,0.0,0.0,79.0,90.0,90.0,106.888458252,90.0816955566,89.8907089233,47.5979995728,14.7975130081,3.2899999619,0,2,25,1,353,300
133,1530632167290,4080290, RC,0,39.9586186,-88.445067899,0,0.0,0.0,0.0,0.0,0.0,0.0,0.0,0.0,0.0,0.0,0.0,0.0,0.0,1500,1500,0.0,0.0,40.0483623333,-88.2327451667,0.0,0.0,0.0,0.0,0.0,0.0,0.0,0.0,0.0,0.0,0.0,0,0.0,0.0,0.0,0.0,81.0,90.0,90.0,103.5780334473,90.0816955566,89.8907089233,47.5979995728,14.7975130081,3.2899999619,0,2,25,1,332,302
134,1530632167340,4080340, RC,0,39.9586186,-88.445067899,0,0.0,0.0,0.0,0.0,0.0,0.0,0.0,0.0,0.0,0.0,0.0,0.0,0.0,1500,1500,0.0,0.0,40.0483623333,-88.2327451667,0.0,0.0,0.0,0.0,0.0,0.0,0.0,0.0,0.0,0.0,0.0,0,0.0,0.0,0.0,0.0,81.0,90.0,90.0,100.6495819092,90.0816955566,89.8907089233,47.5979995728,14.7975130081,3.2899999619,0,2,25,1,334,304
135,1530632167391,4080391, RC,0,39.9586186,-88.445067899,0,0.0,0.0,0.0,0.0,0.0,0.0,0.0,0.0,0.0,0.0,0.0,0.0,0.0,1500,1500,0.0,0.0,40.0483623333,-88.2327451667,0.0,0.0,0.0,0.0,0.0,0.0,0.0,0.0,0.0,0.0,0.0,0,0.0,0.0,0.0,0.0,82.0,90.0,90.0,100.1402893066,90.0816955566,89.8907089233,47.5979995728,14.7975130081,3.2899999619,0,2,25,1,339,306
136,1530632167441,4080441, RC,0,39.9586186,-88.445067899,0,0.0,0.0,0.0,0.0,0.0,0.0,0.0,0.0,0.0,0.0,0.0,0.0,0.0,1500,1500,0.0,0.0,40.0483623333,-88.2327451667,0.0,0.0,0.0,0.0,0.0,0.0,0.0,0.0,0.0,0.0,0.0,0,0.0,0.0,0.0,0.0,82.0,90.0,90.0,98.739730835,90.0816955566,89.8907089233,47.5979995728,14.7975130081,3.2899999619,0,2,25,1,346,308
137,1530632167492,4080492, RC,0,39.9586186,-88.445067899,0,0.0,0.0,0.0,0.0,0.0,0.0,0.0,0.0,0.0,0.0,0.0,0.0,0.0,1500,1500,0.0,0.0,40.0483623333,-88.2327451667,0.0,0.0,0.0,0.0,0.0,0.0,0.0,0.0,0.0,0.0,0.0,0,0.0,0.0,0.0,0.0,82.0,90.0,90.0,97.72113800049999,90.0816955566,89.8907089233,47.5979995728,14.7975130081,3.2899999619,0,2,25,1,349,310
138,1530632167542,4080542, RC,0,39.9586186,-88.445067899,0,0.0,0.0,0.0,0.0,0.0,0.0,0.0,0.0,0.0,0.0,0.0,0.0,0.0,1500,1500,0.0,0.0,40.0483623333,-88.2327451667,0.0,0.0,0.0,0.0,0.0,0.0,0.0,0.0,0.0,0.0,0.0,0,0.0,0.0,0.0,0.0,82.0,90.0,90.0,97.65747070309999,90.0816955566,89.8907089233,47.5979995728,14.7975130081,3.2899999619,0,2,25,1,352,312
139,1530632167592,4080592, RC,0,39.9586186,-88.445067899,0,0.0,0.0,0.0,0.0,0.0,0.0,0.0,0.0,0.0,0.0,0.0,0.0,0.0,1500,1500,0.0,0.0,40.0483623333,-88.2327451667,0.0,0.0,0.0,0.0,0.0,0.0,0.0,0.0,0.0,0.0,0.0,0,0.0,0.0,0.0,0.0,82.0,90.0,90.0,97.65747070309999,90.0816955566,89.8907089233,47.5979995728,14.7975130081,3.2899999619,0,2,25,1,346,314
140,1530632167643,4080643, RC,0,39.9586186,-88.445067899,0,0.0,0.0,0.0,0.0,0.0,0.0,0.0,0.0,0.0,0.0,0.0,0.0,0.0,1500,1500,0.0,0.0,40.0483623333,-88.2327451667,0.0,0.0,0.0,0.0,0.0,0.0,0.0,0.0,0.0,0.0,0.0,0,0.0,0.0,0.0,0.0,82.0,90.0,90.0,97.65747070309999,90.0816955566,89.8907089233,47.5979995728,14.7978153229,3.2300000191000002,0,2,25,1,339,316
141,1530632167693,4080693, RC,0,39.9586186,-88.445067899,0,0.0,0.0,0.0,0.0,0.0,0.0,0.0,0.0,0.0,0.0,0.0,0.0,0.0,1500,1500,0.0,0.0,40.0483623333,-88.2327451667,0.0,0.0,0.0,0.0,0.0,0.0,0.0,0.0,0.0,0.0,0.0,0,0.0,0.0,0.0,0.0,82.0,90.0,90.0,97.65747070309999,90.0816955566,89.8907089233,47.5979995728,14.7978153229,3.2300000191000002,0,2,25,1,360,318
142,1530632167743,4080743, RC,0,39.9586186,-88.445067899,0,0.0,0.0,0.0,0.0,0.0,0.0,0.0,0.0,0.0,0.0,0.0,0.0,0.0,1500,1500,0.0,0.0,40.0483623333,-88.2327451667,0.0,0.0,0.0,0.0,0.0,0.0,0.0,0.0,0.0,0.0,0.0,0,0.0,0.0,0.0,0.0,82.0,90.0,90.0,97.65747070309999,90.0816955566,89.8907089233,47.5979995728,14.7978153229,3.2300000191000002,0,2,25,1,357,321
143,1530632167794,4080794, RC,0,39.9586186,-88.445067899,0,0.0,0.0,0.0,0.0,0.0,0.0,0.0,0.0,0.0,0.0,0.0,0.0,0.0,1500,1500,0.0,0.0,40.0483623333,-88.2327451667,0.0,0.0,0.0,0.0,0.0,0.0,0.0,0.0,0.0,0.0,0.0,0,0.0,0.0,0.0,0.0,82.0,90.0,90.0,97.65747070309999,90.0816955566,89.8907089233,47.5979995728,14.7978153229,3.2300000191000002,0,2,25,1,351,323
144,1530632167844,4080844, RC,0,39.9586186,-88.445067899,0,0.0,0.0,0.0,0.0,0.0,0.0,0.0,0.0,0.0,0.0,0.0,0.0,0.0,1500,1500,0.0,0.0,40.0483628333,-88.232744,0.0,0.0,0.0,0.0,0.0,0.0,0.0,0.0,0.0,0.0,0.0,0,0.0,0.0,0.0,0.0,82.0,90.0,90.0,97.65747070309999,90.0816955566,89.8907089233,47.5979995728,14.7978153229,3.2300000191000002,0,2,25,1,347,325
145,1530632167895,4080895, RC,0,39.9586186,-88.445067899,0,0.0,0.0,0.0,0.0,0.0,0.0,0.0,0.0,0.0,0.0,0.0,0.0,0.0,1500,1500,0.0,0.0,40.0483628333,-88.232744,0.0,0.0,0.0,0.0,0.0,0.0,0.0,0.0,0.0,0.0,0.0,0,0.0,0.0,0.0,0.0,82.0,90.0,90.0,97.65747070309999,90.0816955566,89.8907089233,47.5979995728,14.7978153229,3.2300000191000002,0,2,25,1,351,327
146,1530632167945,4080945, RC,0,39.9586186,-88.445067899,0,0.0,0.0,0.0,0.0,0.0,0.0,0.0,0.0,0.0,0.0,0.0,0.0,0.0,1500,1500,0.0,0.0,40.0483628333,-88.232744,0.0,0.0,0.0,0.0,0.0,0.0,0.0,0.0,0.0,0.0,0.0,0,0.0,0.0,0.0,0.0,82.0,90.0,90.0,97.65747070309999,90.0816955566,89.8907089233,47.5979995728,14.7978153229,3.2300000191000002,0,2,25,1,328,329
147,1530632167995,4080995, RC,0,39.9586186,-88.445067899,0,0.0,0.0,0.0,0.0,0.0,0.0,0.0,0.0,0.0,0.0,0.0,0.0,0.0,1500,1500,0.0,0.0,40.0483628333,-88.232744,0.0,0.0,0.0,0.0,0.0,0.0,0.0,0.0,0.0,0.0,0.0,0,0.0,0.0,0.0,0.0,82.0,90.0,90.0,97.65747070309999,90.0816955566,89.8907089233,47.5979995728,14.7978153229,3.2300000191000002,0,2,25,1,343,331
148,1530632168046,4081046, RC,0,39.9586186,-88.445067899,0,0.0,0.0,0.0,0.0,0.0,0.0,0.0,0.0,0.0,0.0,0.0,0.0,0.0,1500,1500,0.0,0.0,40.0483628333,-88.232744,0.0,0.0,0.0,0.0,0.0,0.0,0.0,0.0,0.0,0.0,0.0,0,0.0,0.0,0.0,0.0,82.0,90.0,90.0,97.65747070309999,90.0816955566,89.8907089233,47.5979995728,14.7978153229,3.2300000191000002,0,2,25,1,349,333
149,1530632168096,4081096, RC,0,39.9586186,-88.445067899,0,0.0,0.0,0.0,0.0,0.0,0.0,0.0,0.0,0.0,0.0,0.0,0.0,0.0,1500,1500,0.0,0.0,40.0483628333,-88.232744,0.0,0.0,0.0,0.0,0.0,0.0,0.0,0.0,0.0,0.0,0.0,0,0.0,0.0,0.0,0.0,75.0,90.0,90.0,97.65747070309999,90.0816955566,89.8907089233,47.5979995728,14.7978153229,3.2300000191000002,0,2,25,1,347,335
150,1530632168147,4081147, RC,0,39.9586186,-88.445067899,0,0.0,0.0,0.0,0.0,0.0,0.0,0.0,0.0,0.0,0.0,0.0,0.0,0.0,1500,1500,0.0,0.0,40.0483628333,-88.232744,0.0,0.0,0.0,0.0,0.0,0.0,0.0,0.0,0.0,0.0,0.0,0,0.0,0.0,0.0,0.0,75.0,90.0,90.0,97.65747070309999,90.0816955566,89.8907089233,47.5979995728,14.7978153229,3.2300000191000002,0,2,25,1,346,337
151,1530632168197,4081197, RC,0,39.9586186,-88.445067899,0,0.0,0.0,0.0,0.0,0.0,0.0,0.0,0.0,0.0,0.0,0.0,0.0,0.0,1500,1500,0.0,0.0,40.0483628333,-88.232744,0.0,0.0,0.0,0.0,0.0,0.0,0.0,0.0,0.0,0.0,0.0,0,0.0,0.0,0.0,0.0,76.0,90.0,90.0,102.7504272461,90.0816955566,89.8907089233,47.5979995728,14.7978153229,3.2300000191000002,0,2,25,1,362,339
152,1530632168247,4081247, RC,0,39.9586186,-88.445067899,0,0.0,0.0,0.0,0.0,0.0,0.0,0.0,0.0,0.0,0.0,0.0,0.0,0.0,1500,1500,0.0,0.0,40.0483628333,-88.232744,0.0,0.0,0.0,0.0,0.0,0.0,0.0,0.0,0.0,0.0,0.0,0,0.0,0.0,0.0,0.0,76.0,90.0,90.0,105.10591888430001,90.0816955566,89.8907089233,47.5979995728,14.7978153229,3.2300000191000002,0,2,25,1,354,341
153,1530632168298,4081298, RC,0,39.9586186,-88.445067899,0,0.0,0.0,0.0,0.0,0.0,0.0,0.0,0.0,0.0,0.0,0.0,0.0,0.0,1500,1500,0.0,0.0,40.0483628333,-88.232744,0.0,0.0,0.0,0.0,0.0,0.0,0.0,0.0,0.0,0.0,0.0,0,0.0,0.0,0.0,0.0,76.0,90.0,90.0,104.91493988040001,90.0816955566,89.8907089233,47.5979995728,14.7978153229,3.2300000191000002,0,2,25,1,342,343
154,1530632168348,4081348, RC,0,39.9586186,-88.445067899,0,0.0,0.0,0.0,0.0,0.0,0.0,0.0,0.0,0.0,0.0,0.0,0.0,0.0,1500,1500,0.0,0.0,40.0483628333,-88.232744,0.0,0.0,0.0,0.0,0.0,0.0,0.0,0.0,0.0,0.0,0.0,0,0.0,0.0,0.0,0.0,76.0,90.0,90.0,104.91493988040001,90.0816955566,89.8907089233,47.5979995728,14.7978153229,3.2300000191000002,0,2,25,1,336,345
155,1530632168398,4081398, RC,0,39.9586186,-88.445067899,0,0.0,0.0,0.0,0.0,0.0,0.0,0.0,0.0,0.0,0.0,0.0,0.0,0.0,1500,1500,0.0,0.0,40.0483628333,-88.232744,0.0,0.0,0.0,0.0,0.0,0.0,0.0,0.0,0.0,0.0,0.0,0,0.0,0.0,0.0,0.0,77.0,90.0,90.0,104.787612915,90.0816955566,89.8907089233,47.5979995728,14.7978153229,3.2300000191000002,0,2,25,1,348,348
156,1530632168449,4081449, RC,0,39.9586186,-88.445067899,0,0.0,0.0,0.0,0.0,0.0,0.0,0.0,0.0,0.0,0.0,0.0,0.0,0.0,1500,1500,0.0,0.0,40.0483628333,-88.232744,0.0,0.0,0.0,0.0,0.0,0.0,0.0,0.0,0.0,0.0,0.0,0,0.0,0.0,0.0,0.0,77.0,90.0,90.0,104.6602935791,90.0816955566,89.8907089233,47.5979995728,14.7978153229,3.2300000191000002,0,2,25,1,359,351
157,1530632168499,4081499, RC,0,39.9586186,-88.445067899,0,0.0,0.0,0.0,0.0,0.0,0.0,0.0,0.0,0.0,0.0,0.0,0.0,0.0,1500,1500,0.0,0.0,40.0483628333,-88.232744,0.0,0.0,0.0,0.0,0.0,0.0,0.0,0.0,0.0,0.0,0.0,0,0.0,0.0,0.0,0.0,79.0,90.0,90.0,103.8963470459,90.0816955566,89.8907089233,47.5979995728,14.7978153229,3.2300000191000002,0,2,25,1,346,354
158,1530632168549,4081549, RC,0,39.9586186,-88.445067899,0,0.0,0.0,0.0,0.0,0.0,0.0,0.0,0.0,0.0,0.0,0.0,0.0,0.0,1500,1500,0.0,0.0,40.0483628333,-88.232744,0.0,0.0,0.0,0.0,0.0,0.0,0.0,0.0,0.0,0.0,0.0,0,0.0,0.0,0.0,0.0,79.0,90.0,90.0,103.25972747799999,90.0816955566,89.8907089233,47.5979995728,14.7978153229,3.2300000191000002,0,2,25,1,339,357
159,1530632168600,4081600, RC,0,39.9586186,-88.445067899,0,0.0,0.0,0.0,0.0,0.0,0.0,0.0,0.0,0.0,0.0,0.0,0.0,0.0,1500,1500,0.0,0.0,40.0483628333,-88.232744,0.0,0.0,0.0,0.0,0.0,0.0,0.0,0.0,0.0,0.0,0.0,0,0.0,0.0,0.0,0.0,81.0,90.0,90.0,101.2225418091,90.0816955566,89.8907089233,47.5979995728,14.7978153229,3.2300000191000002,0,2,25,1,355,360
160,1530632168650,4081650, RC,0,39.9586186,-88.445067899,0,0.0,0.0,0.0,0.0,0.0,0.0,0.0,0.0,0.0,0.0,0.0,0.0,0.0,1500,1500,0.0,0.0,40.0483628333,-88.232744,0.0,0.0,0.0,0.0,0.0,0.0,0.0,0.0,0.0,0.0,0.0,0,0.0,0.0,0.0,0.0,81.0,90.0,90.0,100.77690887450001,90.0816955566,89.8907089233,47.5979995728,14.7980222702,3.4600000381,0,2,25,1,345,362
161,1530632168700,4081700, RC,0,39.9586186,-88.445067899,0,0.0,0.0,0.0,0.0,0.0,0.0,0.0,0.0,0.0,0.0,0.0,0.0,0.0,1500,1500,0.0,0.0,40.0483628333,-88.232744,0.0,0.0,0.0,0.0,0.0,0.0,0.0,0.0,0.0,0.0,0.0,0,0.0,0.0,0.0,0.0,81.0,90.0,90.0,99.0580368042,90.0816955566,89.8907089233,47.5979995728,14.7980222702,3.4600000381,0,2,25,1,342,364
162,1530632168751,4081751, RC,0,39.9586186,-88.445067899,0,0.0,0.0,0.0,0.0,0.0,0.0,0.0,0.0,0.0,0.0,0.0,0.0,0.0,1500,1500,0.0,0.0,40.0483628333,-88.232744,0.0,0.0,0.0,0.0,0.0,0.0,0.0,0.0,0.0,0.0,0.0,0,0.0,0.0,0.0,0.0,81.0,90.0,90.0,98.294090271,90.0816955566,89.8907089233,47.5979995728,14.7980222702,3.4600000381,0,2,25,1,353,367
163,1530632168801,4081801, RC,0,39.9586186,-88.445067899,0,0.0,0.0,0.0,0.0,0.0,0.0,0.0,0.0,0.0,0.0,0.0,0.0,0.0,1500,1500,0.0,0.0,40.0483628333,-88.232744,0.0,0.0,0.0,0.0,0.0,0.0,0.0,0.0,0.0,0.0,0.0,0,0.0,0.0,0.0,0.0,81.0,90.0,90.0,98.6123962402,90.0816955566,89.8907089233,47.5979995728,14.7980222702,3.4600000381,0,2,25,1,360,370
164,1530632168851,4081851, RC,0,39.9586186,-88.445067899,0,0.0,0.0,0.0,0.0,0.0,0.0,0.0,0.0,0.0,0.0,0.0,0.0,0.0,1500,1500,0.0,0.0,40.0483631667,-88.2327436667,0.0,0.0,0.0,0.0,0.0,0.0,0.0,0.0,0.0,0.0,0.0,0,0.0,0.0,0.0,0.0,81.0,90.0,90.0,98.6123962402,90.0816955566,89.8907089233,47.5979995728,14.7980222702,3.4600000381,0,2,25,1,361,372
165,1530632168902,4081902, RC,0,39.9586186,-88.445067899,0,0.0,0.0,0.0,0.0,0.0,0.0,0.0,0.0,0.0,0.0,0.0,0.0,0.0,1500,1500,0.0,0.0,40.0483631667,-88.2327436667,0.0,0.0,0.0,0.0,0.0,0.0,0.0,0.0,0.0,0.0,0.0,0,0.0,0.0,0.0,0.0,81.0,90.0,90.0,98.6123962402,90.0816955566,89.8907089233,47.5979995728,14.7980222702,3.4600000381,0,2,25,1,339,375
166,1530632168952,4081952, RC,0,39.9586186,-88.445067899,0,0.0,0.0,0.0,0.0,0.0,0.0,0.0,0.0,0.0,0.0,0.0,0.0,0.0,1500,1500,0.0,0.0,40.0483631667,-88.2327436667,0.0,0.0,0.0,0.0,0.0,0.0,0.0,0.0,0.0,0.0,0.0,0,0.0,0.0,0.0,0.0,81.0,90.0,90.0,98.6123962402,90.0816955566,89.8907089233,47.5979995728,14.7980222702,3.4600000381,0,2,25,1,346,377
167,1530632169002,4082002, RC,0,39.9586186,-88.445067899,0,0.0,0.0,0.0,0.0,0.0,0.0,0.0,0.0,0.0,0.0,0.0,0.0,0.0,1500,1500,0.0,0.0,40.0483631667,-88.2327436667,0.0,0.0,0.0,0.0,0.0,0.0,0.0,0.0,0.0,0.0,0.0,0,0.0,0.0,0.0,0.0,81.0,90.0,90.0,98.6123962402,90.0816955566,89.8907089233,47.5979995728,14.7980222702,3.4600000381,0,2,25,1,348,380
168,1530632169053,4082053, RC,0,39.9586186,-88.445067899,0,0.0,0.0,0.0,0.0,0.0,0.0,0.0,0.0,0.0,0.0,0.0,0.0,0.0,1500,1500,0.0,0.0,40.0483631667,-88.2327436667,0.0,0.0,0.0,0.0,0.0,0.0,0.0,0.0,0.0,0.0,0.0,0,0.0,0.0,0.0,0.0,81.0,90.0,90.0,98.6123962402,90.0816955566,89.8907089233,47.5979995728,14.7980222702,3.4600000381,0,2,25,1,341,382
169,1530632169103,4082103, RC,0,39.9586186,-88.445067899,0,0.0,0.0,0.0,0.0,0.0,0.0,0.0,0.0,0.0,0.0,0.0,0.0,0.0,1500,1500,0.0,0.0,40.0483631667,-88.2327436667,0.0,0.0,0.0,0.0,0.0,0.0,0.0,0.0,0.0,0.0,0.0,0,0.0,0.0,0.0,0.0,81.0,90.0,90.0,98.6123962402,90.0816955566,89.8907089233,47.5979995728,14.7980222702,3.4600000381,0,2,25,1,346,385
170,1530632169154,4082154, RC,0,39.9586186,-88.445067899,0,0.0,0.0,0.0,0.0,0.0,0.0,0.0,0.0,0.0,0.0,0.0,0.0,0.0,1500,1500,0.0,0.0,40.0483631667,-88.2327436667,0.0,0.0,0.0,0.0,0.0,0.0,0.0,0.0,0.0,0.0,0.0,0,0.0,0.0,0.0,0.0,81.0,90.0,90.0,98.6123962402,90.0816955566,89.8907089233,47.5979995728,14.7980222702,3.4600000381,0,2,25,1,351,387
