,(0)linux time (ms),    (1)uptime  (ms),      (2)drive mode,(3)mpc step counter,(4)mpc origin latitude  (deg),(5)mpc origin longitude  (deg),(6)closest trajectory point index to robot,(7)mpc error x (W;E)  (m),(8)mpc error y (W;E)  (m),(9)abs mpc error (m),(10)input [x] for mhe (m),(11)input [y] for mhe (m),(12)input [speed] for mhe (m/s),(13)input [vyaw] for mhe (rad/s),(14)mhe output x  (m),(15)mhe output y  (m),(16)mhe output speed  (m/s),(17)mhe output yaw  (rad),(18)mpc reference heading (rad),(19)mpc turn rate command (rad/s),(20)turn rate command as PWM,(21)throttle command as PWM,(22)primary gps latitude (deg),(23)primary gps longitude (deg),(24)secondary gps latitude  (deg),(25)secondary gps longitude (deg),(26)accelerometer x (m/s^2),(27)accelerometer y (m/s^2),(28)accelerometer z (m/s^2),(29)gyro yaw rate (rad/s),(30)gyro pitch rate   (rad/s),(31)gyro roll rate (rad/s),      (32)yaw (rad),  (33)pitch   (rad),     (34)roll (rad),(35)sonar1 measurement (m),(36)ultrasonic sensor measurement (m),(37)primary gps time (s),(38)normalized turn rate command,(39)normalized throttle command,(40)speed calculation from encoder left (m/s),(41)speed calculation from encoder right (m/s),(42)front gimbal target angle (degrees from straight down),(43)left gimbal target angle  (degrees from straight down),(44)right gimbal target angle  (degrees from straight down),(45)front gimbal measured angle  (degrees from straight down),(46)left gimbal measured angle    (degrees from straight down),(47)right gimbal measured angle  (degrees from straight down),(48)internal temperature (C),(49)battery voltage (V),(50)primary gps type,(51)secondary gps type,    (52)MPC R value, (53)MPC Q[0] value,Unnamed: 54,weed_num,start
0,1530629897498,1810498, RC,0,39.9586186,-88.445067899,0,0.0,0.0,0.0,0.0,0.0,0.0,0.0,0.0,0.0,0.0,0.0,0.0,0.0,1500,1500,0.0,0.0,40.0483036667,-88.2331628333,0.0,0.0,0.0,0.0,0.0,0.0,0.0,0.0,0.0,0.0,0.0,0,0.0,0.0,0.0,0.0,90.0,90.0,90.0,89.7633895874,88.9994430542,89.5087432861,36.2999992371,15.229415893599999,1.9200000763,0,2,25,1,326,11
1,1530629897549,1810549, RC,0,39.9586186,-88.445067899,0,0.0,0.0,0.0,0.0,0.0,0.0,0.0,0.0,0.0,0.0,0.0,0.0,0.0,1500,1500,0.0,0.0,40.0483036667,-88.2331628333,0.0,0.0,0.0,0.0,0.0,0.0,0.0,0.0,0.0,0.0,0.0,0,0.0,0.0,0.0,0.0,90.0,90.0,90.0,89.6997299194,88.93578338620001,89.5087432861,36.2999992371,15.229415893599999,1.9200000763,0,2,25,1,339,13
2,1530629897599,1810599, RC,0,39.9586186,-88.445067899,0,0.0,0.0,0.0,0.0,0.0,0.0,0.0,0.0,0.0,0.0,0.0,0.0,0.0,1500,1500,0.0,0.0,40.0483036667,-88.2331628333,0.0,0.0,0.0,0.0,0.0,0.0,0.0,0.0,0.0,0.0,0.0,0,0.0,0.0,0.0,0.0,90.0,90.0,90.0,89.6997299194,88.93578338620001,89.5087432861,36.2999992371,15.229415893599999,1.9200000763,0,2,25,1,325,15
3,1530629897649,1810649, RC,0,39.9586186,-88.445067899,0,0.0,0.0,0.0,0.0,0.0,0.0,0.0,0.0,0.0,0.0,0.0,0.0,0.0,1500,1500,0.0,0.0,40.0483036667,-88.2331628333,0.0,0.0,0.0,0.0,0.0,0.0,0.0,0.0,0.0,0.0,0.0,0,0.0,0.0,0.0,0.0,90.0,90.0,90.0,89.6997299194,88.93578338620001,89.5087432861,36.2999992371,15.229415893599999,1.9200000763,0,2,25,1,328,18
4,1530629897700,1810700, RC,0,39.9586186,-88.445067899,0,0.0,0.0,0.0,0.0,0.0,0.0,0.0,0.0,0.0,0.0,0.0,0.0,0.0,1500,1500,0.0,0.0,40.0483036667,-88.2331628333,0.0,0.0,0.0,0.0,0.0,0.0,0.0,0.0,0.0,0.0,0.0,0,0.0,0.0,0.0,0.0,90.0,90.0,90.0,89.6997299194,88.8721160889,89.5087432861,36.2999992371,15.229415893599999,1.9200000763,0,2,25,1,327,20
5,1530629897750,1810750, RC,0,39.9586186,-88.445067899,0,0.0,0.0,0.0,0.0,0.0,0.0,0.0,0.0,0.0,0.0,0.0,0.0,0.0,1500,1500,0.0,0.0,40.0483036667,-88.2331628333,0.0,0.0,0.0,0.0,0.0,0.0,0.0,0.0,0.0,0.0,0.0,0,0.0,0.0,0.0,0.0,90.0,90.0,90.0,89.6997299194,88.8721160889,89.5087432861,36.2999992371,15.229415893599999,1.9200000763,0,2,25,1,348,22
6,1530629897800,1810800, RC,0,39.9586186,-88.445067899,0,0.0,0.0,0.0,0.0,0.0,0.0,0.0,0.0,0.0,0.0,0.0,0.0,0.0,1500,1500,0.0,0.0,40.0483036667,-88.2331628333,0.0,0.0,0.0,0.0,0.0,0.0,0.0,0.0,0.0,0.0,0.0,0,0.0,0.0,0.0,0.0,90.0,90.0,90.0,89.6997299194,88.8084564209,89.5087432861,36.2999992371,15.229415893599999,1.9200000763,0,2,25,1,321,25
7,1530629897851,1810851, RC,0,39.9586186,-88.445067899,0,0.0,0.0,0.0,0.0,0.0,0.0,0.0,0.0,0.0,0.0,0.0,0.0,0.0,1500,1500,0.0,0.0,40.0483036667,-88.2331628333,0.0,0.0,0.0,0.0,0.0,0.0,0.0,0.0,0.0,0.0,0.0,0,0.0,0.0,0.0,0.0,90.0,90.0,90.0,89.63606262209998,88.8084564209,89.5087432861,36.2999992371,15.229415893599999,1.9200000763,0,2,25,1,292,27
8,1530629897901,1810901, RC,0,39.9586186,-88.445067899,0,0.0,0.0,0.0,0.0,0.0,0.0,0.0,0.0,0.0,0.0,0.0,0.0,0.0,1500,1500,0.0,0.0,40.0483036667,-88.2331628333,0.0,0.0,0.0,0.0,0.0,0.0,0.0,0.0,0.0,0.0,0.0,0,0.0,0.0,0.0,0.0,90.0,90.0,90.0,89.63606262209998,88.8084564209,89.5087432861,36.2999992371,15.2297458649,3.3999998569,0,2,25,1,316,29
9,1530629897951,1810951, RC,0,39.9586186,-88.445067899,0,0.0,0.0,0.0,0.0,0.0,0.0,0.0,0.0,0.0,0.0,0.0,0.0,0.0,1500,1500,0.0,0.0,40.0483036667,-88.2331628333,0.0,0.0,0.0,0.0,0.0,0.0,0.0,0.0,0.0,0.0,0.0,0,0.0,0.0,0.0,0.0,90.0,90.0,90.0,89.63606262209998,88.8084564209,89.5087432861,36.2999992371,15.2297458649,3.3999998569,0,2,25,1,299,31
10,1530629898002,1811002, RC,0,39.9586186,-88.445067899,0,0.0,0.0,0.0,0.0,0.0,0.0,0.0,0.0,0.0,0.0,0.0,0.0,0.0,1500,1500,0.0,0.0,40.0483033333,-88.2331626667,0.0,0.0,0.0,0.0,0.0,0.0,0.0,0.0,0.0,0.0,0.0,0,0.0,0.0,0.0,0.0,90.0,90.0,90.0,89.63606262209998,88.74479675290002,89.5087432861,36.2999992371,15.2297458649,3.3999998569,0,2,25,1,303,34
11,1530629898052,1811052, RC,0,39.9586186,-88.445067899,0,0.0,0.0,0.0,0.0,0.0,0.0,0.0,0.0,0.0,0.0,0.0,0.0,0.0,1500,1500,0.0,0.0,40.0483033333,-88.2331626667,0.0,0.0,0.0,0.0,0.0,0.0,0.0,0.0,0.0,0.0,0.0,0,0.0,0.0,0.0,0.0,90.0,90.0,90.0,89.63606262209998,88.74479675290002,89.5087432861,36.2999992371,15.2297458649,3.3999998569,0,2,25,1,307,36
12,1530629898102,1811102, RC,0,39.9586186,-88.445067899,0,0.0,0.0,0.0,0.0,0.0,0.0,0.0,0.0,0.0,0.0,0.0,0.0,0.0,1500,1500,0.0,0.0,40.0483033333,-88.2331626667,0.0,0.0,0.0,0.0,0.0,0.0,0.0,0.0,0.0,0.0,0.0,0,0.0,0.0,0.0,0.0,90.0,90.0,90.0,89.63606262209998,88.681137085,89.5087432861,36.2999992371,15.2297458649,3.3999998569,0,2,25,1,283,38
13,1530629898153,1811153, RC,0,39.9586186,-88.445067899,0,0.0,0.0,0.0,0.0,0.0,0.0,0.0,0.0,0.0,0.0,0.0,0.0,0.0,1500,1500,0.0,0.0,40.0483033333,-88.2331626667,0.0,0.0,0.0,0.0,0.0,0.0,0.0,0.0,0.0,0.0,0.0,0,0.0,0.0,0.0,0.0,90.0,90.0,90.0,89.63606262209998,88.681137085,89.5087432861,36.2999992371,15.2297458649,3.3999998569,0,2,25,1,296,41
14,1530629898203,1811203, RC,0,39.9586186,-88.445067899,0,0.0,0.0,0.0,0.0,0.0,0.0,0.0,0.0,0.0,0.0,0.0,0.0,0.0,1500,1500,0.0,0.0,40.0483033333,-88.2331626667,0.0,0.0,0.0,0.0,0.0,0.0,0.0,0.0,0.0,0.0,0.0,0,0.0,0.0,0.0,0.0,90.0,90.0,90.0,89.63606262209998,88.681137085,89.5087432861,36.2999992371,15.2297458649,3.3999998569,0,2,25,1,299,43
15,1530629898253,1811253, RC,0,39.9586186,-88.445067899,0,0.0,0.0,0.0,0.0,0.0,0.0,0.0,0.0,0.0,0.0,0.0,0.0,0.0,1500,1500,0.0,0.0,40.0483033333,-88.2331626667,0.0,0.0,0.0,0.0,0.0,0.0,0.0,0.0,0.0,0.0,0.0,0,0.0,0.0,0.0,0.0,90.0,90.0,90.0,89.63606262209998,88.681137085,89.5087432861,36.2999992371,15.2297458649,3.3999998569,0,2,25,1,297,45
16,1530629898304,1811304, RC,0,39.9586186,-88.445067899,0,0.0,0.0,0.0,0.0,0.0,0.0,0.0,0.0,0.0,0.0,0.0,0.0,0.0,1500,1500,0.0,0.0,40.0483033333,-88.2331626667,0.0,0.0,0.0,0.0,0.0,0.0,0.0,0.0,0.0,0.0,0.0,0,0.0,0.0,0.0,0.0,90.0,90.0,90.0,89.63606262209998,88.6174697876,89.5087432861,36.2999992371,15.2297458649,3.3999998569,0,2,25,1,310,48
17,1530629898354,1811354, RC,0,39.9586186,-88.445067899,0,0.0,0.0,0.0,0.0,0.0,0.0,0.0,0.0,0.0,0.0,0.0,0.0,0.0,1500,1500,0.0,0.0,40.0483033333,-88.2331626667,0.0,0.0,0.0,0.0,0.0,0.0,0.0,0.0,0.0,0.0,0.0,0,0.0,0.0,0.0,0.0,90.0,90.0,90.0,89.63606262209998,88.6174697876,89.5087432861,36.2999992371,15.2297458649,3.3999998569,0,2,25,1,311,50
18,1530629898405,1811405, RC,0,39.9586186,-88.445067899,0,0.0,0.0,0.0,0.0,0.0,0.0,0.0,0.0,0.0,0.0,0.0,0.0,0.0,1500,1500,0.0,0.0,40.0483033333,-88.2331626667,0.0,0.0,0.0,0.0,0.0,0.0,0.0,0.0,0.0,0.0,0.0,0,0.0,0.0,0.0,0.0,90.0,90.0,90.0,89.63606262209998,88.6174697876,89.5087432861,36.2999992371,15.2297458649,3.3999998569,0,2,25,1,299,53
19,1530629898455,1811455, RC,0,39.9586186,-88.445067899,0,0.0,0.0,0.0,0.0,0.0,0.0,0.0,0.0,0.0,0.0,0.0,0.0,0.0,1500,1500,0.0,0.0,40.0483033333,-88.2331626667,0.0,0.0,0.0,0.0,0.0,0.0,0.0,0.0,0.0,0.0,0.0,0,0.0,0.0,0.0,0.0,90.0,90.0,90.0,89.5724029541,88.6174697876,89.44507598879999,36.2999992371,15.2297458649,3.3999998569,0,2,25,1,303,55
20,1530629898505,1811505, RC,0,39.9586186,-88.445067899,0,0.0,0.0,0.0,0.0,0.0,0.0,0.0,0.0,0.0,0.0,0.0,0.0,0.0,1500,1500,0.0,0.0,40.0483033333,-88.2331626667,0.0,0.0,0.0,0.0,0.0,0.0,0.0,0.0,0.0,0.0,0.0,0,0.0,0.0,0.0,0.0,90.0,90.0,90.0,89.5724029541,88.55381011959999,89.5087432861,36.2999992371,15.2297458649,3.3999998569,0,2,25,1,330,57
21,1530629898556,1811556, RC,0,39.9586186,-88.445067899,0,0.0,0.0,0.0,0.0,0.0,0.0,0.0,0.0,0.0,0.0,0.0,0.0,0.0,1500,1500,0.0,0.0,40.0483033333,-88.2331626667,0.0,0.0,0.0,0.0,0.0,0.0,0.0,0.0,0.0,0.0,0.0,0,0.0,0.0,0.0,0.0,90.0,90.0,90.0,89.5724029541,88.55381011959999,89.5087432861,36.2999992371,15.2297458649,3.3999998569,0,2,25,1,325,60
22,1530629898606,1811606, RC,0,39.9586186,-88.445067899,0,0.0,0.0,0.0,0.0,0.0,0.0,0.0,0.0,0.0,0.0,0.0,0.0,0.0,1500,1500,0.0,0.0,40.0483033333,-88.2331626667,0.0,0.0,0.0,0.0,0.0,0.0,0.0,0.0,0.0,0.0,0.0,0,0.0,0.0,0.0,0.0,90.0,90.0,90.0,89.5724029541,88.6174697876,89.5087432861,36.2999992371,15.2297458649,3.3999998569,0,2,25,1,324,62
23,1530629898656,1811656, RC,0,39.9586186,-88.445067899,0,0.0,0.0,0.0,0.0,0.0,0.0,0.0,0.0,0.0,0.0,0.0,0.0,0.0,1500,1500,0.0,0.0,40.0483033333,-88.2331626667,0.0,0.0,0.0,0.0,0.0,0.0,0.0,0.0,0.0,0.0,0.0,0,0.0,0.0,0.0,0.0,90.0,90.0,90.0,89.5087432861,88.55381011959999,89.5087432861,36.2999992371,15.2297458649,3.3999998569,0,2,25,1,318,64
24,1530629898707,1811707, RC,0,39.9586186,-88.445067899,0,0.0,0.0,0.0,0.0,0.0,0.0,0.0,0.0,0.0,0.0,0.0,0.0,0.0,1500,1500,0.0,0.0,40.0483033333,-88.2331626667,0.0,0.0,0.0,0.0,0.0,0.0,0.0,0.0,0.0,0.0,0.0,0,0.0,0.0,0.0,0.0,90.0,90.0,90.0,89.5087432861,88.74479675290002,89.5087432861,36.2999992371,15.2297458649,3.3999998569,0,2,25,1,316,66
25,1530629898757,1811757, RC,0,39.9586186,-88.445067899,0,0.0,0.0,0.0,0.0,0.0,0.0,0.0,0.0,0.0,0.0,0.0,0.0,0.0,1500,1500,0.0,0.0,40.0483033333,-88.2331626667,0.0,0.0,0.0,0.0,0.0,0.0,0.0,0.0,0.0,0.0,0.0,0,0.0,0.0,0.0,0.0,90.0,90.0,90.0,89.5087432861,88.9994430542,89.5087432861,36.2999992371,15.2297458649,3.3999998569,0,2,25,1,330,69
26,1530629898807,1811807, RC,0,39.9586186,-88.445067899,0,0.0,0.0,0.0,0.0,0.0,0.0,0.0,0.0,0.0,0.0,0.0,0.0,0.0,1500,1500,0.0,0.0,40.0483033333,-88.2331626667,0.0,0.0,0.0,0.0,0.0,0.0,0.0,0.0,0.0,0.0,0.0,0,0.0,0.0,0.0,0.0,90.0,90.0,90.0,89.44507598879999,88.9994430542,89.5724029541,36.2999992371,15.2297458649,3.3999998569,0,2,25,1,323,71
27,1530629898858,1811858, RC,0,39.9586186,-88.445067899,0,0.0,0.0,0.0,0.0,0.0,0.0,0.0,0.0,0.0,0.0,0.0,0.0,0.0,1500,1500,0.0,0.0,40.0483033333,-88.2331626667,0.0,0.0,0.0,0.0,0.0,0.0,0.0,0.0,0.0,0.0,0.0,0,0.0,0.0,0.0,0.0,90.0,90.0,90.0,89.44507598879999,88.9994430542,89.5724029541,36.2999992371,15.2297458649,3.3999998569,0,2,25,1,335,73
28,1530629898908,1811908, RC,0,39.9586186,-88.445067899,0,0.0,0.0,0.0,0.0,0.0,0.0,0.0,0.0,0.0,0.0,0.0,0.0,0.0,1500,1500,0.0,0.0,40.0483033333,-88.2331626667,0.0,0.0,0.0,0.0,0.0,0.0,0.0,0.0,0.0,0.0,0.0,0,0.0,0.0,0.0,0.0,90.0,90.0,90.0,89.3814163208,88.9994430542,89.5724029541,36.2999992371,15.22514534,3.5099999905000003,0,2,25,1,332,76
29,1530629898958,1811958, RC,0,39.9586186,-88.445067899,0,0.0,0.0,0.0,0.0,0.0,0.0,0.0,0.0,0.0,0.0,0.0,0.0,0.0,1500,1500,0.0,0.0,40.0483033333,-88.2331626667,0.0,0.0,0.0,0.0,0.0,0.0,0.0,0.0,0.0,0.0,0.0,0,0.0,0.0,0.0,0.0,90.0,90.0,90.0,89.3814163208,88.9994430542,89.5724029541,36.2999992371,15.22514534,3.5099999905000003,0,2,25,1,316,78
30,1530629899009,1812009, RC,0,39.9586186,-88.445067899,0,0.0,0.0,0.0,0.0,0.0,0.0,0.0,0.0,0.0,0.0,0.0,0.0,0.0,1500,1500,0.0,0.0,40.0483073333,-88.2331668333,0.0,0.0,0.0,0.0,0.0,0.0,0.0,0.0,0.0,0.0,0.0,0,0.0,0.0,0.0,0.0,90.0,90.0,90.0,89.3814163208,88.9994430542,89.5724029541,36.2999992371,15.22514534,3.5099999905000003,0,2,25,1,330,80
31,1530629899059,1812059, RC,0,39.9586186,-88.445067899,0,0.0,0.0,0.0,0.0,0.0,0.0,0.0,0.0,0.0,0.0,0.0,0.0,0.0,1500,1500,0.0,0.0,40.0483073333,-88.2331668333,0.0,0.0,0.0,0.0,0.0,0.0,0.0,0.0,0.0,0.0,0.0,0,0.0,0.0,0.0,0.0,90.0,90.0,90.0,89.3814163208,88.93578338620001,89.5724029541,36.2999992371,15.22514534,3.5099999905000003,0,2,25,1,303,83
32,1530629899110,1812110, RC,0,39.9586186,-88.445067899,0,0.0,0.0,0.0,0.0,0.0,0.0,0.0,0.0,0.0,0.0,0.0,0.0,0.0,1500,1500,0.0,0.0,40.0483073333,-88.2331668333,0.0,0.0,0.0,0.0,0.0,0.0,0.0,0.0,0.0,0.0,0.0,0,0.0,0.0,0.0,0.0,90.0,90.0,90.0,89.3814163208,88.93578338620001,89.5087432861,36.2999992371,15.22514534,3.5099999905000003,0,2,25,1,314,85
33,1530629899160,1812160, RC,0,39.9586186,-88.445067899,0,0.0,0.0,0.0,0.0,0.0,0.0,0.0,0.0,0.0,0.0,0.0,0.0,0.0,1500,1500,0.0,0.0,40.0483073333,-88.2331668333,0.0,0.0,0.0,0.0,0.0,0.0,0.0,0.0,0.0,0.0,0.0,0,0.0,0.0,0.0,0.0,90.0,90.0,90.0,89.3814163208,88.93578338620001,89.5087432861,36.2999992371,15.22514534,3.5099999905000003,0,2,25,1,306,87
34,1530629899211,1812211, RC,0,39.9586186,-88.445067899,0,0.0,0.0,0.0,0.0,0.0,0.0,0.0,0.0,0.0,0.0,0.0,0.0,0.0,1500,1500,0.0,0.0,40.0483073333,-88.2331668333,0.0,0.0,0.0,0.0,0.0,0.0,0.0,0.0,0.0,0.0,0.0,0,0.0,0.0,0.0,0.0,90.0,90.0,90.0,89.3177566528,88.93578338620001,89.5087432861,36.2999992371,15.22514534,3.5099999905000003,0,2,25,1,310,90
35,1530629899262,1812262, RC,0,39.9586186,-88.445067899,0,0.0,0.0,0.0,0.0,0.0,0.0,0.0,0.0,0.0,0.0,0.0,0.0,0.0,1500,1500,0.0,0.0,40.0483073333,-88.2331668333,0.0,0.0,0.0,0.0,0.0,0.0,0.0,0.0,0.0,0.0,0.0,0,0.0,0.0,0.0,0.0,90.0,90.0,90.0,89.3177566528,88.93578338620001,89.5087432861,36.2999992371,15.22514534,3.5099999905000003,0,2,25,1,317,92
36,1530629899312,1812312, RC,0,39.9586186,-88.445067899,0,0.0,0.0,0.0,0.0,0.0,0.0,0.0,0.0,0.0,0.0,0.0,0.0,0.0,1500,1500,0.0,0.0,40.0483073333,-88.2331668333,0.0,0.0,0.0,0.0,0.0,0.0,0.0,0.0,0.0,0.0,0.0,0,0.0,0.0,0.0,0.0,90.0,88.0,90.0,89.25408935549999,88.93578338620001,89.5087432861,36.2999992371,15.22514534,3.5099999905000003,0,2,25,1,306,94
37,1530629899363,1812363, RC,0,39.9586186,-88.445067899,0,0.0,0.0,0.0,0.0,0.0,0.00018393400000000002,0.0,0.0,0.0,0.0,0.0,0.0,0.0,1500,1500,0.0,0.0,40.0483073333,-88.2331668333,0.0,0.0,0.0,0.0,0.0,0.0,0.0,0.0,0.0,0.0,0.0,0,0.0,0.0,0.0,0.00036786800000000004,90.0,88.0,90.0,89.1904296875,88.9994430542,89.5087432861,36.2999992371,15.22514534,3.5099999905000003,0,2,25,1,309,96
38,1530629899413,1812413, RC,0,39.9586186,-88.445067899,0,0.0,0.0,0.0,0.0,0.0,0.000551802,0.0,0.0,0.0,0.0,0.0,0.0,0.0,1500,1500,0.0,0.0,40.0483073333,-88.2331668333,0.0,0.0,0.0,0.0,0.0,0.0,0.0,0.0,0.0,0.0,0.0,0,0.0,0.0,0.0,0.001103604,90.0,76.0,90.0,89.3177566528,91.3549346924,89.5087432861,36.2999992371,15.22514534,3.5099999905000003,0,2,25,1,304,99
39,1530629899464,1812464, RC,0,39.9586186,-88.445067899,0,0.0,0.0,0.0,0.0,0.0,0.0015634389000000002,0.0,0.0,0.0,0.0,0.0,0.0,0.0,1500,1500,0.0,0.0,40.0483073333,-88.2331668333,0.0,0.0,0.0,0.0,0.0,0.0,0.0,0.0,0.0,0.0,0.0,0,0.0,0.0,0.0,0.0031268778000000004,90.0,76.0,90.0,89.25408935549999,92.50085449219999,89.5087432861,36.2999992371,15.22514534,3.5099999905000003,0,2,25,1,319,101
40,1530629899514,1812514, RC,0,39.9586186,-88.445067899,0,0.0,0.0,0.0,0.0,0.0,0.0020232738,0.0,0.0,0.0,0.0,0.0,0.0,0.0,1500,1500,0.0,0.0,40.0483073333,-88.2331668333,0.0,0.0,0.0,0.0,0.0,0.0,0.0,0.0,0.0,0.0,0.0,0,0.0,0.0,0.0,0.0040465477,90.0,76.0,90.0,89.1904296875,101.0952224731,89.5724029541,36.2999992371,15.22514534,3.5099999905000003,0,2,25,1,331,103
41,1530629899565,1812565, RC,0,39.9586186,-88.445067899,0,0.0,0.0,0.0,0.0,0.0,0.0020232738,0.0,0.0,0.0,0.0,0.0,0.0,0.0,1500,1500,0.0,0.0,40.0483073333,-88.2331668333,0.0,0.0,0.0,0.0,0.0,0.0,0.0,0.0,0.0,0.0,0.0,0,0.0,0.0,0.0,0.0040465477,90.0,76.0,90.0,89.3814163208,105.7425460815,89.63606262209998,36.2999992371,15.22514534,3.5099999905000003,0,2,25,1,342,106
42,1530629899616,1812616, RC,0,39.9586186,-88.445067899,0,0.0,0.0,0.0,0.0,0.0,0.0016554058999999999,0.0,0.0,0.0,0.0,0.0,0.0,0.0,1500,1500,0.0,0.0,40.0483073333,-88.2331668333,0.0,0.0,0.0,0.0,0.0,0.0,0.0,0.0,0.0,0.0,0.0,0,0.0,0.0,0.0,0.0033108116999999997,90.0,76.0,90.0,89.3814163208,102.6231079102,89.63606262209998,36.2999992371,15.22514534,3.5099999905000003,0,2,25,1,331,108
43,1530629899666,1812666, RC,0,39.9586186,-88.445067899,0,0.0,0.0,0.0,0.0,0.0,0.002207208,0.0,0.0,0.0,0.0,0.0,0.0,0.0,1500,1500,0.0,0.0,40.0483073333,-88.2331668333,0.0,0.0,0.0,0.0,0.0,0.0,0.0,0.0,0.0,0.0,0.0,0,0.0,0.0,0.00036786800000000004,0.0040465477,90.0,76.0,90.0,89.3814163208,102.9414138794,89.5724029541,36.2999992371,15.22514534,3.5099999905000003,0,2,25,1,329,110
44,1530629899717,1812717, RC,0,39.9586186,-88.445067899,0,0.0,0.0,0.0,0.0,0.0,0.0020232738,0.0,0.0,0.0,0.0,0.0,0.0,0.0,1500,1500,0.0,0.0,40.0483073333,-88.2331668333,0.0,0.0,0.0,0.0,0.0,0.0,0.0,0.0,0.0,0.0,0.0,0,0.0,0.0,0.0007357360000000001,0.0033108116999999997,90.0,76.0,90.0,89.44507598879999,103.1324005127,89.5724029541,36.2999992371,15.22514534,3.5099999905000003,0,2,25,1,328,113
45,1530629899768,1812768, RC,0,39.9586186,-88.445067899,0,0.0,0.0,0.0,0.0,0.0,0.0020232738,0.0,0.0,0.0,0.0,0.0,0.0,0.0,1500,1500,0.0,0.0,40.0483073333,-88.2331668333,0.0,0.0,0.0,0.0,0.0,0.0,0.0,0.0,0.0,0.0,0.0,0,0.0,0.0,0.0016554058999999999,0.0023911418,90.0,76.0,90.0,89.44507598879999,103.1324005127,89.5724029541,36.2999992371,15.22514534,3.5099999905000003,0,2,25,1,338,115
46,1530629899818,1812818, RC,0,39.9586186,-88.445067899,0,0.0,0.0,0.0,0.0,0.0,0.0016554058999999999,0.0,0.0,0.0,0.0,0.0,0.0,0.0,1500,1500,0.0,0.0,40.0483073333,-88.2331668333,0.0,0.0,0.0,0.0,0.0,0.0,0.0,0.0,0.0,0.0,0.0,0,0.0,0.0,0.001287538,0.0020232738,90.0,76.0,90.0,89.44507598879999,103.1324005127,89.5724029541,36.2999992371,15.22514534,3.5099999905000003,0,2,25,1,318,117
47,1530629899869,1812869, RC,0,39.9586186,-88.445067899,0,0.0,0.0,0.0,0.0,0.0,0.0011955709,0.0,0.0,0.0,0.0,0.0,0.0,0.0,1500,1500,0.0,0.0,40.0483073333,-88.2331668333,0.0,0.0,0.0,0.0,0.0,0.0,0.0,0.0,0.0,0.0,0.0,0,0.0,0.0,0.0009196699,0.0014714720000000001,90.0,76.0,90.0,89.44507598879999,103.06874084469999,89.5724029541,36.2999992371,15.22514534,3.5099999905000003,0,2,25,1,319,120
48,1530629899920,1812920, RC,0,39.9586186,-88.445067899,0,0.0,0.0,0.0,0.0,0.0,0.001011637,0.0,0.0,0.0,0.0,0.0,0.0,0.0,1500,1500,0.0,0.0,40.0483073333,-88.2331668333,0.0,0.0,0.0,0.0,0.0,0.0,0.0,0.0,0.0,0.0,0.0,0,0.0,0.0,0.0007357360000000001,0.001287538,90.0,76.0,90.0,89.3814163208,103.06874084469999,89.5724029541,36.2999992371,15.225392341600001,2.7400000094999997,0,2,25,1,326,122
49,1530629899970,1812970, RC,0,39.9586186,-88.445067899,0,0.0,0.0,0.0,0.0,0.0,0.0007357360000000001,0.0,0.0,0.0,0.0,0.0,0.0,0.0,1500,1500,0.0,0.0,40.0483118333,-88.23316583329999,0.0,0.0,0.0,0.0,0.0,0.0,0.0,0.0,0.0,0.0,0.0,0,0.0,0.0,0.000551802,0.0009196699,90.0,76.0,90.0,89.3814163208,103.06874084469999,89.5724029541,36.2999992371,15.225392341600001,2.7400000094999997,0,2,25,1,324,124
50,1530629900021,1813021, RC,0,39.9586186,-88.445067899,0,0.0,0.0,0.0,0.0,0.0,0.000643769,0.0,0.0,0.0,0.0,0.0,0.0,0.0,1500,1500,0.0,0.0,40.0483118333,-88.23316583329999,0.0,0.0,0.0,0.0,0.0,0.0,0.0,0.0,0.0,0.0,0.0,0,0.0,0.0,0.000551802,0.0007357360000000001,90.0,76.0,90.0,89.3814163208,103.06874084469999,89.5724029541,36.2999992371,15.225392341600001,2.7400000094999997,0,2,25,1,334,127
51,1530629900071,1813071, RC,0,39.9586186,-88.445067899,0,0.0,0.0,0.0,0.0,0.0,0.000459835,0.0,0.0,0.0,0.0,0.0,0.0,0.0,1500,1500,0.0,0.0,40.0483118333,-88.23316583329999,0.0,0.0,0.0,0.0,0.0,0.0,0.0,0.0,0.0,0.0,0.0,0,0.0,0.0,0.00036786800000000004,0.000551802,90.0,76.0,90.0,89.3814163208,103.06874084469999,89.5724029541,36.2999992371,15.225392341600001,2.7400000094999997,0,2,25,1,315,129
52,1530629900122,1813122, RC,0,39.9586186,-88.445067899,0,0.0,0.0,0.0,0.0,0.0,0.00036786800000000004,0.0,0.0,0.0,0.0,0.0,0.0,0.0,1500,1500,0.0,0.0,40.0483118333,-88.23316583329999,0.0,0.0,0.0,0.0,0.0,0.0,0.0,0.0,0.0,0.0,0.0,0,0.0,0.0,0.00036786800000000004,0.00036786800000000004,90.0,75.0,90.0,89.3814163208,103.0050811768,89.5724029541,36.2999992371,15.225392341600001,2.7400000094999997,0,2,25,1,315,131
53,1530629900173,1813173, RC,0,39.9586186,-88.445067899,0,0.0,0.0,0.0,0.0,0.0,0.000275901,0.0,0.0,0.0,0.0,0.0,0.0,0.0,1500,1500,0.0,0.0,40.0483118333,-88.23316583329999,0.0,0.0,0.0,0.0,0.0,0.0,0.0,0.0,0.0,0.0,0.0,0,0.0,0.0,0.00018393400000000002,0.00036786800000000004,90.0,75.0,90.0,89.3814163208,103.25972747799999,89.5724029541,36.2999992371,15.225392341600001,2.7400000094999997,0,2,25,1,326,133
54,1530629900223,1813223, RC,0,39.9586186,-88.445067899,0,0.0,0.0,0.0,0.0,0.0,0.00018393400000000002,0.0,0.0,0.0,0.0,0.0,0.0,0.0,1500,1500,0.0,0.0,40.0483118333,-88.23316583329999,0.0,0.0,0.0,0.0,0.0,0.0,0.0,0.0,0.0,0.0,0.0,0,0.0,0.0,0.00018393400000000002,0.00018393400000000002,90.0,72.0,90.0,89.3814163208,104.21466064450001,89.5724029541,36.2999992371,15.225392341600001,2.7400000094999997,0,2,25,1,324,136
55,1530629900274,1813274, RC,0,39.9586186,-88.445067899,0,0.0,0.0,0.0,0.0,0.0,0.00018393400000000002,0.0,0.0,0.0,0.0,0.0,0.0,0.0,1500,1500,0.0,0.0,40.0483118333,-88.23316583329999,0.0,0.0,0.0,0.0,0.0,0.0,0.0,0.0,0.0,0.0,0.0,0,0.0,0.0,0.00018393400000000002,0.00018393400000000002,90.0,72.0,90.0,89.3814163208,105.0422668457,89.5724029541,36.2999992371,15.225392341600001,2.7400000094999997,0,2,25,1,338,140
56,1530629900324,1813324, RC,0,39.9586186,-88.445067899,0,0.0,0.0,0.0,0.0,0.0,9.196700000000001e-05,0.0,0.0,0.0,0.0,0.0,0.0,0.0,1500,1500,0.0,0.0,40.0483118333,-88.23316583329999,0.0,0.0,0.0,0.0,0.0,0.0,0.0,0.0,0.0,0.0,0.0,0,0.0,0.0,0.0,0.00018393400000000002,90.0,72.0,90.0,89.3814163208,106.82479858399999,89.5724029541,36.2999992371,15.225392341600001,2.7400000094999997,0,2,25,1,320,143
57,1530629900375,1813375, RC,0,39.9586186,-88.445067899,0,0.0,0.0,0.0,0.0,0.0,9.196700000000001e-05,0.0,0.0,0.0,0.0,0.0,0.0,0.0,1500,1500,0.0,0.0,40.0483118333,-88.23316583329999,0.0,0.0,0.0,0.0,0.0,0.0,0.0,0.0,0.0,0.0,0.0,0,0.0,0.0,0.0,0.00018393400000000002,90.0,72.0,90.0,89.3814163208,107.52507781979999,89.5724029541,36.2999992371,15.225392341600001,2.7400000094999997,0,2,25,1,328,146
58,1530629900425,1813425, RC,0,39.9586186,-88.445067899,0,0.0,0.0,0.0,0.0,0.0,0.0,0.0,0.0,0.0,0.0,0.0,0.0,0.0,1500,1500,0.0,0.0,40.0483118333,-88.23316583329999,0.0,0.0,0.0,0.0,0.0,0.0,0.0,0.0,0.0,0.0,0.0,0,0.0,0.0,0.0,0.0,90.0,72.0,90.0,89.3814163208,107.4614181519,89.5724029541,36.2999992371,15.225392341600001,2.7400000094999997,0,2,25,1,336,148
59,1530629900476,1813476, RC,0,39.9586186,-88.445067899,0,0.0,0.0,0.0,0.0,0.0,0.0,0.0,0.0,0.0,0.0,0.0,0.0,0.0,1500,1500,0.0,0.0,40.0483118333,-88.23316583329999,0.0,0.0,0.0,0.0,0.0,0.0,0.0,0.0,0.0,0.0,0.0,0,0.0,0.0,0.0,0.0,90.0,72.0,90.0,89.3814163208,107.52507781979999,89.5724029541,36.2999992371,15.225392341600001,2.7400000094999997,0,2,25,1,329,151
60,1530629900527,1813527, RC,0,39.9586186,-88.445067899,0,0.0,0.0,0.0,0.0,0.0,0.0,0.0,0.0,0.0,0.0,0.0,0.0,0.0,1500,1500,0.0,0.0,40.0483118333,-88.23316583329999,0.0,0.0,0.0,0.0,0.0,0.0,0.0,0.0,0.0,0.0,0.0,0,0.0,0.0,0.0,0.0,90.0,72.0,90.0,89.3814163208,107.52507781979999,89.5724029541,36.2999992371,15.225392341600001,2.7400000094999997,0,2,25,1,322,153
61,1530629900577,1813577, RC,0,39.9586186,-88.445067899,0,0.0,0.0,0.0,0.0,0.0,0.00018393400000000002,0.0,0.0,0.0,0.0,0.0,0.0,0.0,1500,1500,0.0,0.0,40.0483118333,-88.23316583329999,0.0,0.0,0.0,0.0,0.0,0.0,0.0,0.0,0.0,0.0,0.0,0,0.0,0.0,0.0,0.00036786800000000004,90.0,72.0,90.0,89.3814163208,107.52507781979999,89.5724029541,36.2999992371,15.225392341600001,2.7400000094999997,0,2,25,1,330,156
62,1530629900628,1813628, RC,0,39.9586186,-88.445067899,0,0.0,0.0,0.0,0.0,0.0,0.00036786800000000004,0.0,0.0,0.0,0.0,0.0,0.0,0.0,1500,1500,0.0,0.0,40.0483118333,-88.23316583329999,0.0,0.0,0.0,0.0,0.0,0.0,0.0,0.0,0.0,0.0,0.0,0,0.0,0.0,0.0,0.0007357360000000001,90.0,70.0,90.0,89.3814163208,107.4614181519,89.5724029541,36.2999992371,15.225392341600001,2.7400000094999997,0,2,25,1,324,158
63,1530629900678,1813678, RC,0,39.9586186,-88.445067899,0,0.0,0.0,0.0,0.0,0.0,0.0008277028999999999,0.0,0.0,0.0,0.0,0.0,0.0,0.0,1500,1500,0.0,0.0,40.0483118333,-88.23316583329999,0.0,0.0,0.0,0.0,0.0,0.0,0.0,0.0,0.0,0.0,0.0,0,0.0,0.0,0.0,0.0016554058999999999,90.0,70.0,90.0,89.3814163208,108.5436706543,89.5724029541,36.2999992371,15.225392341600001,2.7400000094999997,0,2,25,1,330,161
64,1530629900729,1813729, RC,0,39.9586186,-88.445067899,0,0.0,0.0,0.0,0.0,0.0,0.000643769,0.0,0.0,0.0,0.0,0.0,0.0,0.0,1500,1500,0.0,0.0,40.0483118333,-88.23316583329999,0.0,0.0,0.0,0.0,0.0,0.0,0.0,0.0,0.0,0.0,0.0,0,0.0,0.0,0.0,0.001287538,90.0,70.0,90.0,89.3814163208,109.1166305542,89.5724029541,36.2999992371,15.225392341600001,2.7400000094999997,0,2,25,1,303,164
65,1530629900780,1813780, RC,0,39.9586186,-88.445067899,0,0.0,0.0,0.0,0.0,0.0,0.000551802,0.0,0.0,0.0,0.0,0.0,0.0,0.0,1500,1500,0.0,0.0,40.0483118333,-88.23316583329999,0.0,0.0,0.0,0.0,0.0,0.0,0.0,0.0,0.0,0.0,0.0,0,0.0,0.0,0.0,0.001103604,90.0,70.0,90.0,89.3814163208,109.1166305542,89.5724029541,36.2999992371,15.225392341600001,2.7400000094999997,0,2,25,1,307,166
66,1530629900830,1813830, RC,0,39.9586186,-88.445067899,0,0.0,0.0,0.0,0.0,0.0,0.00036786800000000004,0.0,0.0,0.0,0.0,0.0,0.0,0.0,1500,1500,0.0,0.0,40.0483118333,-88.23316583329999,0.0,0.0,0.0,0.0,0.0,0.0,0.0,0.0,0.0,0.0,0.0,0,0.0,0.0,0.0,0.0007357360000000001,90.0,70.0,90.0,89.3814163208,109.1166305542,89.5724029541,36.2999992371,15.225392341600001,2.7400000094999997,0,2,25,1,317,169
67,1530629900881,1813881, RC,0,39.9586186,-88.445067899,0,0.0,0.0,0.0,0.0,0.0,0.000275901,0.0,0.0,0.0,0.0,0.0,0.0,0.0,1500,1500,0.0,0.0,40.0483118333,-88.23316583329999,0.0,0.0,0.0,0.0,0.0,0.0,0.0,0.0,0.0,0.0,0.0,0,0.0,0.0,0.0,0.000551802,90.0,70.0,90.0,89.3814163208,109.1166305542,89.5724029541,36.2999992371,15.2208881378,3.4000000954000003,0,2,25,1,346,171
68,1530629900932,1813932, RC,0,39.9586186,-88.445067899,0,0.0,0.0,0.0,0.0,0.0,0.000275901,0.0,0.0,0.0,0.0,0.0,0.0,0.0,1500,1500,0.0,0.0,40.0483118333,-88.23316583329999,0.0,0.0,0.0,0.0,0.0,0.0,0.0,0.0,0.0,0.0,0.0,0,0.0,0.0,0.0,0.000551802,90.0,70.0,90.0,89.3814163208,109.1166305542,89.5724029541,36.2999992371,15.2208881378,3.4000000954000003,0,2,25,1,335,174
69,1530629900982,1813982, RC,0,39.9586186,-88.445067899,0,0.0,0.0,0.0,0.0,0.0,0.00018393400000000002,0.0,0.0,0.0,0.0,0.0,0.0,0.0,1500,1500,0.0,0.0,40.0483118333,-88.23316583329999,0.0,0.0,0.0,0.0,0.0,0.0,0.0,0.0,0.0,0.0,0.0,0,0.0,0.0,0.0,0.00036786800000000004,90.0,70.0,90.0,89.3814163208,109.1166305542,89.5724029541,36.2999992371,15.2208881378,3.4000000954000003,0,2,25,1,317,176
70,1530629901033,1814033, RC,0,39.9586186,-88.445067899,0,0.0,0.0,0.0,0.0,0.0,0.00018393400000000002,0.0,0.0,0.0,0.0,0.0,0.0,0.0,1500,1500,0.0,0.0,40.0483071667,-88.2331663333,0.0,0.0,0.0,0.0,0.0,0.0,0.0,0.0,0.0,0.0,0.0,0,0.0,0.0,0.0,0.00036786800000000004,90.0,70.0,90.0,89.3814163208,109.1166305542,89.5724029541,36.2999992371,15.2208881378,3.4000000954000003,0,2,25,1,330,179
71,1530629901084,1814084, RC,0,39.9586186,-88.445067899,0,0.0,0.0,0.0,0.0,0.0,9.196700000000001e-05,0.0,0.0,0.0,0.0,0.0,0.0,0.0,1500,1500,0.0,0.0,40.0483071667,-88.2331663333,0.0,0.0,0.0,0.0,0.0,0.0,0.0,0.0,0.0,0.0,0.0,0,0.0,0.0,0.0,0.00018393400000000002,90.0,70.0,90.0,89.3814163208,109.0529632568,89.5724029541,36.2999992371,15.2208881378,3.4000000954000003,0,2,25,1,314,181
72,1530629901134,1814134, RC,0,39.9586186,-88.445067899,0,0.0,0.0,0.0,0.0,0.0,9.196700000000001e-05,0.0,0.0,0.0,0.0,0.0,0.0,0.0,1500,1500,0.0,0.0,40.0483071667,-88.2331663333,0.0,0.0,0.0,0.0,0.0,0.0,0.0,0.0,0.0,0.0,0.0,0,0.0,0.0,0.0,0.00018393400000000002,90.0,70.0,90.0,89.3814163208,109.0529632568,89.5724029541,36.2999992371,15.2208881378,3.4000000954000003,0,2,25,1,319,183
73,1530629901185,1814185, RC,0,39.9586186,-88.445067899,0,0.0,0.0,0.0,0.0,0.0,9.196700000000001e-05,0.0,0.0,0.0,0.0,0.0,0.0,0.0,1500,1500,0.0,0.0,40.0483071667,-88.2331663333,0.0,0.0,0.0,0.0,0.0,0.0,0.0,0.0,0.0,0.0,0.0,0,0.0,0.0,0.0,0.00018393400000000002,90.0,70.0,90.0,89.3814163208,109.0529632568,89.5724029541,36.2999992371,15.2208881378,3.4000000954000003,0,2,25,1,325,186
74,1530629901235,1814235, RC,0,39.9586186,-88.445067899,0,0.0,0.0,0.0,0.0,0.0,0.0,0.0,0.0,0.0,0.0,0.0,0.0,0.0,1500,1500,0.0,0.0,40.0483071667,-88.2331663333,0.0,0.0,0.0,0.0,0.0,0.0,0.0,0.0,0.0,0.0,0.0,0,0.0,0.0,0.0,0.0,90.0,70.0,90.0,89.3814163208,109.0529632568,89.5724029541,36.2999992371,15.2208881378,3.4000000954000003,0,2,25,1,311,188
75,1530629901286,1814286, RC,0,39.9586186,-88.445067899,0,0.0,0.0,0.0,0.0,0.0,0.0,0.0,0.0,0.0,0.0,0.0,0.0,0.0,1500,1500,0.0,0.0,40.0483071667,-88.2331663333,0.0,0.0,0.0,0.0,0.0,0.0,0.0,0.0,0.0,0.0,0.0,0,0.0,0.0,0.0,0.0,90.0,70.0,90.0,89.3814163208,109.0529632568,89.5724029541,36.2999992371,15.2208881378,3.4000000954000003,0,2,25,1,341,190
76,1530629901336,1814336, RC,0,39.9586186,-88.445067899,0,0.0,0.0,0.0,0.0,0.0,0.0,0.0,0.0,0.0,0.0,0.0,0.0,0.0,1500,1500,0.0,0.0,40.0483071667,-88.2331663333,0.0,0.0,0.0,0.0,0.0,0.0,0.0,0.0,0.0,0.0,0.0,0,0.0,0.0,0.0,0.0,90.0,70.0,90.0,89.3814163208,109.0529632568,89.5724029541,36.2999992371,15.2208881378,3.4000000954000003,0,2,25,1,323,193
77,1530629901387,1814387, RC,0,39.9586186,-88.445067899,0,0.0,0.0,0.0,0.0,0.0,0.0,0.0,0.0,0.0,0.0,0.0,0.0,0.0,1500,1500,0.0,0.0,40.0483071667,-88.2331663333,0.0,0.0,0.0,0.0,0.0,0.0,0.0,0.0,0.0,0.0,0.0,0,0.0,0.0,0.0,0.0,90.0,70.0,90.0,89.3814163208,109.0529632568,89.5724029541,36.2999992371,15.2208881378,3.4000000954000003,0,2,25,1,316,195
78,1530629901438,1814438, RC,0,39.9586186,-88.445067899,0,0.0,0.0,0.0,0.0,0.0,0.0,0.0,0.0,0.0,0.0,0.0,0.0,0.0,1500,1500,0.0,0.0,40.0483071667,-88.2331663333,0.0,0.0,0.0,0.0,0.0,0.0,0.0,0.0,0.0,0.0,0.0,0,0.0,0.0,0.0,0.0,90.0,69.0,90.0,89.3814163208,109.0529632568,89.5724029541,36.2999992371,15.2208881378,3.4000000954000003,0,2,25,1,337,197
79,1530629901488,1814488, RC,0,39.9586186,-88.445067899,0,0.0,0.0,0.0,0.0,0.0,0.0,0.0,0.0,0.0,0.0,0.0,0.0,0.0,1500,1500,0.0,0.0,40.0483071667,-88.2331663333,0.0,0.0,0.0,0.0,0.0,0.0,0.0,0.0,0.0,0.0,0.0,0,0.0,0.0,0.0,0.0,90.0,69.0,90.0,89.3814163208,109.4349365234,89.5724029541,36.2999992371,15.2208881378,3.4000000954000003,0,2,25,1,332,199
80,1530629901539,1814539, RC,0,39.9586186,-88.445067899,0,0.0,0.0,0.0,0.0,0.0,0.0,0.0,0.0,0.0,0.0,0.0,0.0,0.0,1500,1500,0.0,0.0,40.0483071667,-88.2331663333,0.0,0.0,0.0,0.0,0.0,0.0,0.0,0.0,0.0,0.0,0.0,0,0.0,0.0,0.0,0.0,90.0,69.0,90.0,89.3814163208,110.45352935790001,89.5724029541,36.2999992371,15.2208881378,3.4000000954000003,0,2,25,1,329,202
81,1530629901589,1814589, RC,0,39.9586186,-88.445067899,0,0.0,0.0,0.0,0.0,0.0,0.0,0.0,0.0,0.0,0.0,0.0,0.0,0.0,1500,1500,0.0,0.0,40.0483071667,-88.2331663333,0.0,0.0,0.0,0.0,0.0,0.0,0.0,0.0,0.0,0.0,0.0,0,0.0,0.0,0.0,0.0,90.0,69.0,90.0,89.3814163208,110.3898620605,89.5724029541,36.2999992371,15.2208881378,3.4000000954000003,0,2,25,1,338,204
82,1530629901640,1814640, RC,0,39.9586186,-88.445067899,0,0.0,0.0,0.0,0.0,0.0,0.0,0.0,0.0,0.0,0.0,0.0,0.0,0.0,1500,1500,0.0,0.0,40.0483071667,-88.2331663333,0.0,0.0,0.0,0.0,0.0,0.0,0.0,0.0,0.0,0.0,0.0,0,0.0,0.0,0.0,0.0,90.0,67.0,90.0,89.3814163208,110.3898620605,89.5724029541,36.2999992371,15.2208881378,3.4000000954000003,0,2,25,1,314,206
83,1530629901690,1814690, RC,0,39.9586186,-88.445067899,0,0.0,0.0,0.0,0.0,0.0,0.0,0.0,0.0,0.0,0.0,0.0,0.0,0.0,1500,1500,0.0,0.0,40.0483071667,-88.2331663333,0.0,0.0,0.0,0.0,0.0,0.0,0.0,0.0,0.0,0.0,0.0,0,0.0,0.0,0.0,0.0,90.0,67.0,90.0,89.3814163208,111.2811355591,89.5724029541,36.2999992371,15.2208881378,3.4000000954000003,0,2,25,1,339,209
84,1530629901741,1814741, RC,0,39.9586186,-88.445067899,0,0.0,0.0,0.0,0.0,0.0,0.0,0.0,0.0,0.0,0.0,0.0,0.0,0.0,1500,1500,0.0,0.0,40.0483071667,-88.2331663333,0.0,0.0,0.0,0.0,0.0,0.0,0.0,0.0,0.0,0.0,0.0,0,0.0,0.0,0.0,0.0,90.0,67.0,90.0,89.3814163208,113.2546615601,89.5724029541,36.2999992371,15.2208881378,3.4000000954000003,0,2,25,1,341,211
85,1530629901792,1814792, RC,0,39.9586186,-88.445067899,0,0.0,0.0,0.0,0.0,0.0,0.0,0.0,0.0,0.0,0.0,0.0,0.0,0.0,1500,1500,0.0,0.0,40.0483071667,-88.2331663333,0.0,0.0,0.0,0.0,0.0,0.0,0.0,0.0,0.0,0.0,0.0,0,0.0,0.0,0.0,0.0,90.0,67.0,90.0,89.6997299194,112.8090209961,89.5724029541,36.2999992371,15.2208881378,3.4000000954000003,0,2,25,1,351,214
86,1530629901842,1814842, RC,0,39.9586186,-88.445067899,0,0.0,0.0,0.0,0.0,0.0,0.0,0.0,0.0,0.0,0.0,0.0,0.0,0.0,1500,1500,0.0,0.0,40.0483071667,-88.2331663333,0.0,0.0,0.0,0.0,0.0,0.0,0.0,0.0,0.0,0.0,0.0,0,0.0,0.0,0.0,0.0,90.0,67.0,90.0,89.6997299194,112.74536132809999,89.5724029541,36.2999992371,15.2208881378,3.4000000954000003,0,2,25,1,337,218
87,1530629901893,1814893, RC,0,39.9586186,-88.445067899,0,0.0,0.0,0.0,0.0,0.0,0.0,0.0,0.0,0.0,0.0,0.0,0.0,0.0,1500,1500,0.0,0.0,40.0483071667,-88.2331663333,0.0,0.0,0.0,0.0,0.0,0.0,0.0,0.0,0.0,0.0,0.0,0,0.0,0.0,0.0,0.0,90.0,67.0,90.0,89.6997299194,112.74536132809999,89.5724029541,36.2999992371,15.221275329600001,3.4600000381,0,2,25,1,311,221
88,1530629901943,1814943, RC,0,39.9586186,-88.445067899,0,0.0,0.0,0.0,0.0,0.0,0.0,0.0,0.0,0.0,0.0,0.0,0.0,0.0,1500,1500,0.0,0.0,40.0483086667,-88.2331648333,0.0,0.0,0.0,0.0,0.0,0.0,0.0,0.0,0.0,0.0,0.0,0,0.0,0.0,0.0,0.0,90.0,66.0,90.0,89.6997299194,112.74536132809999,89.5724029541,36.2999992371,15.221275329600001,3.4600000381,0,2,25,1,331,224
89,1530629901994,1814994, RC,0,39.9586186,-88.445067899,0,0.0,0.0,0.0,0.0,0.0,0.0,0.0,0.0,0.0,0.0,0.0,0.0,0.0,1500,1500,0.0,0.0,40.0483086667,-88.2331648333,0.0,0.0,0.0,0.0,0.0,0.0,0.0,0.0,0.0,0.0,0.0,0,0.0,0.0,0.0,0.0,90.0,66.0,90.0,89.6997299194,112.74536132809999,89.5724029541,36.2999992371,15.221275329600001,3.4600000381,0,2,25,1,310,226
90,1530629902044,1815044, RC,0,39.9586186,-88.445067899,0,0.0,0.0,0.0,0.0,0.0,0.0,0.0,0.0,0.0,0.0,0.0,0.0,0.0,1500,1500,0.0,0.0,40.0483086667,-88.2331648333,0.0,0.0,0.0,0.0,0.0,0.0,0.0,0.0,0.0,0.0,0.0,0,0.0,0.0,0.0,0.0,90.0,66.0,90.0,89.6997299194,112.74536132809999,89.5724029541,36.2999992371,15.221275329600001,3.4600000381,0,2,25,1,322,229
91,1530629902095,1815095, RC,0,39.9586186,-88.445067899,0,0.0,0.0,0.0,0.0,0.0,0.0,0.0,0.0,0.0,0.0,0.0,0.0,0.0,1500,1500,0.0,0.0,40.0483086667,-88.2331648333,0.0,0.0,0.0,0.0,0.0,0.0,0.0,0.0,0.0,0.0,0.0,0,0.0,0.0,0.0,0.0,90.0,66.0,90.0,89.6997299194,112.74536132809999,89.5724029541,36.2999992371,15.221275329600001,3.4600000381,0,2,25,1,309,231
92,1530629902146,1815146, RC,0,39.9586186,-88.445067899,0,0.0,0.0,0.0,0.0,0.0,0.0,0.0,0.0,0.0,0.0,0.0,0.0,0.0,1500,1500,0.0,0.0,40.0483086667,-88.2331648333,0.0,0.0,0.0,0.0,0.0,0.0,0.0,0.0,0.0,0.0,0.0,0,0.0,0.0,0.0,0.0,90.0,66.0,90.0,89.6997299194,112.6817016602,89.5724029541,36.2999992371,15.221275329600001,3.4600000381,0,2,25,1,333,233
93,1530629902196,1815196, RC,0,39.9586186,-88.445067899,0,0.0,0.0,0.0,0.0,0.0,0.0,0.0,0.0,0.0,0.0,0.0,0.0,0.0,1500,1500,0.0,0.0,40.0483086667,-88.2331648333,0.0,0.0,0.0,0.0,0.0,0.0,0.0,0.0,0.0,0.0,0.0,0,0.0,0.0,0.0,0.0,90.0,66.0,90.0,89.6997299194,112.6817016602,89.5724029541,36.2999992371,15.221275329600001,3.4600000381,0,2,25,1,325,236
94,1530629902247,1815247, RC,0,39.9586186,-88.445067899,0,0.0,0.0,0.0,0.0,0.0,0.0,0.0,0.0,0.0,0.0,0.0,0.0,0.0,1500,1500,0.0,0.0,40.0483086667,-88.2331648333,0.0,0.0,0.0,0.0,0.0,0.0,0.0,0.0,0.0,0.0,0.0,0,0.0,0.0,0.0,0.0,90.0,66.0,90.0,89.6997299194,112.6817016602,89.5724029541,36.2999992371,15.221275329600001,3.4600000381,0,2,25,1,329,238
95,1530629902297,1815297, RC,0,39.9586186,-88.445067899,0,0.0,0.0,0.0,0.0,0.0,0.0,0.0,0.0,0.0,0.0,0.0,0.0,0.0,1500,1500,0.0,0.0,40.0483086667,-88.2331648333,0.0,0.0,0.0,0.0,0.0,0.0,0.0,0.0,0.0,0.0,0.0,0,0.0,0.0,0.0,0.0,90.0,66.0,90.0,89.6997299194,112.6817016602,89.5724029541,36.2999992371,15.221275329600001,3.4600000381,0,2,25,1,331,240
96,1530629902348,1815348, RC,0,39.9586186,-88.445067899,0,0.0,0.0,0.0,0.0,0.0,0.0,0.0,0.0,0.0,0.0,0.0,0.0,0.0,1500,1500,0.0,0.0,40.0483086667,-88.2331648333,0.0,0.0,0.0,0.0,0.0,0.0,0.0,0.0,0.0,0.0,0.0,0,0.0,0.0,0.0,0.0,90.0,64.0,90.0,89.6997299194,112.6817016602,89.5724029541,36.2999992371,15.221275329600001,3.4600000381,0,2,25,1,339,243
97,1530629902399,1815399, RC,0,39.9586186,-88.445067899,0,0.0,0.0,0.0,0.0,0.0,0.0,0.0,0.0,0.0,0.0,0.0,0.0,0.0,1500,1500,0.0,0.0,40.0483086667,-88.2331648333,0.0,0.0,0.0,0.0,0.0,0.0,0.0,0.0,0.0,0.0,0.0,0,0.0,0.0,0.0,0.0,90.0,64.0,90.0,89.6997299194,113.4456481934,89.5724029541,36.2999992371,15.221275329600001,3.4600000381,0,2,25,1,327,245
98,1530629902449,1815449, RC,0,39.9586186,-88.445067899,0,0.0,0.0,0.0,0.0,0.0,0.0,0.0,0.0,0.0,0.0,0.0,0.0,0.0,1500,1500,0.0,0.0,40.0483086667,-88.2331648333,0.0,0.0,0.0,0.0,0.0,0.0,0.0,0.0,0.0,0.0,0.0,0,0.0,0.0,0.0,0.0,90.0,64.0,90.0,89.6997299194,116.1194458008,89.5724029541,36.2999992371,15.221275329600001,3.4600000381,0,2,25,1,322,248
99,1530629902500,1815500, RC,0,39.9586186,-88.445067899,0,0.0,0.0,0.0,0.0,0.0,0.0,0.0,0.0,0.0,0.0,0.0,0.0,0.0,1500,1500,0.0,0.0,40.0483086667,-88.2331648333,0.0,0.0,0.0,0.0,0.0,0.0,0.0,0.0,0.0,0.0,0.0,0,0.0,0.0,0.0,0.0,90.0,64.0,90.0,89.6997299194,115.9921188354,89.5724029541,36.2999992371,15.221275329600001,3.4600000381,0,2,25,1,328,251
100,1530629902551,1815551, RC,0,39.9586186,-88.445067899,0,0.0,0.0,0.0,0.0,0.0,0.0,0.0,0.0,0.0,0.0,0.0,0.0,0.0,1500,1500,0.0,0.0,40.0483086667,-88.2331648333,0.0,0.0,0.0,0.0,0.0,0.0,0.0,0.0,0.0,0.0,0.0,0,0.0,0.0,0.0,0.0,90.0,64.0,90.0,89.6997299194,115.4828338623,89.5724029541,36.2999992371,15.221275329600001,3.4600000381,0,2,25,1,324,254
101,1530629902601,1815601, RC,0,39.9586186,-88.445067899,0,0.0,0.0,0.0,0.0,0.0,0.0,0.0,0.0,0.0,0.0,0.0,0.0,0.0,1500,1500,0.0,0.0,40.0483086667,-88.2331648333,0.0,0.0,0.0,0.0,0.0,0.0,0.0,0.0,0.0,0.0,0.0,0,0.0,0.0,0.0,0.0,90.0,64.0,90.0,89.6997299194,115.4828338623,89.5724029541,36.2999992371,15.221275329600001,3.4600000381,0,2,25,1,336,257
102,1530629902652,1815652, RC,0,39.9586186,-88.445067899,0,0.0,0.0,0.0,0.0,0.0,0.0,0.0,0.0,0.0,0.0,0.0,0.0,0.0,1500,1500,0.0,0.0,40.0483086667,-88.2331648333,0.0,0.0,0.0,0.0,0.0,0.0,0.0,0.0,0.0,0.0,0.0,0,0.0,0.0,0.0,0.0,90.0,64.0,90.0,89.6997299194,115.4828338623,89.5724029541,36.2999992371,15.221275329600001,3.4600000381,0,2,25,1,310,259
103,1530629902702,1815702, RC,0,39.9586186,-88.445067899,0,0.0,0.0,0.0,0.0,0.0,0.0,0.0,0.0,0.0,0.0,0.0,0.0,0.0,1500,1500,0.0,0.0,40.0483086667,-88.2331648333,0.0,0.0,0.0,0.0,0.0,0.0,0.0,0.0,0.0,0.0,0.0,0,0.0,0.0,0.0,0.0,90.0,64.0,90.0,89.6997299194,115.4828338623,89.5724029541,36.2999992371,15.221275329600001,3.4600000381,0,2,25,1,327,262
104,1530629902753,1815753, RC,0,39.9586186,-88.445067899,0,0.0,0.0,0.0,0.0,0.0,0.0,0.0,0.0,0.0,0.0,0.0,0.0,0.0,1500,1500,0.0,0.0,40.0483086667,-88.2331648333,0.0,0.0,0.0,0.0,0.0,0.0,0.0,0.0,0.0,0.0,0.0,0,0.0,0.0,0.0,0.0,90.0,64.0,90.0,89.6997299194,115.4828338623,89.5724029541,36.2999992371,15.221275329600001,3.4600000381,0,2,25,1,328,264
105,1530629902804,1815804, RC,0,39.9586186,-88.445067899,0,0.0,0.0,0.0,0.0,0.0,0.0,0.0,0.0,0.0,0.0,0.0,0.0,0.0,1500,1500,0.0,0.0,40.0483086667,-88.2331648333,0.0,0.0,0.0,0.0,0.0,0.0,0.0,0.0,0.0,0.0,0.0,0,0.0,0.0,0.0,0.0,90.0,63.0,90.0,89.6997299194,115.4828338623,89.5724029541,36.2999992371,15.221275329600001,3.4600000381,0,2,25,1,313,267
106,1530629902854,1815854, RC,0,39.9586186,-88.445067899,0,0.0,0.0,0.0,0.0,0.0,0.0,0.0,0.0,0.0,0.0,0.0,0.0,0.0,1500,1500,0.0,0.0,40.0483086667,-88.2331648333,0.0,0.0,0.0,0.0,0.0,0.0,0.0,0.0,0.0,0.0,0.0,0,0.0,0.0,0.0,0.0,90.0,63.0,90.0,89.6997299194,115.4828338623,89.5724029541,36.2999992371,15.221275329600001,3.4600000381,0,2,25,1,319,269
107,1530629902905,1815905, RC,0,39.9586186,-88.445067899,0,0.0,0.0,0.0,0.0,0.0,0.0,0.0,0.0,0.0,0.0,0.0,0.0,0.0,1500,1500,0.0,0.0,40.0483086667,-88.2331648333,0.0,0.0,0.0,0.0,0.0,0.0,0.0,0.0,0.0,0.0,0.0,0,0.0,0.0,0.0,0.0,90.0,63.0,90.0,89.6997299194,115.67381286620001,89.5724029541,36.2999992371,15.2166290283,3.3899998664999997,0,2,25,1,326,272
108,1530629902955,1815955, RC,0,39.9586186,-88.445067899,0,0.0,0.0,0.0,0.0,0.0,0.0,0.0,0.0,0.0,0.0,0.0,0.0,0.0,1500,1500,0.0,0.0,40.0483086667,-88.2331648333,0.0,0.0,0.0,0.0,0.0,0.0,0.0,0.0,0.0,0.0,0.0,0,0.0,0.0,0.0,0.0,90.0,63.0,90.0,89.6997299194,115.7374725342,89.5724029541,36.2999992371,15.2166290283,3.3899998664999997,0,2,25,1,314,274
109,1530629903006,1816006, RC,0,39.9586186,-88.445067899,0,0.0,0.0,0.0,0.0,0.0,0.0,0.0,0.0,0.0,0.0,0.0,0.0,0.0,1500,1500,0.0,0.0,40.0483076667,-88.2331641667,0.0,0.0,0.0,0.0,0.0,0.0,0.0,0.0,0.0,0.0,0.0,0,0.0,0.0,0.0,0.0,90.0,63.0,90.0,89.6997299194,115.7374725342,89.5724029541,36.2999992371,15.2166290283,3.3899998664999997,0,2,25,1,330,276
110,1530629903057,1816057, RC,0,39.9586186,-88.445067899,0,0.0,0.0,0.0,0.0,0.0,0.0,0.0,0.0,0.0,0.0,0.0,0.0,0.0,1500,1500,0.0,0.0,40.0483076667,-88.2331641667,0.0,0.0,0.0,0.0,0.0,0.0,0.0,0.0,0.0,0.0,0.0,0,0.0,0.0,0.0,0.0,90.0,63.0,90.0,89.6997299194,115.7374725342,89.5724029541,36.2999992371,15.2166290283,3.3899998664999997,0,2,25,1,323,278
111,1530629903107,1816107, RC,0,39.9586186,-88.445067899,0,0.0,0.0,0.0,0.0,0.0,0.0,0.0,0.0,0.0,0.0,0.0,0.0,0.0,1500,1500,0.0,0.0,40.0483076667,-88.2331641667,0.0,0.0,0.0,0.0,0.0,0.0,0.0,0.0,0.0,0.0,0.0,0,0.0,0.0,0.0,0.0,90.0,63.0,90.0,89.6997299194,115.7374725342,89.5724029541,36.2999992371,15.2166290283,3.3899998664999997,0,2,25,1,326,280
112,1530629903158,1816158, RC,0,39.9586186,-88.445067899,0,0.0,0.0,0.0,0.0,0.0,0.0,0.0,0.0,0.0,0.0,0.0,0.0,0.0,1500,1500,0.0,0.0,40.0483076667,-88.2331641667,0.0,0.0,0.0,0.0,0.0,0.0,0.0,0.0,0.0,0.0,0.0,0,0.0,0.0,0.0,0.0,90.0,63.0,90.0,89.6997299194,115.7374725342,89.5724029541,36.2999992371,15.2166290283,3.3899998664999997,0,2,25,1,328,282
113,1530629903208,1816208, RC,0,39.9586186,-88.445067899,0,0.0,0.0,0.0,0.0,0.0,0.0,0.0,0.0,0.0,0.0,0.0,0.0,0.0,1500,1500,0.0,0.0,40.0483076667,-88.2331641667,0.0,0.0,0.0,0.0,0.0,0.0,0.0,0.0,0.0,0.0,0.0,0,0.0,0.0,0.0,0.0,90.0,60.0,90.0,89.6997299194,115.7374725342,89.5724029541,36.2999992371,15.2166290283,3.3899998664999997,0,2,25,1,314,284
114,1530629903259,1816259, RC,0,39.9586186,-88.445067899,0,0.0,0.0,0.0,0.0,0.0,0.0,0.0,0.0,0.0,0.0,0.0,0.0,0.0,1500,1500,0.0,0.0,40.0483076667,-88.2331641667,0.0,0.0,0.0,0.0,0.0,0.0,0.0,0.0,0.0,0.0,0.0,0,0.0,0.0,0.0,0.0,90.0,60.0,90.0,89.6997299194,115.80113220209999,89.5724029541,36.2999992371,15.2166290283,3.3899998664999997,0,2,25,1,317,286
115,1530629903310,1816310, RC,0,39.9586186,-88.445067899,0,0.0,0.0,0.0,0.0,0.0,0.0,0.0,0.0,0.0,0.0,0.0,0.0,0.0,1500,1500,0.0,0.0,40.0483076667,-88.2331641667,0.0,0.0,0.0,0.0,0.0,0.0,0.0,0.0,0.0,0.0,0.0,0,0.0,0.0,0.0,0.0,90.0,58.0,90.0,89.6997299194,117.77465820309999,89.5724029541,36.2999992371,15.2166290283,3.3899998664999997,0,2,25,1,324,288
116,1530629903360,1816360, RC,0,39.9586186,-88.445067899,0,0.0,0.0,0.0,0.0,0.0,0.0,0.0,0.0,0.0,0.0,0.0,0.0,0.0,1500,1500,0.0,0.0,40.0483076667,-88.2331641667,0.0,0.0,0.0,0.0,0.0,0.0,0.0,0.0,0.0,0.0,0.0,0,0.0,0.0,0.0,0.0,90.0,58.0,90.0,89.6997299194,120.51211547850001,89.5724029541,36.2999992371,15.2166290283,3.3899998664999997,0,2,25,1,328,290
117,1530629903411,1816411, RC,0,39.9586186,-88.445067899,0,0.0,0.0,0.0,0.0,0.0,0.0,0.0,0.0,0.0,0.0,0.0,0.0,0.0,1500,1500,0.0,0.0,40.0483076667,-88.2331641667,0.0,0.0,0.0,0.0,0.0,0.0,0.0,0.0,0.0,0.0,0.0,0,0.0,0.0,0.0,0.0,90.0,58.0,90.0,89.6997299194,121.1487426758,89.5724029541,36.2999992371,15.2166290283,3.3899998664999997,0,2,25,1,337,293
118,1530629903462,1816462, RC,0,39.9586186,-88.445067899,0,0.0,0.0,0.0,0.0,0.0,0.0,0.0,0.0,0.0,0.0,0.0,0.0,0.0,1500,1500,0.0,0.0,40.0483076667,-88.2331641667,0.0,0.0,0.0,0.0,0.0,0.0,0.0,0.0,0.0,0.0,0.0,0,0.0,0.0,0.0,0.0,90.0,58.0,90.0,89.6997299194,121.1487426758,89.5724029541,36.2999992371,15.2166290283,3.3899998664999997,0,2,25,1,321,295
119,1530629903512,1816512, RC,0,39.9586186,-88.445067899,0,0.0,0.0,0.0,0.0,0.0,0.0,0.0,0.0,0.0,0.0,0.0,0.0,0.0,1500,1500,0.0,0.0,40.0483076667,-88.2331641667,0.0,0.0,0.0,0.0,0.0,0.0,0.0,0.0,0.0,0.0,0.0,0,0.0,0.0,0.0,0.0,90.0,58.0,90.0,89.6997299194,121.1487426758,89.5724029541,36.2999992371,15.2166290283,3.3899998664999997,0,2,25,1,307,297
120,1530629903563,1816563, RC,0,39.9586186,-88.445067899,0,0.0,0.0,0.0,0.0,0.0,0.0,0.0,0.0,0.0,0.0,0.0,0.0,0.0,1500,1500,0.0,0.0,40.0483076667,-88.2331641667,0.0,0.0,0.0,0.0,0.0,0.0,0.0,0.0,0.0,0.0,0.0,0,0.0,0.0,0.0,0.0,90.0,58.0,90.0,89.6997299194,121.1487426758,89.5724029541,36.2999992371,15.2166290283,3.3899998664999997,0,2,25,1,326,299
121,1530629903613,1816613, RC,0,39.9586186,-88.445067899,0,0.0,0.0,0.0,0.0,0.0,0.0,0.0,0.0,0.0,0.0,0.0,0.0,0.0,1500,1500,0.0,0.0,40.0483076667,-88.2331641667,0.0,0.0,0.0,0.0,0.0,0.0,0.0,0.0,0.0,0.0,0.0,0,0.0,0.0,0.0,0.0,90.0,58.0,90.0,89.6997299194,121.2124023438,89.5724029541,36.2999992371,15.2166290283,3.3899998664999997,0,2,25,1,334,301
122,1530629903664,1816664, RC,0,39.9586186,-88.445067899,0,0.0,0.0,0.0,0.0,0.0,0.0,0.0,0.0,0.0,0.0,0.0,0.0,0.0,1500,1500,0.0,0.0,40.0483076667,-88.2331641667,0.0,0.0,0.0,0.0,0.0,0.0,0.0,0.0,0.0,0.0,0.0,0,0.0,0.0,0.0,0.0,90.0,58.0,90.0,89.6997299194,121.2124023438,89.5724029541,36.2999992371,15.2166290283,3.3899998664999997,0,2,25,1,319,303
123,1530629903715,1816715, RC,0,39.9586186,-88.445067899,0,0.0,0.0,0.0,0.0,0.0,0.0,0.0,0.0,0.0,0.0,0.0,0.0,0.0,1500,1500,0.0,0.0,40.0483076667,-88.2331641667,0.0,0.0,0.0,0.0,0.0,0.0,0.0,0.0,0.0,0.0,0.0,0,0.0,0.0,0.0,0.0,90.0,58.0,90.0,89.6997299194,121.2124023438,89.5724029541,36.2999992371,15.2166290283,3.3899998664999997,0,2,25,1,323,305
124,1530629903765,1816765, RC,0,39.9586186,-88.445067899,0,0.0,0.0,0.0,0.0,0.0,0.0,0.0,0.0,0.0,0.0,0.0,0.0,0.0,1500,1500,0.0,0.0,40.0483076667,-88.2331641667,0.0,0.0,0.0,0.0,0.0,0.0,0.0,0.0,0.0,0.0,0.0,0,0.0,0.0,0.0,0.0,90.0,58.0,90.0,89.6997299194,121.2124023438,89.5724029541,36.2999992371,15.2166290283,3.3899998664999997,0,2,25,1,318,307
125,1530629903816,1816816, RC,0,39.9586186,-88.445067899,0,0.0,0.0,0.0,0.0,0.0,0.0,0.0,0.0,0.0,0.0,0.0,0.0,0.0,1500,1500,0.0,0.0,40.0483076667,-88.2331641667,0.0,0.0,0.0,0.0,0.0,0.0,0.0,0.0,0.0,0.0,0.0,0,0.0,0.0,0.0,0.0,90.0,58.0,90.0,89.6997299194,121.1487426758,89.5724029541,36.2999992371,15.2166290283,3.3899998664999997,0,2,25,1,323,309
126,1530629903866,1816866, RC,0,39.9586186,-88.445067899,0,0.0,0.0,0.0,0.0,0.0,0.0,0.0,0.0,0.0,0.0,0.0,0.0,0.0,1500,1500,0.0,0.0,40.0483076667,-88.2331641667,0.0,0.0,0.0,0.0,0.0,0.0,0.0,0.0,0.0,0.0,0.0,0,0.0,0.0,0.0,0.0,90.0,58.0,90.0,89.6997299194,121.2124023438,89.5724029541,36.2999992371,15.2166290283,3.3899998664999997,0,2,25,1,320,311
127,1530629903917,1816917, RC,0,39.9586186,-88.445067899,0,0.0,0.0,0.0,0.0,0.0,0.0,0.0,0.0,0.0,0.0,0.0,0.0,0.0,1500,1500,0.0,0.0,40.0483076667,-88.2331641667,0.0,0.0,0.0,0.0,0.0,0.0,0.0,0.0,0.0,0.0,0.0,0,0.0,0.0,0.0,0.0,90.0,58.0,90.0,89.6997299194,121.2124023438,89.5724029541,36.2999992371,15.2119750977,3.0700001717000003,0,2,25,1,333,314
128,1530629903967,1816967, RC,0,39.9586186,-88.445067899,0,0.0,0.0,0.0,0.0,0.0,0.0,0.0,0.0,0.0,0.0,0.0,0.0,0.0,1500,1500,0.0,0.0,40.0483076667,-88.2331641667,0.0,0.0,0.0,0.0,0.0,0.0,0.0,0.0,0.0,0.0,0.0,0,0.0,0.0,0.0,0.0,90.0,58.0,90.0,89.6997299194,121.2124023438,89.5724029541,36.2999992371,15.2119750977,3.0700001717000003,0,2,25,1,315,316
129,1530629904018,1817018, RC,0,39.9586186,-88.445067899,0,0.0,0.0,0.0,0.0,0.0,0.0,0.0,0.0,0.0,0.0,0.0,0.0,0.0,1500,1500,0.0,0.0,40.0483078333,-88.2331648333,0.0,0.0,0.0,0.0,0.0,0.0,0.0,0.0,0.0,0.0,0.0,0,0.0,0.0,0.0,0.0,90.0,60.0,90.0,89.6997299194,121.2124023438,89.5724029541,36.2999992371,15.2119750977,3.0700001717000003,0,2,25,1,336,318
130,1530629904069,1817069, RC,0,39.9586186,-88.445067899,0,0.0,0.0,0.0,0.0,0.0,0.0,0.0,0.0,0.0,0.0,0.0,0.0,0.0,1500,1500,0.0,0.0,40.0483078333,-88.2331648333,0.0,0.0,0.0,0.0,0.0,0.0,0.0,0.0,0.0,0.0,0.0,0,0.0,0.0,0.0,0.0,90.0,60.0,90.0,89.6997299194,121.2124023438,89.5724029541,36.2999992371,15.2119750977,3.0700001717000003,0,2,25,1,330,320
131,1530629904119,1817119, RC,0,39.9586186,-88.445067899,0,0.0,0.0,0.0,0.0,0.0,0.0,0.0,0.0,0.0,0.0,0.0,0.0,0.0,1500,1500,0.0,0.0,40.0483078333,-88.2331648333,0.0,0.0,0.0,0.0,0.0,0.0,0.0,0.0,0.0,0.0,0.0,0,0.0,0.0,0.0,0.0,90.0,60.0,90.0,89.6997299194,120.32112884520001,89.5724029541,36.2999992371,15.2119750977,3.0700001717000003,0,2,25,1,327,322
132,1530629904170,1817170, RC,0,39.9586186,-88.445067899,0,0.0,0.0,0.0,0.0,0.0,0.0,0.0,0.0,0.0,0.0,0.0,0.0,0.0,1500,1500,0.0,0.0,40.0483078333,-88.2331648333,0.0,0.0,0.0,0.0,0.0,0.0,0.0,0.0,0.0,0.0,0.0,0,0.0,0.0,0.0,0.0,90.0,60.0,90.0,89.6997299194,119.0479049683,89.5724029541,36.2999992371,15.2119750977,3.0700001717000003,0,2,25,1,315,324
133,1530629904220,1817220, RC,0,39.9586186,-88.445067899,0,0.0,0.0,0.0,0.0,0.0,0.0,0.0,0.0,0.0,0.0,0.0,0.0,0.0,1500,1500,0.0,0.0,40.0483078333,-88.2331648333,0.0,0.0,0.0,0.0,0.0,0.0,0.0,0.0,0.0,0.0,0.0,0,0.0,0.0,0.0,0.0,90.0,63.0,90.0,89.6997299194,119.0479049683,89.5724029541,36.2999992371,15.2119750977,3.0700001717000003,0,2,25,1,328,326
134,1530629904271,1817271, RC,0,39.9586186,-88.445067899,0,0.0,0.0,0.0,0.0,0.0,0.0,0.0,0.0,0.0,0.0,0.0,0.0,0.0,1500,1500,0.0,0.0,40.0483078333,-88.2331648333,0.0,0.0,0.0,0.0,0.0,0.0,0.0,0.0,0.0,0.0,0.0,0,0.0,0.0,0.0,0.0,90.0,63.0,90.0,89.6997299194,119.0479049683,89.5724029541,36.2999992371,15.2119750977,3.0700001717000003,0,2,25,1,301,328
135,1530629904321,1817321, RC,0,39.9586186,-88.445067899,0,0.0,0.0,0.0,0.0,0.0,0.0,0.0,0.0,0.0,0.0,0.0,0.0,0.0,1500,1500,0.0,0.0,40.0483078333,-88.2331648333,0.0,0.0,0.0,0.0,0.0,0.0,0.0,0.0,0.0,0.0,0.0,0,0.0,0.0,0.0,0.0,90.0,63.0,90.0,89.6997299194,116.7560577393,89.5724029541,36.2999992371,15.2119750977,3.0700001717000003,0,2,25,1,325,330
136,1530629904372,1817372, RC,0,39.9586186,-88.445067899,0,0.0,0.0,0.0,0.0,0.0,0.0,0.0,0.0,0.0,0.0,0.0,0.0,0.0,1500,1500,0.0,0.0,40.0483078333,-88.2331648333,0.0,0.0,0.0,0.0,0.0,0.0,0.0,0.0,0.0,0.0,0.0,0,0.0,0.0,0.0,0.0,90.0,63.0,90.0,89.6997299194,116.565071106,89.5724029541,36.2999992371,15.2119750977,3.0700001717000003,0,2,25,1,343,332
137,1530629904423,1817423, RC,0,39.9586186,-88.445067899,0,0.0,0.0,0.0,0.0,0.0,0.0,0.0,0.0,0.0,0.0,0.0,0.0,0.0,1500,1500,0.0,0.0,40.0483078333,-88.2331648333,0.0,0.0,0.0,0.0,0.0,0.0,0.0,0.0,0.0,0.0,0.0,0,0.0,0.0,0.0,0.0,90.0,63.0,90.0,89.6997299194,116.565071106,89.5724029541,36.2999992371,15.2119750977,3.0700001717000003,0,2,25,1,334,335
138,1530629904473,1817473, RC,0,39.9586186,-88.445067899,0,0.0,0.0,0.0,0.0,0.0,0.0,0.0,0.0,0.0,0.0,0.0,0.0,0.0,1500,1500,0.0,0.0,40.0483078333,-88.2331648333,0.0,0.0,0.0,0.0,0.0,0.0,0.0,0.0,0.0,0.0,0.0,0,0.0,0.0,0.0,0.0,90.0,63.0,90.0,89.6997299194,116.565071106,89.5724029541,36.2999992371,15.2119750977,3.0700001717000003,0,2,25,1,347,337
139,1530629904524,1817524, RC,0,39.9586186,-88.445067899,0,0.0,0.0,0.0,0.0,0.0,0.0,0.0,0.0,0.0,0.0,0.0,0.0,0.0,1500,1500,0.0,0.0,40.0483078333,-88.2331648333,0.0,0.0,0.0,0.0,0.0,0.0,0.0,0.0,0.0,0.0,0.0,0,0.0,0.0,0.0,0.0,90.0,63.0,90.0,89.6997299194,116.565071106,89.5724029541,36.2999992371,15.2119750977,3.0700001717000003,0,2,25,1,347,339
140,1530629904574,1817574, RC,0,39.9586186,-88.445067899,0,0.0,0.0,0.0,0.0,0.0,0.0,0.0,0.0,0.0,0.0,0.0,0.0,0.0,1500,1500,0.0,0.0,40.0483078333,-88.2331648333,0.0,0.0,0.0,0.0,0.0,0.0,0.0,0.0,0.0,0.0,0.0,0,0.0,0.0,0.0,0.0,90.0,63.0,90.0,89.6997299194,116.5014190674,89.5724029541,36.2999992371,15.2119750977,3.0700001717000003,0,2,25,1,354,341
141,1530629904625,1817625, RC,0,39.9586186,-88.445067899,0,0.0,0.0,0.0,0.0,0.0,0.0,0.0,0.0,0.0,0.0,0.0,0.0,0.0,1500,1500,0.0,0.0,40.0483078333,-88.2331648333,0.0,0.0,0.0,0.0,0.0,0.0,0.0,0.0,0.0,0.0,0.0,0,0.0,0.0,0.0,0.0,90.0,63.0,90.0,89.6997299194,116.565071106,89.5724029541,36.2999992371,15.2119750977,3.0700001717000003,0,2,25,1,351,343
142,1530629904676,1817676, RC,0,39.9586186,-88.445067899,0,0.0,0.0,0.0,0.0,0.0,0.0,0.0,0.0,0.0,0.0,0.0,0.0,0.0,1500,1500,0.0,0.0,40.0483078333,-88.2331648333,0.0,0.0,0.0,0.0,0.0,0.0,0.0,0.0,0.0,0.0,0.0,0,0.0,0.0,0.0,0.0,90.0,63.0,90.0,89.6997299194,116.5014190674,89.5724029541,36.2999992371,15.2119750977,3.0700001717000003,0,2,25,1,341,345
143,1530629904726,1817726, RC,0,39.9586186,-88.445067899,0,0.0,0.0,0.0,0.0,0.0,0.0,0.0,0.0,0.0,0.0,0.0,0.0,0.0,1500,1500,0.0,0.0,40.0483078333,-88.2331648333,0.0,0.0,0.0,0.0,0.0,0.0,0.0,0.0,0.0,0.0,0.0,0,0.0,0.0,0.0,0.0,90.0,63.0,90.0,89.6997299194,116.5014190674,89.5724029541,36.2999992371,15.2119750977,3.0700001717000003,0,2,25,1,333,347
144,1530629904777,1817777, RC,0,39.9586186,-88.445067899,0,0.0,0.0,0.0,0.0,0.0,0.0,0.0,0.0,0.0,0.0,0.0,0.0,0.0,1500,1500,0.0,0.0,40.0483078333,-88.2331648333,0.0,0.0,0.0,0.0,0.0,0.0,0.0,0.0,0.0,0.0,0.0,0,0.0,0.0,0.0,0.0,90.0,63.0,90.0,89.6997299194,116.5014190674,89.5724029541,36.2999992371,15.2119750977,3.0700001717000003,0,2,25,1,340,349
145,1530629904827,1817827, RC,0,39.9586186,-88.445067899,0,0.0,0.0,0.0,0.0,0.0,0.0,0.0,0.0,0.0,0.0,0.0,0.0,0.0,1500,1500,0.0,0.0,40.0483078333,-88.2331648333,0.0,0.0,0.0,0.0,0.0,0.0,0.0,0.0,0.0,0.0,0.0,0,0.0,0.0,0.0,0.0,90.0,63.0,90.0,89.6997299194,116.5014190674,89.5724029541,36.2999992371,15.2119750977,3.0700001717000003,0,2,25,1,346,351
146,1530629904878,1817878, RC,0,39.9586186,-88.445067899,0,0.0,0.0,0.0,0.0,0.0,0.0,0.0,0.0,0.0,0.0,0.0,0.0,0.0,1500,1500,0.0,0.0,40.0483078333,-88.2331648333,0.0,0.0,0.0,0.0,0.0,0.0,0.0,0.0,0.0,0.0,0.0,0,0.0,0.0,0.0,0.0,90.0,63.0,90.0,89.6997299194,116.5014190674,89.5724029541,36.2999992371,15.2119750977,3.0700001717000003,0,2,25,1,331,353
147,1530629904928,1817928, RC,0,39.9586186,-88.445067899,0,0.0,0.0,0.0,0.0,0.0,0.0,0.0,0.0,0.0,0.0,0.0,0.0,0.0,1500,1500,0.0,0.0,40.0483078333,-88.2331648333,0.0,0.0,0.0,0.0,0.0,0.0,0.0,0.0,0.0,0.0,0.0,0,0.0,0.0,0.0,0.0,90.0,63.0,90.0,89.6997299194,116.5014190674,89.5724029541,36.2999992371,15.2125091553,3.2899999619,0,2,25,1,333,355
148,1530629904979,1817979, RC,0,39.9586186,-88.445067899,0,0.0,0.0,0.0,0.0,0.0,0.0,0.0,0.0,0.0,0.0,0.0,0.0,0.0,1500,1500,0.0,0.0,40.0483078333,-88.2331648333,0.0,0.0,0.0,0.0,0.0,0.0,0.0,0.0,0.0,0.0,0.0,0,0.0,0.0,0.0,0.0,90.0,63.0,90.0,89.6997299194,116.5014190674,89.5724029541,36.2999992371,15.2125091553,3.2899999619,0,2,25,1,323,357
149,1530629905030,1818030, RC,0,39.9586186,-88.445067899,0,0.0,0.0,0.0,0.0,0.0,0.0,0.0,0.0,0.0,0.0,0.0,0.0,0.0,1500,1500,0.0,0.0,40.048308,-88.233165,0.0,0.0,0.0,0.0,0.0,0.0,0.0,0.0,0.0,0.0,0.0,0,0.0,0.0,0.0,0.0,90.0,63.0,90.0,89.6997299194,116.5014190674,89.5724029541,36.2999992371,15.2125091553,3.2899999619,0,2,25,1,346,360
150,1530629905080,1818080, RC,0,39.9586186,-88.445067899,0,0.0,0.0,0.0,0.0,0.0,0.0,0.0,0.0,0.0,0.0,0.0,0.0,0.0,1500,1500,0.0,0.0,40.048308,-88.233165,0.0,0.0,0.0,0.0,0.0,0.0,0.0,0.0,0.0,0.0,0.0,0,0.0,0.0,0.0,0.0,90.0,63.0,90.0,89.6997299194,116.5014190674,89.5724029541,36.2999992371,15.2125091553,3.2899999619,0,2,25,1,331,362
151,1530629905131,1818131, RC,0,39.9586186,-88.445067899,0,0.0,0.0,0.0,0.0,0.0,0.0,0.0,0.0,0.0,0.0,0.0,0.0,0.0,1500,1500,0.0,0.0,40.048308,-88.233165,0.0,0.0,0.0,0.0,0.0,0.0,0.0,0.0,0.0,0.0,0.0,0,0.0,0.0,0.0,0.0,90.0,63.0,90.0,89.6997299194,116.5014190674,89.5724029541,36.2999992371,15.2125091553,3.2899999619,0,2,25,1,337,364
152,1530629905181,1818181, RC,0,39.9586186,-88.445067899,0,0.0,0.0,0.0,0.0,0.0,0.0,0.0,0.0,0.0,0.0,0.0,0.0,0.0,1500,1500,0.0,0.0,40.048308,-88.233165,0.0,0.0,0.0,0.0,0.0,0.0,0.0,0.0,0.0,0.0,0.0,0,0.0,0.0,0.0,0.0,90.0,63.0,90.0,89.6997299194,116.5014190674,89.5724029541,36.2999992371,15.2125091553,3.2899999619,0,2,25,1,339,366
153,1530629905232,1818232, RC,0,39.9586186,-88.445067899,0,0.0,0.0,0.0,0.0,0.0,0.0,0.0,0.0,0.0,0.0,0.0,0.0,0.0,1500,1500,0.0,0.0,40.048308,-88.233165,0.0,0.0,0.0,0.0,0.0,0.0,0.0,0.0,0.0,0.0,0.0,0,0.0,0.0,0.0,0.0,90.0,63.0,90.0,89.6997299194,116.5014190674,89.5724029541,36.2999992371,15.2125091553,3.2899999619,0,2,25,1,322,368
154,1530629905282,1818282, RC,0,39.9586186,-88.445067899,0,0.0,0.0,0.0,0.0,0.0,0.0,0.0,0.0,0.0,0.0,0.0,0.0,0.0,1500,1500,0.0,0.0,40.048308,-88.233165,0.0,0.0,0.0,0.0,0.0,0.0,0.0,0.0,0.0,0.0,0.0,0,0.0,0.0,0.0,0.0,90.0,63.0,90.0,89.6997299194,116.5014190674,89.5724029541,36.2999992371,15.2125091553,3.2899999619,0,2,25,1,341,370
155,1530629905333,1818333, RC,0,39.9586186,-88.445067899,0,0.0,0.0,0.0,0.0,0.0,0.0,0.0,0.0,0.0,0.0,0.0,0.0,0.0,1500,1500,0.0,0.0,40.048308,-88.233165,0.0,0.0,0.0,0.0,0.0,0.0,0.0,0.0,0.0,0.0,0.0,0,0.0,0.0,0.0,0.0,90.0,63.0,90.0,89.6997299194,116.5014190674,89.5724029541,36.2999992371,15.2125091553,3.2899999619,0,2,25,1,325,372
156,1530629905384,1818384, RC,0,39.9586186,-88.445067899,0,0.0,0.0,0.0,0.0,0.0,0.0,0.0,0.0,0.0,0.0,0.0,0.0,0.0,1500,1500,0.0,0.0,40.048308,-88.233165,0.0,0.0,0.0,0.0,0.0,0.0,0.0,0.0,0.0,0.0,0.0,0,0.0,0.0,0.0,0.0,90.0,63.0,90.0,89.6997299194,116.5014190674,89.5724029541,36.2999992371,15.2125091553,3.2899999619,0,2,25,1,342,374
157,1530629905434,1818434, RC,0,39.9586186,-88.445067899,0,0.0,0.0,0.0,0.0,0.0,0.0,0.0,0.0,0.0,0.0,0.0,0.0,0.0,1500,1500,0.0,0.0,40.048308,-88.233165,0.0,0.0,0.0,0.0,0.0,0.0,0.0,0.0,0.0,0.0,0.0,0,0.0,0.0,0.0,0.0,90.0,63.0,90.0,89.6997299194,116.5014190674,89.5724029541,36.2999992371,15.2125091553,3.2899999619,0,2,25,1,332,376
158,1530629905485,1818485, RC,0,39.9586186,-88.445067899,0,0.0,0.0,0.0,0.0,0.0,0.0,0.0,0.0,0.0,0.0,0.0,0.0,0.0,1500,1500,0.0,0.0,40.048308,-88.233165,0.0,0.0,0.0,0.0,0.0,0.0,0.0,0.0,0.0,0.0,0.0,0,0.0,0.0,0.0,0.0,90.0,63.0,90.0,89.6997299194,116.5014190674,89.5724029541,36.2999992371,15.2125091553,3.2899999619,0,2,25,1,342,378
159,1530629905536,1818536, RC,0,39.9586186,-88.445067899,0,0.0,0.0,0.0,0.0,0.0,0.0,0.0,0.0,0.0,0.0,0.0,0.0,0.0,1500,1500,0.0,0.0,40.048308,-88.233165,0.0,0.0,0.0,0.0,0.0,0.0,0.0,0.0,0.0,0.0,0.0,0,0.0,0.0,0.0,0.0,90.0,63.0,90.0,89.6997299194,116.5014190674,89.5724029541,36.2999992371,15.2125091553,3.2899999619,0,2,25,1,337,380
160,1530629905587,1818587, RC,0,39.9586186,-88.445067899,0,0.0,0.0,0.0,0.0,0.0,0.0,0.0,0.0,0.0,0.0,0.0,0.0,0.0,1500,1500,0.0,0.0,40.048308,-88.233165,0.0,0.0,0.0,0.0,0.0,0.0,0.0,0.0,0.0,0.0,0.0,0,0.0,0.0,0.0,0.0,90.0,63.0,90.0,89.6997299194,116.5014190674,89.5724029541,36.2999992371,15.2125091553,3.2899999619,0,2,25,1,356,383
161,1530629905637,1818637, RC,0,39.9586186,-88.445067899,0,0.0,0.0,0.0,0.0,0.0,0.0,0.0,0.0,0.0,0.0,0.0,0.0,0.0,1500,1500,0.0,0.0,40.048308,-88.233165,0.0,0.0,0.0,0.0,0.0,0.0,0.0,0.0,0.0,0.0,0.0,0,0.0,0.0,0.0,0.0,90.0,63.0,90.0,89.6997299194,116.5014190674,89.5724029541,36.2999992371,15.2125091553,3.2899999619,0,2,25,1,335,385
162,1530629905688,1818688, RC,0,39.9586186,-88.445067899,0,0.0,0.0,0.0,0.0,0.0,0.0,0.0,0.0,0.0,0.0,0.0,0.0,0.0,1500,1500,0.0,0.0,40.048308,-88.233165,0.0,0.0,0.0,0.0,0.0,0.0,0.0,0.0,0.0,0.0,0.0,0,0.0,0.0,0.0,0.0,90.0,63.0,90.0,89.6997299194,116.5014190674,89.5724029541,36.2999992371,15.2125091553,3.2899999619,0,2,25,1,331,387
163,1530629905738,1818738, RC,0,39.9586186,-88.445067899,0,0.0,0.0,0.0,0.0,0.0,0.0,0.0,0.0,0.0,0.0,0.0,0.0,0.0,1500,1500,0.0,0.0,40.048308,-88.233165,0.0,0.0,0.0,0.0,0.0,0.0,0.0,0.0,0.0,0.0,0.0,0,0.0,0.0,0.0,0.0,90.0,60.0,90.0,89.6997299194,116.5014190674,89.5724029541,36.2999992371,15.2125091553,3.2899999619,0,2,25,1,344,389
164,1530629905789,1818789, RC,0,39.9586186,-88.445067899,0,0.0,0.0,0.0,0.0,0.0,0.0,0.0,0.0,0.0,0.0,0.0,0.0,0.0,1500,1500,0.0,0.0,40.048308,-88.233165,0.0,0.0,0.0,0.0,0.0,0.0,0.0,0.0,0.0,0.0,0.0,0,0.0,0.0,0.0,0.0,90.0,60.0,90.0,89.6997299194,116.9470443726,89.5724029541,36.2999992371,15.2125091553,3.2899999619,0,2,25,1,335,391
165,1530629905839,1818839, RC,0,39.9586186,-88.445067899,0,0.0,0.0,0.0,0.0,0.0,0.0,0.0,0.0,0.0,0.0,0.0,0.0,0.0,1500,1500,0.0,0.0,40.048308,-88.233165,0.0,0.0,0.0,0.0,0.0,0.0,0.0,0.0,0.0,0.0,0.0,0,0.0,0.0,0.0,0.0,90.0,60.0,90.0,89.6997299194,118.2202911377,89.5724029541,36.2999992371,15.2125091553,3.2899999619,0,2,25,1,321,393
166,1530629905890,1818890, RC,0,39.9586186,-88.445067899,0,0.0,0.0,0.0,0.0,0.0,0.0,0.0,0.0,0.0,0.0,0.0,0.0,0.0,1500,1500,0.0,0.0,40.048308,-88.233165,0.0,0.0,0.0,0.0,0.0,0.0,0.0,0.0,0.0,0.0,0.0,0,0.0,0.0,0.0,0.0,90.0,60.0,90.0,89.6997299194,119.42987060549999,89.5724029541,36.2999992371,15.2127685547,2.9000000954000003,0,2,25,1,344,395
