,(0)linux time (ms),    (1)uptime  (ms),      (2)drive mode,(3)mpc step counter,(4)mpc origin latitude  (deg),(5)mpc origin longitude  (deg),(6)closest trajectory point index to robot,(7)mpc error x (W;E)  (m),(8)mpc error y (W;E)  (m),(9)abs mpc error (m),(10)input [x] for mhe (m),(11)input [y] for mhe (m),(12)input [speed] for mhe (m/s),(13)input [vyaw] for mhe (rad/s),(14)mhe output x  (m),(15)mhe output y  (m),(16)mhe output speed  (m/s),(17)mhe output yaw  (rad),(18)mpc reference heading (rad),(19)mpc turn rate command (rad/s),(20)turn rate command as PWM,(21)throttle command as PWM,(22)primary gps latitude (deg),(23)primary gps longitude (deg),(24)secondary gps latitude  (deg),(25)secondary gps longitude (deg),(26)accelerometer x (m/s^2),(27)accelerometer y (m/s^2),(28)accelerometer z (m/s^2),(29)gyro yaw rate (rad/s),(30)gyro pitch rate   (rad/s),(31)gyro roll rate (rad/s),      (32)yaw (rad),  (33)pitch   (rad),     (34)roll (rad),(35)sonar1 measurement (m),(36)ultrasonic sensor measurement (m),(37)primary gps time (s),(38)normalized turn rate command,(39)normalized throttle command,(40)speed calculation from encoder left (m/s),(41)speed calculation from encoder right (m/s),(42)front gimbal target angle (degrees from straight down),(43)left gimbal target angle  (degrees from straight down),(44)right gimbal target angle  (degrees from straight down),(45)front gimbal measured angle  (degrees from straight down),(46)left gimbal measured angle    (degrees from straight down),(47)right gimbal measured angle  (degrees from straight down),(48)internal temperature (C),(49)battery voltage (V),(50)primary gps type,(51)secondary gps type,    (52)MPC R value, (53)MPC Q[0] value,Unnamed: 54,weed_num,start
0,1530630780666,2693666, RC,0,39.9586186,-88.445067899,0,0.0,0.0,0.0,0.0,0.0,0.0,0.0,0.0,0.0,0.0,0.0,0.0,0.0,1500,1500,0.0,0.0,40.0483381667,-88.233158,0.0,0.0,0.0,0.0,0.0,0.0,0.0,0.0,0.0,0.0,0.0,0,0.0,0.0,0.0,0.0,90.0,90.0,90.0,89.8907089233,89.6997299194,90.01803588870001,41.679000854499996,15.0392351151,1.6899999380000001,0,2,25,1,210,8
1,1530630780716,2693716, RC,0,39.9586186,-88.445067899,0,0.0,0.0,0.0,0.0,0.0,0.0,0.0,0.0,0.0,0.0,0.0,0.0,0.0,1500,1500,0.0,0.0,40.0483381667,-88.233158,0.0,0.0,0.0,0.0,0.0,0.0,0.0,0.0,0.0,0.0,0.0,0,0.0,0.0,0.0,0.0,90.0,90.0,90.0,89.8907089233,89.6997299194,90.01803588870001,41.679000854499996,15.0392351151,1.6899999380000001,0,2,25,1,194,11
2,1530630780766,2693766, RC,0,39.9586186,-88.445067899,0,0.0,0.0,0.0,0.0,0.0,0.0,0.0,0.0,0.0,0.0,0.0,0.0,0.0,1500,1500,0.0,0.0,40.0483381667,-88.233158,0.0,0.0,0.0,0.0,0.0,0.0,0.0,0.0,0.0,0.0,0.0,0,0.0,0.0,0.0,0.0,90.0,90.0,90.0,89.8907089233,89.63606262209998,90.0816955566,41.679000854499996,15.0392351151,1.6899999380000001,0,2,25,1,201,13
3,1530630780817,2693817, RC,0,39.9586186,-88.445067899,0,0.0,0.0,0.0,0.0,0.0,0.0,0.0,0.0,0.0,0.0,0.0,0.0,0.0,1500,1500,0.0,0.0,40.0483353333,-88.2331578333,0.0,0.0,0.0,0.0,0.0,0.0,0.0,0.0,0.0,0.0,0.0,0,0.0,0.0,0.0,0.0,90.0,90.0,90.0,89.8907089233,89.6997299194,90.0816955566,41.679000854499996,15.0392351151,1.6899999380000001,0,2,25,1,190,16
4,1530630780867,2693867, RC,0,39.9586186,-88.445067899,0,0.0,0.0,0.0,0.0,0.0,0.0,0.0,0.0,0.0,0.0,0.0,0.0,0.0,1500,1500,0.0,0.0,40.0483353333,-88.2331578333,0.0,0.0,0.0,0.0,0.0,0.0,0.0,0.0,0.0,0.0,0.0,0,0.0,0.0,0.0,0.0,90.0,90.0,90.0,89.8907089233,89.6997299194,90.0816955566,41.679000854499996,15.0392351151,1.6899999380000001,0,2,25,1,165,18
5,1530630780917,2693917, RC,0,39.9586186,-88.445067899,0,0.0,0.0,0.0,0.0,0.0,0.0,0.0,0.0,0.0,0.0,0.0,0.0,0.0,1500,1500,0.0,0.0,40.0483353333,-88.2331578333,0.0,0.0,0.0,0.0,0.0,0.0,0.0,0.0,0.0,0.0,0.0,0,0.0,0.0,0.0,0.0,90.0,90.0,90.0,89.8907089233,89.63606262209998,90.0816955566,41.679000854499996,15.0392351151,1.6899999380000001,0,2,25,1,174,21
6,1530630780968,2693968, RC,0,39.9586186,-88.445067899,0,0.0,0.0,0.0,0.0,0.0,0.0,0.0,0.0,0.0,0.0,0.0,0.0,0.0,1500,1500,0.0,0.0,40.0483353333,-88.2331578333,0.0,0.0,0.0,0.0,0.0,0.0,0.0,0.0,0.0,0.0,0.0,0,0.0,0.0,0.0,0.0,90.0,90.0,90.0,89.8907089233,89.63606262209998,89.63606262209998,41.679000854499996,15.0392351151,1.6899999380000001,0,2,25,1,182,23
7,1530630781018,2694018, RC,0,39.9586186,-88.445067899,0,0.0,0.0,0.0,0.0,0.0,0.0,0.0,0.0,0.0,0.0,0.0,0.0,0.0,1500,1500,0.0,0.0,40.0483353333,-88.2331578333,0.0,0.0,0.0,0.0,0.0,0.0,0.0,0.0,0.0,0.0,0.0,0,0.0,0.0,0.0,0.0,90.0,90.0,90.0,89.8907089233,89.63606262209998,89.5724029541,41.679000854499996,15.0392351151,1.6899999380000001,0,2,25,1,183,26
8,1530630781068,2694068, RC,0,39.9586186,-88.445067899,0,0.0,0.0,0.0,0.0,0.0,0.0,0.0,0.0,0.0,0.0,0.0,0.0,0.0,1500,1500,0.0,0.0,40.0483353333,-88.2331578333,0.0,0.0,0.0,0.0,0.0,0.0,0.0,0.0,0.0,0.0,0.0,0,0.0,0.0,0.0,0.0,90.0,90.0,90.0,89.8907089233,89.63606262209998,89.63606262209998,41.679000854499996,15.0392351151,1.6899999380000001,0,2,25,1,185,28
9,1530630781118,2694118, RC,0,39.9586186,-88.445067899,0,0.0,0.0,0.0,0.0,0.0,0.0,0.0,0.0,0.0,0.0,0.0,0.0,0.0,1500,1500,0.0,0.0,40.0483353333,-88.2331578333,0.0,0.0,0.0,0.0,0.0,0.0,0.0,0.0,0.0,0.0,0.0,0,0.0,0.0,0.0,0.0,90.0,90.0,90.0,89.8907089233,89.6997299194,89.63606262209998,41.679000854499996,15.0392351151,1.6899999380000001,0,2,25,1,180,30
10,1530630781169,2694169, RC,0,39.9586186,-88.445067899,0,0.0,0.0,0.0,0.0,0.0,0.0,0.0,0.0,0.0,0.0,0.0,0.0,0.0,1500,1500,0.0,0.0,40.0483353333,-88.2331578333,0.0,0.0,0.0,0.0,0.0,0.0,0.0,0.0,0.0,0.0,0.0,0,0.0,0.0,0.0,0.0,90.0,90.0,90.0,89.8907089233,89.6997299194,89.63606262209998,41.679000854499996,15.0345363617,3.0700001717000003,0,2,25,1,188,32
11,1530630781219,2694219, RC,0,39.9586186,-88.445067899,0,0.0,0.0,0.0,0.0,0.0,0.0,0.0,0.0,0.0,0.0,0.0,0.0,0.0,1500,1500,0.0,0.0,40.0483353333,-88.2331578333,0.0,0.0,0.0,0.0,0.0,0.0,0.0,0.0,0.0,0.0,0.0,0,0.0,0.0,0.0,0.0,90.0,90.0,90.0,89.8907089233,89.6997299194,89.63606262209998,41.679000854499996,15.0345363617,3.0700001717000003,0,2,25,1,175,34
12,1530630781270,2694270, RC,0,39.9586186,-88.445067899,0,0.0,0.0,0.0,0.0,0.0,0.0,0.0,0.0,0.0,0.0,0.0,0.0,0.0,1500,1500,0.0,0.0,40.0483353333,-88.2331578333,0.0,0.0,0.0,0.0,0.0,0.0,0.0,0.0,0.0,0.0,0.0,0,0.0,0.0,0.0,0.0,90.0,90.0,84.0,89.8907089233,89.6997299194,89.6997299194,41.679000854499996,15.0345363617,3.0700001717000003,0,2,25,1,180,36
13,1530630781320,2694320, RC,0,39.9586186,-88.445067899,0,0.0,0.0,0.0,0.0,0.0,0.0,0.0,0.0,0.0,0.0,0.0,0.0,0.0,1500,1500,0.0,0.0,40.0483353333,-88.2331578333,0.0,0.0,0.0,0.0,0.0,0.0,0.0,0.0,0.0,0.0,0.0,0,0.0,0.0,0.0,0.0,90.0,90.0,84.0,89.8907089233,89.6997299194,89.6997299194,41.679000854499996,15.0345363617,3.0700001717000003,0,2,25,1,188,38
14,1530630781370,2694370, RC,0,39.9586186,-88.445067899,0,0.0,0.0,0.0,0.0,0.0,0.0,0.0,0.0,0.0,0.0,0.0,0.0,0.0,1500,1500,0.0,0.0,40.0483353333,-88.2331578333,0.0,0.0,0.0,0.0,0.0,0.0,0.0,0.0,0.0,0.0,0.0,0,0.0,0.0,0.0,0.0,90.0,90.0,84.0,89.8907089233,89.63606262209998,90.5909881592,41.679000854499996,15.0345363617,3.0700001717000003,0,2,25,1,176,40
15,1530630781421,2694421, RC,0,39.9586186,-88.445067899,0,0.0,0.0,0.0,0.0,0.0,0.0,0.0,0.0,0.0,0.0,0.0,0.0,0.0,1500,1500,0.0,0.0,40.0483353333,-88.2331578333,0.0,0.0,0.0,0.0,0.0,0.0,0.0,0.0,0.0,0.0,0.0,0,0.0,0.0,0.0,0.0,90.0,90.0,84.0,89.8907089233,89.63606262209998,97.4028244019,41.679000854499996,15.0345363617,3.0700001717000003,0,2,25,1,166,43
16,1530630781471,2694471, RC,0,39.9586186,-88.445067899,0,0.0,0.0,0.0,0.0,0.0,0.0,0.0,0.0,0.0,0.0,0.0,0.0,0.0,1500,1500,0.0,0.0,40.0483353333,-88.2331578333,0.0,0.0,0.0,0.0,0.0,0.0,0.0,0.0,0.0,0.0,0.0,0,0.0,0.0,0.0,0.0,90.0,90.0,72.0,89.8907089233,89.63606262209998,97.46648406979999,41.679000854499996,15.0345363617,3.0700001717000003,0,2,25,1,171,45
17,1530630781521,2694521, RC,0,39.9586186,-88.445067899,0,0.0,0.0,0.0,0.0,0.0,0.0,0.0,0.0,0.0,0.0,0.0,0.0,0.0,1500,1500,0.0,0.0,40.0483353333,-88.2331578333,0.0,0.0,0.0,0.0,0.0,0.0,0.0,0.0,0.0,0.0,0.0,0,0.0,0.0,0.0,0.0,90.0,90.0,72.0,89.8907089233,89.63606262209998,97.65747070309999,41.679000854499996,15.0345363617,3.0700001717000003,0,2,25,1,195,47
18,1530630781571,2694571, RC,0,39.9586186,-88.445067899,0,0.0,0.0,0.0,0.0,0.0,0.0,0.0,0.0,0.0,0.0,0.0,0.0,0.0,1500,1500,0.0,0.0,40.0483353333,-88.2331578333,0.0,0.0,0.0,0.0,0.0,0.0,0.0,0.0,0.0,0.0,0.0,0,0.0,0.0,0.0,0.0,90.0,90.0,70.0,89.8907089233,89.63606262209998,105.80620574950001,41.679000854499996,15.0345363617,3.0700001717000003,0,2,25,1,176,49
19,1530630781622,2694622, RC,0,39.9586186,-88.445067899,0,0.0,0.0,0.0,0.0,0.0,0.0,0.0,0.0,0.0,0.0,0.0,0.0,0.0,1500,1500,0.0,0.0,40.0483353333,-88.2331578333,0.0,0.0,0.0,0.0,0.0,0.0,0.0,0.0,0.0,0.0,0.0,0,0.0,0.0,0.0,0.0,90.0,90.0,70.0,89.8907089233,89.63606262209998,110.64451599120001,41.679000854499996,15.0345363617,3.0700001717000003,0,2,25,1,177,51
20,1530630781672,2694672, RC,0,39.9586186,-88.445067899,0,0.0,0.0,0.0,0.0,0.0,0.0,0.0,0.0,0.0,0.0,0.0,0.0,0.0,1500,1500,0.0,0.0,40.0483353333,-88.2331578333,0.0,0.0,0.0,0.0,0.0,0.0,0.0,0.0,0.0,0.0,0.0,0,0.0,0.0,0.0,0.0,90.0,90.0,70.0,89.8907089233,89.63606262209998,110.5808486938,41.679000854499996,15.0345363617,3.0700001717000003,0,2,25,1,192,53
21,1530630781722,2694722, RC,0,39.9586186,-88.445067899,0,0.0,0.0,0.0,0.0,0.0,0.0,0.0,0.0,0.0,0.0,0.0,0.0,0.0,1500,1500,0.0,0.0,40.0483353333,-88.2331578333,0.0,0.0,0.0,0.0,0.0,0.0,0.0,0.0,0.0,0.0,0.0,0,0.0,0.0,0.0,0.0,90.0,90.0,70.0,89.8907089233,89.63606262209998,110.64451599120001,41.679000854499996,15.0345363617,3.0700001717000003,0,2,25,1,189,55
22,1530630781773,2694773, RC,0,39.9586186,-88.445067899,0,0.0,0.0,0.0,0.0,0.0,0.0,0.0,0.0,0.0,0.0,0.0,0.0,0.0,1500,1500,0.0,0.0,40.0483353333,-88.2331578333,0.0,0.0,0.0,0.0,0.0,0.0,0.0,0.0,0.0,0.0,0.0,0,0.0,0.0,0.0,0.0,90.0,90.0,70.0,89.8907089233,89.63606262209998,110.3898620605,41.679000854499996,15.0345363617,3.0700001717000003,0,2,25,1,140,57
23,1530630781823,2694823, RC,0,39.9586186,-88.445067899,0,0.0,0.0,0.0,0.0,0.0,0.0,0.0,0.0,0.0,0.0,0.0,0.0,0.0,1500,1500,0.0,0.0,40.0483388333,-88.2331561667,0.0,0.0,0.0,0.0,0.0,0.0,0.0,0.0,0.0,0.0,0.0,0,0.0,0.0,0.0,0.0,90.0,90.0,70.0,89.8907089233,89.63606262209998,110.3898620605,41.679000854499996,15.0345363617,3.0700001717000003,0,2,25,1,149,59
24,1530630781873,2694873, RC,0,39.9586186,-88.445067899,0,0.0,0.0,0.0,0.0,0.0,0.0,0.0,0.0,0.0,0.0,0.0,0.0,0.0,1500,1500,0.0,0.0,40.0483388333,-88.2331561667,0.0,0.0,0.0,0.0,0.0,0.0,0.0,0.0,0.0,0.0,0.0,0,0.0,0.0,0.0,0.0,90.0,90.0,69.0,89.8907089233,89.63606262209998,110.45352935790001,41.679000854499996,15.0345363617,3.0700001717000003,0,2,25,1,153,61
25,1530630781924,2694924, RC,0,39.9586186,-88.445067899,0,0.0,0.0,0.0,0.0,0.0,0.0,0.0,0.0,0.0,0.0,0.0,0.0,0.0,1500,1500,0.0,0.0,40.0483388333,-88.2331561667,0.0,0.0,0.0,0.0,0.0,0.0,0.0,0.0,0.0,0.0,0.0,0,0.0,0.0,0.0,0.0,90.0,90.0,69.0,89.8907089233,89.63606262209998,110.13522338870001,41.679000854499996,15.0345363617,3.0700001717000003,0,2,25,1,149,63
26,1530630781974,2694974, RC,0,39.9586186,-88.445067899,0,0.0,0.0,0.0,0.0,0.0,0.0,0.0,0.0,0.0,0.0,0.0,0.0,0.0,1500,1500,0.0,0.0,40.0483388333,-88.2331561667,0.0,0.0,0.0,0.0,0.0,0.0,0.0,0.0,0.0,0.0,0.0,0,0.0,0.0,0.0,0.0,90.0,90.0,69.0,89.8907089233,89.63606262209998,110.13522338870001,41.679000854499996,15.0345363617,3.0700001717000003,0,2,25,1,142,65
27,1530630782024,2695024, RC,0,39.9586186,-88.445067899,0,0.0,0.0,0.0,0.0,0.0,0.0,0.0,0.0,0.0,0.0,0.0,0.0,0.0,1500,1500,0.0,0.0,40.0483388333,-88.2331561667,0.0,0.0,0.0,0.0,0.0,0.0,0.0,0.0,0.0,0.0,0.0,0,0.0,0.0,0.0,0.0,90.0,90.0,69.0,89.8907089233,89.6997299194,110.1988830566,41.679000854499996,15.0345363617,3.0700001717000003,0,2,25,1,161,67
28,1530630782075,2695075, RC,0,39.9586186,-88.445067899,0,0.0,0.0,0.0,0.0,0.0,0.0,0.0,0.0,0.0,0.0,0.0,0.0,0.0,1500,1500,0.0,0.0,40.0483388333,-88.2331561667,0.0,0.0,0.0,0.0,0.0,0.0,0.0,0.0,0.0,0.0,0.0,0,0.0,0.0,0.0,0.0,90.0,90.0,69.0,89.8907089233,89.6997299194,110.1988830566,41.679000854499996,15.0345363617,3.0700001717000003,0,2,25,1,189,69
29,1530630782125,2695125, RC,0,39.9586186,-88.445067899,0,0.0,0.0,0.0,0.0,0.0,0.0,0.0,0.0,0.0,0.0,0.0,0.0,0.0,1500,1500,0.0,0.0,40.0483388333,-88.2331561667,0.0,0.0,0.0,0.0,0.0,0.0,0.0,0.0,0.0,0.0,0.0,0,0.0,0.0,0.0,0.0,90.0,90.0,69.0,89.8907089233,89.63606262209998,110.1988830566,41.679000854499996,15.0345363617,3.0700001717000003,0,2,25,1,169,71
30,1530630782175,2695175, RC,0,39.9586186,-88.445067899,0,0.0,0.0,0.0,0.0,0.0,0.0,0.0,0.0,0.0,0.0,0.0,0.0,0.0,1500,1500,0.0,0.0,40.0483388333,-88.2331561667,0.0,0.0,0.0,0.0,0.0,0.0,0.0,0.0,0.0,0.0,0.0,0,0.0,0.0,0.0,0.0,90.0,90.0,69.0,89.8907089233,89.63606262209998,110.2625427246,41.679000854499996,15.029772758499998,2.629999876,0,2,25,1,171,73
31,1530630782226,2695226, RC,0,39.9586186,-88.445067899,0,0.0,0.0,0.0,0.0,0.0,0.0,0.0,0.0,0.0,0.0,0.0,0.0,0.0,1500,1500,0.0,0.0,40.0483388333,-88.2331561667,0.0,0.0,0.0,0.0,0.0,0.0,0.0,0.0,0.0,0.0,0.0,0,0.0,0.0,0.0,0.0,90.0,90.0,69.0,89.8907089233,89.63606262209998,110.2625427246,41.679000854499996,15.029772758499998,2.629999876,0,2,25,1,187,75
32,1530630782276,2695276, RC,0,39.9586186,-88.445067899,0,0.0,0.0,0.0,0.0,0.0,0.0,0.0,0.0,0.0,0.0,0.0,0.0,0.0,1500,1500,0.0,0.0,40.0483388333,-88.2331561667,0.0,0.0,0.0,0.0,0.0,0.0,0.0,0.0,0.0,0.0,0.0,0,0.0,0.0,0.0,0.0,90.0,90.0,69.0,89.8907089233,89.63606262209998,110.2625427246,41.679000854499996,15.029772758499998,2.629999876,0,2,25,1,175,77
33,1530630782326,2695326, RC,0,39.9586186,-88.445067899,0,0.0,0.0,0.0,0.0,0.0,0.0,0.0,0.0,0.0,0.0,0.0,0.0,0.0,1500,1500,0.0,0.0,40.0483388333,-88.2331561667,0.0,0.0,0.0,0.0,0.0,0.0,0.0,0.0,0.0,0.0,0.0,0,0.0,0.0,0.0,0.0,90.0,90.0,69.0,89.8907089233,89.6997299194,110.32621002200001,41.679000854499996,15.029772758499998,2.629999876,0,2,25,1,186,79
34,1530630782377,2695377, RC,0,39.9586186,-88.445067899,0,0.0,0.0,0.0,0.0,0.0,0.0,0.0,0.0,0.0,0.0,0.0,0.0,0.0,1500,1500,0.0,0.0,40.0483388333,-88.2331561667,0.0,0.0,0.0,0.0,0.0,0.0,0.0,0.0,0.0,0.0,0.0,0,0.0,0.0,0.0,0.0,90.0,90.0,67.0,89.8907089233,89.6997299194,110.32621002200001,41.679000854499996,15.029772758499998,2.629999876,0,2,25,1,184,81
35,1530630782427,2695427, RC,0,39.9586186,-88.445067899,0,0.0,0.0,0.0,0.0,0.0,0.0,0.0,0.0,0.0,0.0,0.0,0.0,0.0,1500,1500,0.0,0.0,40.0483388333,-88.2331561667,0.0,0.0,0.0,0.0,0.0,0.0,0.0,0.0,0.0,0.0,0.0,0,0.0,0.0,0.0,0.0,90.0,90.0,67.0,89.8907089233,89.6997299194,110.32621002200001,41.679000854499996,15.029772758499998,2.629999876,0,2,25,1,179,83
36,1530630782477,2695477, RC,0,39.9586186,-88.445067899,0,0.0,0.0,0.0,0.0,0.0,0.0,0.0,0.0,0.0,0.0,0.0,0.0,0.0,1500,1500,0.0,0.0,40.0483388333,-88.2331561667,0.0,0.0,0.0,0.0,0.0,0.0,0.0,0.0,0.0,0.0,0.0,0,0.0,0.0,0.0,0.0,90.0,90.0,66.0,89.8907089233,89.6997299194,110.3898620605,41.679000854499996,15.029772758499998,2.629999876,0,2,25,1,177,85
37,1530630782528,2695528, RC,0,39.9586186,-88.445067899,0,0.0,0.0,0.0,0.0,0.0,0.0,0.0,0.0,0.0,0.0,0.0,0.0,0.0,1500,1500,0.0,0.0,40.0483388333,-88.2331561667,0.0,0.0,0.0,0.0,0.0,0.0,0.0,0.0,0.0,0.0,0.0,0,0.0,0.0,0.0,0.0,90.0,90.0,66.0,89.8907089233,89.6997299194,112.2997283936,41.679000854499996,15.029772758499998,2.629999876,0,2,25,1,180,87
38,1530630782578,2695578, RC,0,39.9586186,-88.445067899,0,0.0,0.0,0.0,0.0,0.0,0.0,0.0,0.0,0.0,0.0,0.0,0.0,0.0,1500,1500,0.0,0.0,40.0483388333,-88.2331561667,0.0,0.0,0.0,0.0,0.0,0.0,0.0,0.0,0.0,0.0,0.0,0,0.0,0.0,0.0,0.0,90.0,90.0,66.0,89.8907089233,89.63606262209998,114.40057373049999,41.679000854499996,15.029772758499998,2.629999876,0,2,25,1,166,89
39,1530630782629,2695629, RC,0,39.9586186,-88.445067899,0,0.0,0.0,0.0,0.0,0.0,0.0,0.0,0.0,0.0,0.0,0.0,0.0,0.0,1500,1500,0.0,0.0,40.0483388333,-88.2331561667,0.0,0.0,0.0,0.0,0.0,0.0,0.0,0.0,0.0,0.0,0.0,0,0.0,0.0,0.0,0.0,90.0,90.0,66.0,89.8907089233,89.63606262209998,114.40057373049999,41.679000854499996,15.029772758499998,2.629999876,0,2,25,1,177,91
40,1530630782679,2695679, RC,0,39.9586186,-88.445067899,0,0.0,0.0,0.0,0.0,0.0,0.0,0.0,0.0,0.0,0.0,0.0,0.0,0.0,1500,1500,0.0,0.0,40.0483388333,-88.2331561667,0.0,0.0,0.0,0.0,0.0,0.0,0.0,0.0,0.0,0.0,0.0,0,0.0,0.0,0.0,0.0,90.0,90.0,66.0,89.8907089233,89.6997299194,114.40057373049999,41.679000854499996,15.029772758499998,2.629999876,0,2,25,1,189,93
41,1530630782729,2695729, RC,0,39.9586186,-88.445067899,0,0.0,0.0,0.0,0.0,0.0,0.0,0.0,0.0,0.0,0.0,0.0,0.0,0.0,1500,1500,0.0,0.0,40.0483388333,-88.2331561667,0.0,0.0,0.0,0.0,0.0,0.0,0.0,0.0,0.0,0.0,0.0,0,0.0,0.0,0.0,0.0,90.0,90.0,66.0,89.8907089233,89.6997299194,114.4642410278,41.679000854499996,15.029772758499998,2.629999876,0,2,25,1,183,95
42,1530630782780,2695780, RC,0,39.9586186,-88.445067899,0,0.0,0.0,0.0,0.0,0.0,0.0,0.0,0.0,0.0,0.0,0.0,0.0,0.0,1500,1500,0.0,0.0,40.0483388333,-88.2331561667,0.0,0.0,0.0,0.0,0.0,0.0,0.0,0.0,0.0,0.0,0.0,0,0.0,0.0,0.0,0.0,90.0,90.0,66.0,89.8907089233,89.6997299194,114.40057373049999,41.679000854499996,15.029772758499998,2.629999876,0,2,25,1,185,97
43,1530630782830,2695830, RC,0,39.9586186,-88.445067899,0,0.0,0.0,0.0,0.0,0.0,0.0,0.0,0.0,0.0,0.0,0.0,0.0,0.0,1500,1500,0.0,0.0,40.0483406667,-88.2331571667,0.0,0.0,0.0,0.0,0.0,0.0,0.0,0.0,0.0,0.0,0.0,0,0.0,0.0,0.0,0.0,90.0,90.0,66.0,89.8907089233,89.63606262209998,114.4642410278,41.679000854499996,15.029772758499998,2.629999876,0,2,25,1,188,99
44,1530630782880,2695880, RC,0,39.9586186,-88.445067899,0,0.0,0.0,0.0,0.0,0.0,0.0,0.0,0.0,0.0,0.0,0.0,0.0,0.0,1500,1500,0.0,0.0,40.0483406667,-88.2331571667,0.0,0.0,0.0,0.0,0.0,0.0,0.0,0.0,0.0,0.0,0.0,0,0.0,0.0,0.0,0.0,90.0,90.0,66.0,89.8907089233,89.63606262209998,114.4642410278,41.679000854499996,15.029772758499998,2.629999876,0,2,25,1,192,101
45,1530630782931,2695931, RC,0,39.9586186,-88.445067899,0,0.0,0.0,0.0,0.0,0.0,0.0,0.0,0.0,0.0,0.0,0.0,0.0,0.0,1500,1500,0.0,0.0,40.0483406667,-88.2331571667,0.0,0.0,0.0,0.0,0.0,0.0,0.0,0.0,0.0,0.0,0.0,0,0.0,0.0,0.0,0.0,90.0,90.0,66.0,89.8907089233,89.63606262209998,114.40057373049999,41.679000854499996,15.029772758499998,2.629999876,0,2,25,1,193,103
46,1530630782981,2695981, RC,0,39.9586186,-88.445067899,0,0.0,0.0,0.0,0.0,0.0,0.0,0.0,0.0,0.0,0.0,0.0,0.0,0.0,1500,1500,0.0,0.0,40.0483406667,-88.2331571667,0.0,0.0,0.0,0.0,0.0,0.0,0.0,0.0,0.0,0.0,0.0,0,0.0,0.0,0.0,0.0,90.0,90.0,64.0,89.8907089233,89.63606262209998,114.40057373049999,41.679000854499996,15.029772758499998,2.629999876,0,2,25,1,192,105
47,1530630783031,2696031, RC,0,39.9586186,-88.445067899,0,0.0,0.0,0.0,0.0,0.0,0.0,0.0,0.0,0.0,0.0,0.0,0.0,0.0,1500,1500,0.0,0.0,40.0483406667,-88.2331571667,0.0,0.0,0.0,0.0,0.0,0.0,0.0,0.0,0.0,0.0,0.0,0,0.0,0.0,0.0,0.0,90.0,90.0,64.0,89.8907089233,89.63606262209998,114.27325439450001,41.679000854499996,15.029772758499998,2.629999876,0,2,25,1,187,107
48,1530630783082,2696082, RC,0,39.9586186,-88.445067899,0,0.0,0.0,0.0,0.0,0.0,0.0,0.0,0.0,0.0,0.0,0.0,0.0,0.0,1500,1500,0.0,0.0,40.0483406667,-88.2331571667,0.0,0.0,0.0,0.0,0.0,0.0,0.0,0.0,0.0,0.0,0.0,0,0.0,0.0,0.0,0.0,90.0,90.0,64.0,89.8907089233,89.63606262209998,114.27325439450001,41.679000854499996,15.029772758499998,2.629999876,0,2,25,1,189,109
49,1530630783132,2696132, RC,0,39.9586186,-88.445067899,0,0.0,0.0,0.0,0.0,0.0,0.0,0.0,0.0,0.0,0.0,0.0,0.0,0.0,1500,1500,0.0,0.0,40.0483406667,-88.2331571667,0.0,0.0,0.0,0.0,0.0,0.0,0.0,0.0,0.0,0.0,0.0,0,0.0,0.0,0.0,0.0,90.0,90.0,64.0,89.8907089233,89.63606262209998,114.3369064331,41.679000854499996,15.029772758499998,2.629999876,0,2,25,1,190,111
50,1530630783183,2696183, RC,0,39.9586186,-88.445067899,0,0.0,0.0,0.0,0.0,0.0,0.0,0.0,0.0,0.0,0.0,0.0,0.0,0.0,1500,1500,0.0,0.0,40.0483406667,-88.2331571667,0.0,0.0,0.0,0.0,0.0,0.0,0.0,0.0,0.0,0.0,0.0,0,0.0,0.0,0.0,0.0,90.0,90.0,63.0,89.8907089233,89.63606262209998,114.4642410278,41.679000854499996,15.0249376297,2.25,0,2,25,1,182,113
51,1530630783233,2696233, RC,0,39.9586186,-88.445067899,0,0.0,0.0,0.0,0.0,0.0,0.0,0.0,0.0,0.0,0.0,0.0,0.0,0.0,1500,1500,0.0,0.0,40.0483406667,-88.2331571667,0.0,0.0,0.0,0.0,0.0,0.0,0.0,0.0,0.0,0.0,0.0,0,0.0,0.0,0.0,0.0,90.0,90.0,63.0,89.8907089233,89.63606262209998,115.5464859009,41.679000854499996,15.0249376297,2.25,0,2,25,1,192,115
52,1530630783283,2696283, RC,0,39.9586186,-88.445067899,0,0.0,0.0,0.0,0.0,0.0,0.0,0.0,0.0,0.0,0.0,0.0,0.0,0.0,1500,1500,0.0,0.0,40.0483406667,-88.2331571667,0.0,0.0,0.0,0.0,0.0,0.0,0.0,0.0,0.0,0.0,0.0,0,0.0,0.0,0.0,0.0,90.0,90.0,63.0,89.8907089233,89.63606262209998,116.1194458008,41.679000854499996,15.0249376297,2.25,0,2,25,1,172,117
53,1530630783346,2696346, RC,0,39.9586186,-88.445067899,0,0.0,0.0,0.0,0.0,0.0,0.0,0.0,0.0,0.0,0.0,0.0,0.0,0.0,1500,1500,0.0,0.0,40.0483406667,-88.2331571667,0.0,0.0,0.0,0.0,0.0,0.0,0.0,0.0,0.0,0.0,0.0,0,0.0,0.0,0.0,0.0,90.0,90.0,63.0,89.8907089233,89.63606262209998,116.1194458008,42.7559967041,15.0249376297,2.25,0,2,25,1,184,120
54,1530630783396,2696396, RC,0,39.9586186,-88.445067899,0,0.0,0.0,0.0,0.0,0.0,0.0,0.0,0.0,0.0,0.0,0.0,0.0,0.0,1500,1500,0.0,0.0,40.0483406667,-88.2331571667,0.0,0.0,0.0,0.0,0.0,0.0,0.0,0.0,0.0,0.0,0.0,0,0.0,0.0,0.0,0.0,90.0,90.0,63.0,89.8907089233,89.63606262209998,116.3104324341,42.7559967041,15.0249376297,2.25,0,2,25,1,179,122
55,1530630783446,2696446, RC,0,39.9586186,-88.445067899,0,0.0,0.0,0.0,0.0,0.0,0.0,0.0,0.0,0.0,0.0,0.0,0.0,0.0,1500,1500,0.0,0.0,40.0483406667,-88.2331571667,0.0,0.0,0.0,0.0,0.0,0.0,0.0,0.0,0.0,0.0,0.0,0,0.0,0.0,0.0,0.0,90.0,90.0,63.0,89.8907089233,89.63606262209998,116.565071106,42.7559967041,15.0249376297,2.25,0,2,25,1,174,124
56,1530630783497,2696497, RC,0,39.9586186,-88.445067899,0,0.0,0.0,0.0,0.0,0.0,0.0,0.0,0.0,0.0,0.0,0.0,0.0,0.0,1500,1500,0.0,0.0,40.0483406667,-88.2331571667,0.0,0.0,0.0,0.0,0.0,0.0,0.0,0.0,0.0,0.0,0.0,0,0.0,0.0,0.0,0.0,90.0,90.0,63.0,89.8907089233,89.63606262209998,116.565071106,42.7559967041,15.0249376297,2.25,0,2,25,1,180,126
57,1530630783547,2696547, RC,0,39.9586186,-88.445067899,0,0.0,0.0,0.0,0.0,0.0,0.0,0.0,0.0,0.0,0.0,0.0,0.0,0.0,1500,1500,0.0,0.0,40.0483406667,-88.2331571667,0.0,0.0,0.0,0.0,0.0,0.0,0.0,0.0,0.0,0.0,0.0,0,0.0,0.0,0.0,0.0,90.0,90.0,63.0,89.8907089233,89.63606262209998,116.62874603270001,42.7559967041,15.0249376297,2.25,0,2,25,1,172,128
58,1530630783597,2696597, RC,0,39.9586186,-88.445067899,0,0.0,0.0,0.0,0.0,0.0,0.0,0.0,0.0,0.0,0.0,0.0,0.0,0.0,1500,1500,0.0,0.0,40.0483406667,-88.2331571667,0.0,0.0,0.0,0.0,0.0,0.0,0.0,0.0,0.0,0.0,0.0,0,0.0,0.0,0.0,0.0,90.0,90.0,63.0,89.8907089233,89.63606262209998,116.62874603270001,42.7559967041,15.0249376297,2.25,0,2,25,1,177,130
59,1530630783648,2696648, RC,0,39.9586186,-88.445067899,0,0.0,0.0,0.0,0.0,0.0,0.0,0.0,0.0,0.0,0.0,0.0,0.0,0.0,1500,1500,0.0,0.0,40.0483406667,-88.2331571667,0.0,0.0,0.0,0.0,0.0,0.0,0.0,0.0,0.0,0.0,0.0,0,0.0,0.0,0.0,0.0,90.0,90.0,63.0,89.8907089233,89.63606262209998,116.62874603270001,42.7559967041,15.0249376297,2.25,0,2,25,1,179,132
60,1530630783698,2696698, RC,0,39.9586186,-88.445067899,0,0.0,0.0,0.0,0.0,0.0,0.0,0.0,0.0,0.0,0.0,0.0,0.0,0.0,1500,1500,0.0,0.0,40.0483406667,-88.2331571667,0.0,0.0,0.0,0.0,0.0,0.0,0.0,0.0,0.0,0.0,0.0,0,0.0,0.0,0.0,0.0,90.0,90.0,60.0,89.8907089233,89.63606262209998,116.62874603270001,42.7559967041,15.0249376297,2.25,0,2,25,1,182,134
61,1530630783748,2696748, RC,0,39.9586186,-88.445067899,0,0.0,0.0,0.0,0.0,0.0,0.0,0.0,0.0,0.0,0.0,0.0,0.0,0.0,1500,1500,0.0,0.0,40.0483406667,-88.2331571667,0.0,0.0,0.0,0.0,0.0,0.0,0.0,0.0,0.0,0.0,0.0,0,0.0,0.0,0.0,0.0,90.0,90.0,60.0,89.8907089233,89.63606262209998,118.15663146969999,42.7559967041,15.0249376297,2.25,0,2,25,1,169,136
62,1530630783799,2696799, RC,0,39.9586186,-88.445067899,0,0.0,0.0,0.0,0.0,0.0,0.0,0.0,0.0,0.0,0.0,0.0,0.0,0.0,1500,1500,0.0,0.0,40.0483406667,-88.2331571667,0.0,0.0,0.0,0.0,0.0,0.0,0.0,0.0,0.0,0.0,0.0,0,0.0,0.0,0.0,0.0,90.0,90.0,60.0,89.8907089233,89.63606262209998,119.3025436401,42.7559967041,15.0249376297,2.25,0,2,25,1,167,138
63,1530630783849,2696849, RC,0,39.9586186,-88.445067899,0,0.0,0.0,0.0,0.0,0.0,0.0,0.0,0.0,0.0,0.0,0.0,0.0,0.0,1500,1500,0.0,0.0,40.0483375,-88.233158,0.0,0.0,0.0,0.0,0.0,0.0,0.0,0.0,0.0,0.0,0.0,0,0.0,0.0,0.0,0.0,90.0,90.0,60.0,89.8907089233,89.63606262209998,119.3662033081,42.7559967041,15.0249376297,2.25,0,2,25,1,158,140
64,1530630783899,2696899, RC,0,39.9586186,-88.445067899,0,0.0,0.0,0.0,0.0,0.0,0.0,0.0,0.0,0.0,0.0,0.0,0.0,0.0,1500,1500,0.0,0.0,40.0483375,-88.233158,0.0,0.0,0.0,0.0,0.0,0.0,0.0,0.0,0.0,0.0,0.0,0,0.0,0.0,0.0,0.0,90.0,90.0,60.0,89.8907089233,89.63606262209998,119.3662033081,42.7559967041,15.0249376297,2.25,0,2,25,1,160,142
65,1530630783950,2696950, RC,0,39.9586186,-88.445067899,0,0.0,0.0,0.0,0.0,0.0,0.0,0.0,0.0,0.0,0.0,0.0,0.0,0.0,1500,1500,0.0,0.0,40.0483375,-88.233158,0.0,0.0,0.0,0.0,0.0,0.0,0.0,0.0,0.0,0.0,0.0,0,0.0,0.0,0.0,0.0,90.0,90.0,60.0,89.8907089233,89.63606262209998,119.3662033081,42.7559967041,15.0249376297,2.25,0,2,25,1,165,144
66,1530630784000,2697000, RC,0,39.9586186,-88.445067899,0,0.0,0.0,0.0,0.0,0.0,0.0,0.0,0.0,0.0,0.0,0.0,0.0,0.0,1500,1500,0.0,0.0,40.0483375,-88.233158,0.0,0.0,0.0,0.0,0.0,0.0,0.0,0.0,0.0,0.0,0.0,0,0.0,0.0,0.0,0.0,90.0,90.0,60.0,89.8907089233,89.63606262209998,119.3662033081,42.7559967041,15.0249376297,2.25,0,2,25,1,165,146
67,1530630784050,2697050, RC,0,39.9586186,-88.445067899,0,0.0,0.0,0.0,0.0,0.0,0.0,0.0,0.0,0.0,0.0,0.0,0.0,0.0,1500,1500,0.0,0.0,40.0483375,-88.233158,0.0,0.0,0.0,0.0,0.0,0.0,0.0,0.0,0.0,0.0,0.0,0,0.0,0.0,0.0,0.0,90.0,90.0,60.0,89.8907089233,89.63606262209998,119.3662033081,42.7559967041,15.0249376297,2.25,0,2,25,1,167,148
68,1530630784101,2697101, RC,0,39.9586186,-88.445067899,0,0.0,0.0,0.0,0.0,0.0,0.0,0.0,0.0,0.0,0.0,0.0,0.0,0.0,1500,1500,0.0,0.0,40.0483375,-88.233158,0.0,0.0,0.0,0.0,0.0,0.0,0.0,0.0,0.0,0.0,0.0,0,0.0,0.0,0.0,0.0,90.0,90.0,60.0,89.8907089233,89.63606262209998,119.3662033081,42.7559967041,15.0249376297,2.25,0,2,25,1,176,150
69,1530630784152,2697152, RC,0,39.9586186,-88.445067899,0,0.0,0.0,0.0,0.0,0.0,0.0,0.0,0.0,0.0,0.0,0.0,0.0,0.0,1500,1500,0.0,0.0,40.0483375,-88.233158,0.0,0.0,0.0,0.0,0.0,0.0,0.0,0.0,0.0,0.0,0.0,0,0.0,0.0,0.0,0.0,90.0,90.0,60.0,89.8907089233,89.63606262209998,119.3662033081,42.7559967041,15.0249376297,2.25,0,2,25,1,169,152
70,1530630784202,2697202, RC,0,39.9586186,-88.445067899,0,0.0,0.0,0.0,0.0,0.0,0.0,0.0,0.0,0.0,0.0,0.0,0.0,0.0,1500,1500,0.0,0.0,40.0483375,-88.233158,0.0,0.0,0.0,0.0,0.0,0.0,0.0,0.0,0.0,0.0,0.0,0,0.0,0.0,0.0,0.0,90.0,90.0,60.0,89.8907089233,89.63606262209998,119.3662033081,42.7559967041,15.0199766159,2.0199999809,0,2,25,1,166,154
71,1530630784253,2697253, RC,0,39.9586186,-88.445067899,0,0.0,0.0,0.0,0.0,0.0,0.0,0.0,0.0,0.0,0.0,0.0,0.0,0.0,1500,1500,0.0,0.0,40.0483375,-88.233158,0.0,0.0,0.0,0.0,0.0,0.0,0.0,0.0,0.0,0.0,0.0,0,0.0,0.0,0.0,0.0,90.0,90.0,60.0,89.8907089233,89.63606262209998,119.3662033081,42.7559967041,15.0199766159,2.0199999809,0,2,25,1,156,156
72,1530630784303,2697303, RC,0,39.9586186,-88.445067899,0,0.0,0.0,0.0,0.0,0.0,0.0,0.0,0.0,0.0,0.0,0.0,0.0,0.0,1500,1500,0.0,0.0,40.0483375,-88.233158,0.0,0.0,0.0,0.0,0.0,0.0,0.0,0.0,0.0,0.0,0.0,0,0.0,0.0,0.0,0.0,90.0,90.0,60.0,89.8907089233,89.63606262209998,119.3662033081,42.7559967041,15.0199766159,2.0199999809,0,2,25,1,162,158
73,1530630784354,2697354, RC,0,39.9586186,-88.445067899,0,0.0,0.0,0.0,0.0,0.0,0.0,0.0,0.0,0.0,0.0,0.0,0.0,0.0,1500,1500,0.0,0.0,40.0483375,-88.233158,0.0,0.0,0.0,0.0,0.0,0.0,0.0,0.0,0.0,0.0,0.0,0,0.0,0.0,0.0,0.0,90.0,90.0,60.0,89.8907089233,89.63606262209998,119.3662033081,42.7559967041,15.0199766159,2.0199999809,0,2,25,1,166,160
74,1530630784404,2697404, RC,0,39.9586186,-88.445067899,0,0.0,0.0,0.0,0.0,0.0,0.0,0.0,0.0,0.0,0.0,0.0,0.0,0.0,1500,1500,0.0,0.0,40.0483375,-88.233158,0.0,0.0,0.0,0.0,0.0,0.0,0.0,0.0,0.0,0.0,0.0,0,0.0,0.0,0.0,0.0,90.0,90.0,60.0,89.8907089233,89.63606262209998,119.3662033081,42.7559967041,15.0199766159,2.0199999809,0,2,25,1,164,161
75,1530630784455,2697455, RC,0,39.9586186,-88.445067899,0,0.0,0.0,0.0,0.0,0.0,0.0,0.0,0.0,0.0,0.0,0.0,0.0,0.0,1500,1500,0.0,0.0,40.0483375,-88.233158,0.0,0.0,0.0,0.0,0.0,0.0,0.0,0.0,0.0,0.0,0.0,0,0.0,0.0,0.0,0.0,90.0,90.0,60.0,89.8907089233,89.63606262209998,119.3662033081,42.7559967041,15.0199766159,2.0199999809,0,2,25,1,158,164
76,1530630784506,2697506, RC,0,39.9586186,-88.445067899,0,0.0,0.0,0.0,0.0,0.0,0.0,0.0,0.0,0.0,0.0,0.0,0.0,0.0,1500,1500,0.0,0.0,40.0483375,-88.233158,0.0,0.0,0.0,0.0,0.0,0.0,0.0,0.0,0.0,0.0,0.0,0,0.0,0.0,0.0,0.0,90.0,90.0,60.0,89.8907089233,89.63606262209998,119.3662033081,42.7559967041,15.0199766159,2.0199999809,0,2,25,1,166,166
77,1530630784556,2697556, RC,0,39.9586186,-88.445067899,0,0.0,0.0,0.0,0.0,0.0,0.0,0.0,0.0,0.0,0.0,0.0,0.0,0.0,1500,1500,0.0,0.0,40.0483375,-88.233158,0.0,0.0,0.0,0.0,0.0,0.0,0.0,0.0,0.0,0.0,0.0,0,0.0,0.0,0.0,0.0,90.0,90.0,60.0,89.8907089233,89.63606262209998,119.3662033081,42.7559967041,15.0199766159,2.0199999809,0,2,25,1,158,167
78,1530630784607,2697607, RC,0,39.9586186,-88.445067899,0,0.0,0.0,0.0,0.0,0.0,0.0,0.0,0.0,0.0,0.0,0.0,0.0,0.0,1500,1500,0.0,0.0,40.0483375,-88.233158,0.0,0.0,0.0,0.0,0.0,0.0,0.0,0.0,0.0,0.0,0.0,0,0.0,0.0,0.0,0.0,90.0,90.0,60.0,89.8907089233,89.63606262209998,119.3662033081,42.7559967041,15.0199766159,2.0199999809,0,2,25,1,162,169
79,1530630784658,2697658, RC,0,39.9586186,-88.445067899,0,0.0,0.0,0.0,0.0,0.0,0.0,0.0,0.0,0.0,0.0,0.0,0.0,0.0,1500,1500,0.0,0.0,40.0483375,-88.233158,0.0,0.0,0.0,0.0,0.0,0.0,0.0,0.0,0.0,0.0,0.0,0,0.0,0.0,0.0,0.0,90.0,90.0,60.0,89.8907089233,89.63606262209998,119.3662033081,42.7559967041,15.0199766159,2.0199999809,0,2,25,1,170,171
80,1530630784708,2697708, RC,0,39.9586186,-88.445067899,0,0.0,0.0,0.0,0.0,0.0,0.0,0.0,0.0,0.0,0.0,0.0,0.0,0.0,1500,1500,0.0,0.0,40.0483375,-88.233158,0.0,0.0,0.0,0.0,0.0,0.0,0.0,0.0,0.0,0.0,0.0,0,0.0,0.0,0.0,0.0,90.0,90.0,60.0,89.8907089233,89.63606262209998,119.3662033081,42.7559967041,15.0199766159,2.0199999809,0,2,25,1,163,173
81,1530630784759,2697759, RC,0,39.9586186,-88.445067899,0,0.0,0.0,0.0,0.0,0.0,0.0,0.0,0.0,0.0,0.0,0.0,0.0,0.0,1500,1500,0.0,0.0,40.0483375,-88.233158,0.0,0.0,0.0,0.0,0.0,0.0,0.0,0.0,0.0,0.0,0.0,0,0.0,0.0,0.0,0.0,90.0,90.0,60.0,89.8907089233,89.63606262209998,119.3662033081,42.7559967041,15.0199766159,2.0199999809,0,2,25,1,175,175
82,1530630784809,2697809, RC,0,39.9586186,-88.445067899,0,0.0,0.0,0.0,0.0,0.0,0.0,0.0,0.0,0.0,0.0,0.0,0.0,0.0,1500,1500,0.0,0.0,40.0483375,-88.233158,0.0,0.0,0.0,0.0,0.0,0.0,0.0,0.0,0.0,0.0,0.0,0,0.0,0.0,0.0,0.0,90.0,90.0,60.0,89.8907089233,89.63606262209998,119.3662033081,42.7559967041,15.0199766159,2.0199999809,0,2,25,1,159,177
83,1530630784860,2697860, RC,0,39.9586186,-88.445067899,0,0.0,0.0,0.0,0.0,0.0,0.0,0.0,0.0,0.0,0.0,0.0,0.0,0.0,1500,1500,0.0,0.0,40.0483373333,-88.2331581667,0.0,0.0,0.0,0.0,0.0,0.0,0.0,0.0,0.0,0.0,0.0,0,0.0,0.0,0.0,0.0,90.0,90.0,60.0,89.8907089233,89.63606262209998,119.3662033081,42.7559967041,15.0199766159,2.0199999809,0,2,25,1,171,179
84,1530630784911,2697911, RC,0,39.9586186,-88.445067899,0,0.0,0.0,0.0,0.0,0.0,0.0,0.0,0.0,0.0,0.0,0.0,0.0,0.0,1500,1500,0.0,0.0,40.0483373333,-88.2331581667,0.0,0.0,0.0,0.0,0.0,0.0,0.0,0.0,0.0,0.0,0.0,0,0.0,0.0,0.0,0.0,90.0,90.0,60.0,89.8907089233,89.63606262209998,119.3662033081,42.7559967041,15.0199766159,2.0199999809,0,2,25,1,166,181
85,1530630784961,2697961, RC,0,39.9586186,-88.445067899,0,0.0,0.0,0.0,0.0,0.0,0.0,0.0,0.0,0.0,0.0,0.0,0.0,0.0,1500,1500,0.0,0.0,40.0483373333,-88.2331581667,0.0,0.0,0.0,0.0,0.0,0.0,0.0,0.0,0.0,0.0,0.0,0,0.0,0.0,0.0,0.0,90.0,90.0,60.0,89.8907089233,89.63606262209998,119.3662033081,42.7559967041,15.0199766159,2.0199999809,0,2,25,1,172,183
86,1530630785012,2698012, RC,0,39.9586186,-88.445067899,0,0.0,0.0,0.0,0.0,0.0,0.0,0.0,0.0,0.0,0.0,0.0,0.0,0.0,1500,1500,0.0,0.0,40.0483373333,-88.2331581667,0.0,0.0,0.0,0.0,0.0,0.0,0.0,0.0,0.0,0.0,0.0,0,0.0,0.0,0.0,0.0,90.0,87.0,60.0,89.8907089233,89.63606262209998,119.3662033081,42.7559967041,15.0199766159,2.0199999809,0,2,25,1,165,185
87,1530630785062,2698062, RC,0,39.9586186,-88.445067899,0,0.0,0.0,0.0,0.0,0.0,0.0,0.0,0.0,0.0,0.0,0.0,0.0,0.0,1500,1500,0.0,0.0,40.0483373333,-88.2331581667,0.0,0.0,0.0,0.0,0.0,0.0,0.0,0.0,0.0,0.0,0.0,0,0.0,0.0,0.0,0.0,90.0,87.0,60.0,89.8907089233,91.800567627,119.3662033081,42.7559967041,15.0199766159,2.0199999809,0,2,25,1,175,187
88,1530630785113,2698113, RC,0,39.9586186,-88.445067899,0,0.0,0.0,0.0,0.0,0.0,0.0,0.0,0.0,0.0,0.0,0.0,0.0,0.0,1500,1500,0.0,0.0,40.0483373333,-88.2331581667,0.0,0.0,0.0,0.0,0.0,0.0,0.0,0.0,0.0,0.0,0.0,0,0.0,0.0,0.0,0.0,90.0,85.0,60.0,89.8907089233,92.9464874268,119.3662033081,42.7559967041,15.0199766159,2.0199999809,0,2,25,1,160,189
89,1530630785163,2698163, RC,0,39.9586186,-88.445067899,0,0.0,0.0,0.0,0.0,0.0,0.0,0.0,0.0,0.0,0.0,0.0,0.0,0.0,1500,1500,0.0,0.0,40.0483373333,-88.2331581667,0.0,0.0,0.0,0.0,0.0,0.0,0.0,0.0,0.0,0.0,0.0,0,0.0,0.0,0.0,0.0,90.0,85.0,60.0,89.8907089233,94.66535949709998,119.3662033081,42.7559967041,15.020113945,2.5199999809,0,2,25,1,170,191
90,1530630785214,2698214, RC,0,39.9586186,-88.445067899,0,0.0,0.0,0.0,0.0,0.0,0.0,0.0,0.0,0.0,0.0,0.0,0.0,0.0,1500,1500,0.0,0.0,40.0483373333,-88.2331581667,0.0,0.0,0.0,0.0,0.0,0.0,0.0,0.0,0.0,0.0,0.0,0,0.0,0.0,0.0,0.0,90.0,79.0,60.0,89.8907089233,94.6016998291,119.3662033081,42.7559967041,15.020113945,2.5199999809,0,2,25,1,161,193
91,1530630785265,2698265, RC,0,39.9586186,-88.445067899,0,0.0,0.0,0.0,0.0,0.0,0.0,0.0,0.0,0.0,0.0,0.0,0.0,0.0,1500,1500,0.0,0.0,40.0483373333,-88.2331581667,0.0,0.0,0.0,0.0,0.0,0.0,0.0,0.0,0.0,0.0,0.0,0,0.0,0.0,0.0,0.0,90.0,76.0,60.0,89.8907089233,99.2490234375,119.3662033081,42.7559967041,15.020113945,2.5199999809,0,2,25,1,175,195
92,1530630785315,2698315, RC,0,39.9586186,-88.445067899,0,0.0,0.0,0.0,0.0,0.0,0.0,0.0,0.0,0.0,0.0,0.0,0.0,0.0,1500,1500,0.0,0.0,40.0483373333,-88.2331581667,0.0,0.0,0.0,0.0,0.0,0.0,0.0,0.0,0.0,0.0,0.0,0,0.0,0.0,0.0,0.0,90.0,76.0,60.0,89.8907089233,100.39493560790001,119.3662033081,42.7559967041,15.020113945,2.5199999809,0,2,25,1,170,197
93,1530630785366,2698366, RC,0,39.9586186,-88.445067899,0,0.0,0.0,0.0,0.0,0.0,0.0,0.0,0.0,0.0,0.0,0.0,0.0,0.0,1500,1500,0.0,0.0,40.0483373333,-88.2331581667,0.0,0.0,0.0,0.0,0.0,0.0,0.0,0.0,0.0,0.0,0.0,0,0.0,0.0,0.0,0.0,90.0,72.0,60.0,89.8907089233,101.9228286743,119.3662033081,42.7559967041,15.020113945,2.5199999809,0,2,25,1,161,199
94,1530630785416,2698416, RC,0,39.9586186,-88.445067899,0,0.0,0.0,0.0,0.0,0.0,0.0,0.0,0.0,0.0,0.0,0.0,0.0,0.0,1500,1500,0.0,0.0,40.0483373333,-88.2331581667,0.0,0.0,0.0,0.0,0.0,0.0,0.0,0.0,0.0,0.0,0.0,0,0.0,0.0,0.0,0.0,90.0,72.0,60.0,89.8907089233,103.83268737790002,119.3662033081,42.7559967041,15.020113945,2.5199999809,0,2,25,1,159,201
95,1530630785467,2698467, RC,0,39.9586186,-88.445067899,0,0.0,0.0,0.0,0.0,0.0,0.0,0.0,0.0,0.0,0.0,0.0,0.0,0.0,1500,1500,0.0,0.0,40.0483373333,-88.2331581667,0.0,0.0,0.0,0.0,0.0,0.0,0.0,0.0,0.0,0.0,0.0,0,0.0,0.0,0.0,0.0,90.0,72.0,60.0,89.8907089233,106.37916564940001,119.3662033081,42.7559967041,15.020113945,2.5199999809,0,2,25,1,174,203
96,1530630785518,2698518, RC,0,39.9586186,-88.445067899,0,0.0,0.0,0.0,0.0,0.0,0.0,0.0,0.0,0.0,0.0,0.0,0.0,0.0,1500,1500,0.0,0.0,40.0483373333,-88.2331581667,0.0,0.0,0.0,0.0,0.0,0.0,0.0,0.0,0.0,0.0,0.0,0,0.0,0.0,0.0,0.0,90.0,72.0,60.0,89.8907089233,107.97071838379999,119.3662033081,42.7559967041,15.020113945,2.5199999809,0,2,25,1,174,205
97,1530630785568,2698568, RC,0,39.9586186,-88.445067899,0,0.0,0.0,0.0,0.0,0.0,0.0,0.0,0.0,0.0,0.0,0.0,0.0,0.0,1500,1500,0.0,0.0,40.0483373333,-88.2331581667,0.0,0.0,0.0,0.0,0.0,0.0,0.0,0.0,0.0,0.0,0.0,0,0.0,0.0,0.0,0.0,90.0,72.0,60.0,89.8907089233,107.6524047852,119.3662033081,42.7559967041,15.020113945,2.5199999809,0,2,25,1,177,207
98,1530630785619,2698619, RC,0,39.9586186,-88.445067899,0,0.0,0.0,0.0,0.0,0.0,0.0,0.0,0.0,0.0,0.0,0.0,0.0,0.0,1500,1500,0.0,0.0,40.0483373333,-88.2331581667,0.0,0.0,0.0,0.0,0.0,0.0,0.0,0.0,0.0,0.0,0.0,0,0.0,0.0,0.0,0.0,90.0,72.0,60.0,89.8907089233,107.58874511719999,119.3662033081,42.7559967041,15.020113945,2.5199999809,0,2,25,1,167,209
99,1530630785669,2698669, RC,0,39.9586186,-88.445067899,0,0.0,0.0,0.0,0.0,0.0,0.0,0.0,0.0,0.0,0.0,0.0,0.0,0.0,1500,1500,0.0,0.0,40.0483373333,-88.2331581667,0.0,0.0,0.0,0.0,0.0,0.0,0.0,0.0,0.0,0.0,0.0,0,0.0,0.0,0.0,0.0,90.0,69.0,60.0,89.8907089233,107.58874511719999,119.3662033081,42.7559967041,15.020113945,2.5199999809,0,2,25,1,165,211
100,1530630785720,2698720, RC,0,39.9586186,-88.445067899,0,0.0,0.0,0.0,0.0,0.0,0.0,0.0,0.0,0.0,0.0,0.0,0.0,0.0,1500,1500,0.0,0.0,40.0483373333,-88.2331581667,0.0,0.0,0.0,0.0,0.0,0.0,0.0,0.0,0.0,0.0,0.0,0,0.0,0.0,0.0,0.0,90.0,69.0,60.0,89.8907089233,107.8433837891,119.3662033081,42.7559967041,15.020113945,2.5199999809,0,2,25,1,159,213
101,1530630785770,2698770, RC,0,39.9586186,-88.445067899,0,0.0,0.0,0.0,0.0,0.0,0.0,0.0,0.0,0.0,0.0,0.0,0.0,0.0,1500,1500,0.0,0.0,40.0483373333,-88.2331581667,0.0,0.0,0.0,0.0,0.0,0.0,0.0,0.0,0.0,0.0,0.0,0,0.0,0.0,0.0,0.0,90.0,69.0,60.0,89.8907089233,110.0715560913,119.3662033081,42.7559967041,15.020113945,2.5199999809,0,2,25,1,170,215
102,1530630785821,2698821, RC,0,39.9586186,-88.445067899,0,0.0,0.0,0.0,0.0,0.0,0.0,0.0,0.0,0.0,0.0,0.0,0.0,0.0,1500,1500,0.0,0.0,40.0483373333,-88.2331581667,0.0,0.0,0.0,0.0,0.0,0.0,0.0,0.0,0.0,0.0,0.0,0,0.0,0.0,0.0,0.0,90.0,69.0,60.0,89.8907089233,111.5357894897,119.3662033081,42.7559967041,15.020113945,2.5199999809,0,2,25,1,168,217
103,1530630785872,2698872, RC,0,39.9586186,-88.445067899,0,0.0,0.0,0.0,0.0,0.0,0.0,0.0,0.0,0.0,0.0,0.0,0.0,0.0,1500,1500,0.0,0.0,40.048337833299996,-88.2331583333,0.0,0.0,0.0,0.0,0.0,0.0,0.0,0.0,0.0,0.0,0.0,0,0.0,0.0,0.0,0.0,90.0,69.0,60.0,89.8907089233,111.0901489258,119.3662033081,42.7559967041,15.020113945,2.5199999809,0,2,25,1,157,219
104,1530630785922,2698922, RC,0,39.9586186,-88.445067899,0,0.0,0.0,0.0,0.0,0.0,0.0,0.0,0.0,0.0,0.0,0.0,0.0,0.0,1500,1500,0.0,0.0,40.048337833299996,-88.2331583333,0.0,0.0,0.0,0.0,0.0,0.0,0.0,0.0,0.0,0.0,0.0,0,0.0,0.0,0.0,0.0,90.0,69.0,60.0,89.8907089233,110.9628219604,119.3662033081,42.7559967041,15.020113945,2.5199999809,0,2,25,1,164,221
105,1530630785973,2698973, RC,0,39.9586186,-88.445067899,0,0.0,0.0,0.0,0.0,0.0,0.0,0.0,0.0,0.0,0.0,0.0,0.0,0.0,1500,1500,0.0,0.0,40.048337833299996,-88.2331583333,0.0,0.0,0.0,0.0,0.0,0.0,0.0,0.0,0.0,0.0,0.0,0,0.0,0.0,0.0,0.0,90.0,69.0,60.0,89.8907089233,110.70818328860001,119.3662033081,42.7559967041,15.020113945,2.5199999809,0,2,25,1,161,223
106,1530630786023,2699023, RC,0,39.9586186,-88.445067899,0,0.0,0.0,0.0,0.0,0.0,0.0,0.0,0.0,0.0,0.0,0.0,0.0,0.0,1500,1500,0.0,0.0,40.048337833299996,-88.2331583333,0.0,0.0,0.0,0.0,0.0,0.0,0.0,0.0,0.0,0.0,0.0,0,0.0,0.0,0.0,0.0,90.0,69.0,60.0,89.8907089233,110.70818328860001,119.3662033081,42.7559967041,15.020113945,2.5199999809,0,2,25,1,169,225
107,1530630786074,2699074, RC,0,39.9586186,-88.445067899,0,0.0,0.0,0.0,0.0,0.0,0.0,0.0,0.0,0.0,0.0,0.0,0.0,0.0,1500,1500,0.0,0.0,40.048337833299996,-88.2331583333,0.0,0.0,0.0,0.0,0.0,0.0,0.0,0.0,0.0,0.0,0.0,0,0.0,0.0,0.0,0.0,90.0,69.0,60.0,89.8907089233,110.70818328860001,119.3662033081,42.7559967041,15.020113945,2.5199999809,0,2,25,1,175,227
108,1530630786124,2699124, RC,0,39.9586186,-88.445067899,0,0.0,0.0,0.0,0.0,0.0,0.0,0.0,0.0,0.0,0.0,0.0,0.0,0.0,1500,1500,0.0,0.0,40.048337833299996,-88.2331583333,0.0,0.0,0.0,0.0,0.0,0.0,0.0,0.0,0.0,0.0,0.0,0,0.0,0.0,0.0,0.0,90.0,69.0,60.0,89.8907089233,110.8991622925,119.3662033081,42.7559967041,15.020113945,2.5199999809,0,2,25,1,177,229
109,1530630786175,2699175, RC,0,39.9586186,-88.445067899,0,0.0,0.0,0.0,0.0,0.0,0.0,0.0,0.0,0.0,0.0,0.0,0.0,0.0,1500,1500,0.0,0.0,40.048337833299996,-88.2331583333,0.0,0.0,0.0,0.0,0.0,0.0,0.0,0.0,0.0,0.0,0.0,0,0.0,0.0,0.0,0.0,90.0,67.0,60.0,89.8907089233,110.8991622925,119.3662033081,42.7559967041,15.015307426500001,2.0799999237,0,2,25,1,168,231
110,1530630786226,2699226, RC,0,39.9586186,-88.445067899,0,0.0,0.0,0.0,0.0,0.0,0.0,0.0,0.0,0.0,0.0,0.0,0.0,0.0,1500,1500,0.0,0.0,40.048337833299996,-88.2331583333,0.0,0.0,0.0,0.0,0.0,0.0,0.0,0.0,0.0,0.0,0.0,0,0.0,0.0,0.0,0.0,90.0,67.0,60.0,89.8907089233,110.8991622925,119.3662033081,42.7559967041,15.015307426500001,2.0799999237,0,2,25,1,168,233
111,1530630786276,2699276, RC,0,39.9586186,-88.445067899,0,0.0,0.0,0.0,0.0,0.0,0.0,0.0,0.0,0.0,0.0,0.0,0.0,0.0,1500,1500,0.0,0.0,40.048337833299996,-88.2331583333,0.0,0.0,0.0,0.0,0.0,0.0,0.0,0.0,0.0,0.0,0.0,0,0.0,0.0,0.0,0.0,90.0,67.0,60.0,89.8907089233,111.726776123,119.3662033081,42.7559967041,15.015307426500001,2.0799999237,0,2,25,1,159,235
112,1530630786327,2699327, RC,0,39.9586186,-88.445067899,0,0.0,0.0,0.0,0.0,0.0,0.0,0.0,0.0,0.0,0.0,0.0,0.0,0.0,1500,1500,0.0,0.0,40.048337833299996,-88.2331583333,0.0,0.0,0.0,0.0,0.0,0.0,0.0,0.0,0.0,0.0,0.0,0,0.0,0.0,0.0,0.0,90.0,67.0,60.0,89.8907089233,112.8726882935,119.3662033081,42.7559967041,15.015307426500001,2.0799999237,0,2,25,1,157,237
113,1530630786377,2699377, RC,0,39.9586186,-88.445067899,0,0.0,0.0,0.0,0.0,0.0,0.0,0.0,0.0,0.0,0.0,0.0,0.0,0.0,1500,1500,0.0,0.0,40.048337833299996,-88.2331583333,0.0,0.0,0.0,0.0,0.0,0.0,0.0,0.0,0.0,0.0,0.0,0,0.0,0.0,0.0,0.0,90.0,67.0,60.0,89.8907089233,112.8726882935,119.3662033081,42.7559967041,15.015307426500001,2.0799999237,0,2,25,1,164,239
114,1530630786428,2699428, RC,0,39.9586186,-88.445067899,0,0.0,0.0,0.0,0.0,0.0,0.0,0.0,0.0,0.0,0.0,0.0,0.0,0.0,1500,1500,0.0,0.0,40.048337833299996,-88.2331583333,0.0,0.0,0.0,0.0,0.0,0.0,0.0,0.0,0.0,0.0,0.0,0,0.0,0.0,0.0,0.0,90.0,67.0,60.0,89.8907089233,112.8726882935,119.3662033081,42.7559967041,15.015307426500001,2.0799999237,0,2,25,1,154,241
115,1530630786478,2699478, RC,0,39.9586186,-88.445067899,0,0.0,0.0,0.0,0.0,0.0,0.0,0.0,0.0,0.0,0.0,0.0,0.0,0.0,1500,1500,0.0,0.0,40.048337833299996,-88.2331583333,0.0,0.0,0.0,0.0,0.0,0.0,0.0,0.0,0.0,0.0,0.0,0,0.0,0.0,0.0,0.0,90.0,67.0,60.0,89.8907089233,112.8726882935,119.3662033081,42.7559967041,15.015307426500001,2.0799999237,0,2,25,1,154,243
116,1530630786529,2699529, RC,0,39.9586186,-88.445067899,0,0.0,0.0,0.0,0.0,0.0,0.0,0.0,0.0,0.0,0.0,0.0,0.0,0.0,1500,1500,0.0,0.0,40.048337833299996,-88.2331583333,0.0,0.0,0.0,0.0,0.0,0.0,0.0,0.0,0.0,0.0,0.0,0,0.0,0.0,0.0,0.0,90.0,67.0,60.0,89.8907089233,112.8726882935,119.3662033081,42.7559967041,15.015307426500001,2.0799999237,0,2,25,1,157,246
117,1530630786580,2699580, RC,0,39.9586186,-88.445067899,0,0.0,0.0,0.0,0.0,0.0,0.0,0.0,0.0,0.0,0.0,0.0,0.0,0.0,1500,1500,0.0,0.0,40.048337833299996,-88.2331583333,0.0,0.0,0.0,0.0,0.0,0.0,0.0,0.0,0.0,0.0,0.0,0,0.0,0.0,0.0,0.0,90.0,66.0,60.0,89.8907089233,112.8726882935,119.3662033081,42.7559967041,15.015307426500001,2.0799999237,0,2,25,1,172,250
118,1530630786630,2699630, RC,0,39.9586186,-88.445067899,0,0.0,0.0,0.0,0.0,0.0,0.0,0.0,0.0,0.0,0.0,0.0,0.0,0.0,1500,1500,0.0,0.0,40.048337833299996,-88.2331583333,0.0,0.0,0.0,0.0,0.0,0.0,0.0,0.0,0.0,0.0,0.0,0,0.0,0.0,0.0,0.0,90.0,66.0,60.0,89.8907089233,112.8726882935,119.3662033081,42.7559967041,15.015307426500001,2.0799999237,0,2,25,1,165,253
119,1530630786681,2699681, RC,0,39.9586186,-88.445067899,0,0.0,0.0,0.0,0.0,0.0,0.0,0.0,0.0,0.0,0.0,0.0,0.0,0.0,1500,1500,0.0,0.0,40.048337833299996,-88.2331583333,0.0,0.0,0.0,0.0,0.0,0.0,0.0,0.0,0.0,0.0,0.0,0,0.0,0.0,0.0,0.0,90.0,66.0,60.0,89.8907089233,112.8726882935,119.3662033081,42.7559967041,15.015307426500001,2.0799999237,0,2,25,1,170,256
120,1530630786731,2699731, RC,0,39.9586186,-88.445067899,0,0.0,0.0,0.0,0.0,0.0,0.0,0.0,0.0,0.0,0.0,0.0,0.0,0.0,1500,1500,0.0,0.0,40.048337833299996,-88.2331583333,0.0,0.0,0.0,0.0,0.0,0.0,0.0,0.0,0.0,0.0,0.0,0,0.0,0.0,0.0,0.0,90.0,66.0,60.0,89.8907089233,113.1273269653,119.3662033081,42.7559967041,15.015307426500001,2.0799999237,0,2,25,1,165,258
121,1530630786782,2699782, RC,0,39.9586186,-88.445067899,0,0.0,0.0,0.0,0.0,0.0,0.0,0.0,0.0,0.0,0.0,0.0,0.0,0.0,1500,1500,0.0,0.0,40.048337833299996,-88.2331583333,0.0,0.0,0.0,0.0,0.0,0.0,0.0,0.0,0.0,0.0,0.0,0,0.0,0.0,0.0,0.0,90.0,64.0,60.0,89.8907089233,113.3183135986,119.3662033081,42.7559967041,15.015307426500001,2.0799999237,0,2,25,1,163,261
122,1530630786832,2699832, RC,0,39.9586186,-88.445067899,0,0.0,0.0,0.0,0.0,0.0,0.0,0.0,0.0,0.0,0.0,0.0,0.0,0.0,1500,1500,0.0,0.0,40.048337833299996,-88.2331583333,0.0,0.0,0.0,0.0,0.0,0.0,0.0,0.0,0.0,0.0,0.0,0,0.0,0.0,0.0,0.0,90.0,64.0,60.0,89.8907089233,113.6366271973,119.3662033081,42.7559967041,15.015307426500001,2.0799999237,0,2,25,1,158,263
123,1530630786883,2699883, RC,0,39.9586186,-88.445067899,0,0.0,0.0,0.0,0.0,0.0,0.0,0.0,0.0,0.0,0.0,0.0,0.0,0.0,1500,1500,0.0,0.0,40.0483376667,-88.2331586667,0.0,0.0,0.0,0.0,0.0,0.0,0.0,0.0,0.0,0.0,0.0,0,0.0,0.0,0.0,0.0,90.0,64.0,60.0,89.8907089233,116.5014190674,119.3662033081,42.7559967041,15.015307426500001,2.0799999237,0,2,25,1,163,266
124,1530630786934,2699934, RC,0,39.9586186,-88.445067899,0,0.0,0.0,0.0,0.0,0.0,0.0,0.0,0.0,0.0,0.0,0.0,0.0,0.0,1500,1500,0.0,0.0,40.0483376667,-88.2331586667,0.0,0.0,0.0,0.0,0.0,0.0,0.0,0.0,0.0,0.0,0.0,0,0.0,0.0,0.0,0.0,90.0,64.0,60.0,89.8907089233,116.24677276610001,119.3662033081,42.7559967041,15.015307426500001,2.0799999237,0,2,25,1,163,268
125,1530630786984,2699984, RC,0,39.9586186,-88.445067899,0,0.0,0.0,0.0,0.0,0.0,0.0,0.0,0.0,0.0,0.0,0.0,0.0,0.0,1500,1500,0.0,0.0,40.0483376667,-88.2331586667,0.0,0.0,0.0,0.0,0.0,0.0,0.0,0.0,0.0,0.0,0.0,0,0.0,0.0,0.0,0.0,90.0,64.0,60.0,89.8907089233,115.80113220209999,119.3662033081,42.7559967041,15.015307426500001,2.0799999237,0,2,25,1,165,271
126,1530630787035,2700035, RC,0,39.9586186,-88.445067899,0,0.0,0.0,0.0,0.0,0.0,0.0,0.0,0.0,0.0,0.0,0.0,0.0,0.0,1500,1500,0.0,0.0,40.0483376667,-88.2331586667,0.0,0.0,0.0,0.0,0.0,0.0,0.0,0.0,0.0,0.0,0.0,0,0.0,0.0,0.0,0.0,90.0,64.0,60.0,89.8907089233,115.80113220209999,119.3662033081,42.7559967041,15.015307426500001,2.0799999237,0,2,25,1,165,273
127,1530630787085,2700085, RC,0,39.9586186,-88.445067899,0,0.0,0.0,0.0,0.0,0.0,0.0,0.0,0.0,0.0,0.0,0.0,0.0,0.0,1500,1500,0.0,0.0,40.0483376667,-88.2331586667,0.0,0.0,0.0,0.0,0.0,0.0,0.0,0.0,0.0,0.0,0.0,0,0.0,0.0,0.0,0.0,90.0,64.0,60.0,89.8907089233,115.80113220209999,119.3662033081,42.7559967041,15.015307426500001,2.0799999237,0,2,25,1,174,276
128,1530630787136,2700136, RC,0,39.9586186,-88.445067899,0,0.0,0.0,0.0,0.0,0.0,0.0,0.0,0.0,0.0,0.0,0.0,0.0,0.0,1500,1500,0.0,0.0,40.0483376667,-88.2331586667,0.0,0.0,0.0,0.0,0.0,0.0,0.0,0.0,0.0,0.0,0.0,0,0.0,0.0,0.0,0.0,90.0,64.0,60.0,89.8907089233,115.80113220209999,119.3662033081,42.7559967041,15.015307426500001,2.0799999237,0,2,25,1,169,278
129,1530630787187,2700187, RC,0,39.9586186,-88.445067899,0,0.0,0.0,0.0,0.0,0.0,0.0,0.0,0.0,0.0,0.0,0.0,0.0,0.0,1500,1500,0.0,0.0,40.0483376667,-88.2331586667,0.0,0.0,0.0,0.0,0.0,0.0,0.0,0.0,0.0,0.0,0.0,0,0.0,0.0,0.0,0.0,90.0,63.0,60.0,89.8907089233,115.80113220209999,119.3662033081,42.7559967041,15.015335083,2.0799999237,0,2,25,1,174,281
130,1530630787237,2700237, RC,0,39.9586186,-88.445067899,0,0.0,0.0,0.0,0.0,0.0,0.0,0.0,0.0,0.0,0.0,0.0,0.0,0.0,1500,1500,0.0,0.0,40.0483376667,-88.2331586667,0.0,0.0,0.0,0.0,0.0,0.0,0.0,0.0,0.0,0.0,0.0,0,0.0,0.0,0.0,0.0,90.0,63.0,60.0,89.8907089233,115.80113220209999,119.3662033081,42.7559967041,15.015335083,2.0799999237,0,2,25,1,165,283
131,1530630787288,2700288, RC,0,39.9586186,-88.445067899,0,0.0,0.0,0.0,0.0,0.0,0.0,0.0,0.0,0.0,0.0,0.0,0.0,0.0,1500,1500,0.0,0.0,40.0483376667,-88.2331586667,0.0,0.0,0.0,0.0,0.0,0.0,0.0,0.0,0.0,0.0,0.0,0,0.0,0.0,0.0,0.0,90.0,63.0,60.0,89.8907089233,115.9284591675,119.3662033081,42.7559967041,15.015335083,2.0799999237,0,2,25,1,164,286
132,1530630787338,2700338, RC,0,39.9586186,-88.445067899,0,0.0,0.0,0.0,0.0,0.0,0.0,0.0,0.0,0.0,0.0,0.0,0.0,0.0,1500,1500,0.0,0.0,40.0483376667,-88.2331586667,0.0,0.0,0.0,0.0,0.0,0.0,0.0,0.0,0.0,0.0,0.0,0,0.0,0.0,0.0,0.0,90.0,63.0,60.0,89.8907089233,116.3104324341,119.3662033081,42.7559967041,15.015335083,2.0799999237,0,2,25,1,163,288
133,1530630787389,2700389, RC,0,39.9586186,-88.445067899,0,0.0,0.0,0.0,0.0,0.0,0.0,0.0,0.0,0.0,0.0,0.0,0.0,0.0,1500,1500,0.0,0.0,40.0483376667,-88.2331586667,0.0,0.0,0.0,0.0,0.0,0.0,0.0,0.0,0.0,0.0,0.0,0,0.0,0.0,0.0,0.0,90.0,63.0,60.0,89.8907089233,116.565071106,119.3662033081,42.7559967041,15.015335083,2.0799999237,0,2,25,1,170,291
134,1530630787439,2700439, RC,0,39.9586186,-88.445067899,0,0.0,0.0,0.0,0.0,0.0,0.0,0.0,0.0,0.0,0.0,0.0,0.0,0.0,1500,1500,0.0,0.0,40.0483376667,-88.2331586667,0.0,0.0,0.0,0.0,0.0,0.0,0.0,0.0,0.0,0.0,0.0,0,0.0,0.0,0.0,0.0,90.0,63.0,60.0,89.8907089233,116.5014190674,119.3662033081,42.7559967041,15.015335083,2.0799999237,0,2,25,1,167,293
135,1530630787490,2700490, RC,0,39.9586186,-88.445067899,0,0.0,0.0,0.0,0.0,0.0,0.0,0.0,0.0,0.0,0.0,0.0,0.0,0.0,1500,1500,0.0,0.0,40.0483376667,-88.2331586667,0.0,0.0,0.0,0.0,0.0,0.0,0.0,0.0,0.0,0.0,0.0,0,0.0,0.0,0.0,0.0,90.0,60.0,60.0,89.8907089233,116.565071106,119.3662033081,42.7559967041,15.015335083,2.0799999237,0,2,25,1,171,296
136,1530630787540,2700540, RC,0,39.9586186,-88.445067899,0,0.0,0.0,0.0,0.0,0.0,0.0,0.0,0.0,0.0,0.0,0.0,0.0,0.0,1500,1500,0.0,0.0,40.0483376667,-88.2331586667,0.0,0.0,0.0,0.0,0.0,0.0,0.0,0.0,0.0,0.0,0.0,0,0.0,0.0,0.0,0.0,90.0,60.0,60.0,89.8907089233,116.6924057007,119.3662033081,42.7559967041,15.015335083,2.0799999237,0,2,25,1,177,298
137,1530630787591,2700591, RC,0,39.9586186,-88.445067899,0,0.0,0.0,0.0,0.0,0.0,0.0,0.0,0.0,0.0,0.0,0.0,0.0,0.0,1500,1500,0.0,0.0,40.0483376667,-88.2331586667,0.0,0.0,0.0,0.0,0.0,0.0,0.0,0.0,0.0,0.0,0.0,0,0.0,0.0,0.0,0.0,90.0,60.0,60.0,89.8907089233,119.7481765747,119.3662033081,42.7559967041,15.015335083,2.0799999237,0,2,25,1,184,301
138,1530630787642,2700642, RC,0,39.9586186,-88.445067899,0,0.0,0.0,0.0,0.0,0.0,0.0,0.0,0.0,0.0,0.0,0.0,0.0,0.0,1500,1500,0.0,0.0,40.0483376667,-88.2331586667,0.0,0.0,0.0,0.0,0.0,0.0,0.0,0.0,0.0,0.0,0.0,0,0.0,0.0,0.0,0.0,90.0,60.0,60.0,89.8907089233,119.939163208,119.3662033081,42.7559967041,15.015335083,2.0799999237,0,2,25,1,174,303
139,1530630787692,2700692, RC,0,39.9586186,-88.445067899,0,0.0,0.0,0.0,0.0,0.0,0.0,0.0,0.0,0.0,0.0,0.0,0.0,0.0,1500,1500,0.0,0.0,40.0483376667,-88.2331586667,0.0,0.0,0.0,0.0,0.0,0.0,0.0,0.0,0.0,0.0,0.0,0,0.0,0.0,0.0,0.0,90.0,58.0,60.0,89.8907089233,119.0479049683,119.3662033081,42.7559967041,15.015335083,2.0799999237,0,2,25,1,174,306
140,1530630787743,2700743, RC,0,39.9586186,-88.445067899,0,0.0,0.0,0.0,0.0,0.0,0.0,0.0,0.0,0.0,0.0,0.0,0.0,0.0,1500,1500,0.0,0.0,40.0483376667,-88.2331586667,0.0,0.0,0.0,0.0,0.0,0.0,0.0,0.0,0.0,0.0,0.0,0,0.0,0.0,0.0,0.0,90.0,58.0,60.0,89.8907089233,119.1115570068,119.3662033081,42.7559967041,15.015335083,2.0799999237,0,2,25,1,173,308
141,1530630787793,2700793, RC,0,39.9586186,-88.445067899,0,0.0,0.0,0.0,0.0,0.0,0.0,0.0,0.0,0.0,0.0,0.0,0.0,0.0,1500,1500,0.0,0.0,40.0483376667,-88.2331586667,0.0,0.0,0.0,0.0,0.0,0.0,0.0,0.0,0.0,0.0,0.0,0,0.0,0.0,0.0,0.0,90.0,58.0,60.0,89.8907089233,122.0400161743,119.3662033081,42.7559967041,15.015335083,2.0799999237,0,2,25,1,163,311
142,1530630787844,2700844, RC,0,39.9586186,-88.445067899,0,0.0,0.0,0.0,0.0,0.0,0.0,0.0,0.0,0.0,0.0,0.0,0.0,0.0,1500,1500,0.0,0.0,40.048337833299996,-88.233159,0.0,0.0,0.0,0.0,0.0,0.0,0.0,0.0,0.0,0.0,0.0,0,0.0,0.0,0.0,0.0,90.0,58.0,60.0,89.8907089233,122.1673278809,119.3662033081,42.7559967041,15.015335083,2.0799999237,0,2,25,1,174,313
143,1530630787894,2700894, RC,0,39.9586186,-88.445067899,0,0.0,0.0,0.0,0.0,0.0,0.0,0.0,0.0,0.0,0.0,0.0,0.0,0.0,1500,1500,0.0,0.0,40.048337833299996,-88.233159,0.0,0.0,0.0,0.0,0.0,0.0,0.0,0.0,0.0,0.0,0.0,0,0.0,0.0,0.0,0.0,90.0,58.0,60.0,89.8907089233,121.7217025757,119.3662033081,42.7559967041,15.015335083,2.0799999237,0,2,25,1,165,316
144,1530630787945,2700945, RC,0,39.9586186,-88.445067899,0,0.0,0.0,0.0,0.0,0.0,0.0,0.0,0.0,0.0,0.0,0.0,0.0,0.0,1500,1500,0.0,0.0,40.048337833299996,-88.233159,0.0,0.0,0.0,0.0,0.0,0.0,0.0,0.0,0.0,0.0,0.0,0,0.0,0.0,0.0,0.0,90.0,58.0,60.0,89.8907089233,121.467048645,119.3662033081,42.7559967041,15.015335083,2.0799999237,0,2,25,1,166,319
145,1530630787996,2700996, RC,0,39.9586186,-88.445067899,0,0.0,0.0,0.0,0.0,0.0,0.0,0.0,0.0,0.0,0.0,0.0,0.0,0.0,1500,1500,0.0,0.0,40.048337833299996,-88.233159,0.0,0.0,0.0,0.0,0.0,0.0,0.0,0.0,0.0,0.0,0.0,0,0.0,0.0,0.0,0.0,90.0,58.0,60.0,89.8907089233,121.4033889771,119.3662033081,42.7559967041,15.015335083,2.0799999237,0,2,25,1,165,321
146,1530630788046,2701046, RC,0,39.9586186,-88.445067899,0,0.0,0.0,0.0,0.0,0.0,0.0,0.0,0.0,0.0,0.0,0.0,0.0,0.0,1500,1500,0.0,0.0,40.048337833299996,-88.233159,0.0,0.0,0.0,0.0,0.0,0.0,0.0,0.0,0.0,0.0,0.0,0,0.0,0.0,0.0,0.0,90.0,58.0,60.0,89.8907089233,121.4033889771,119.3662033081,42.7559967041,15.015335083,2.0799999237,0,2,25,1,160,324
147,1530630788097,2701097, RC,0,39.9586186,-88.445067899,0,0.0,0.0,0.0,0.0,0.0,0.0,0.0,0.0,0.0,0.0,0.0,0.0,0.0,1500,1500,0.0,0.0,40.048337833299996,-88.233159,0.0,0.0,0.0,0.0,0.0,0.0,0.0,0.0,0.0,0.0,0.0,0,0.0,0.0,0.0,0.0,90.0,58.0,60.0,89.8907089233,121.4033889771,119.3662033081,42.7559967041,15.015335083,2.0799999237,0,2,25,1,171,326
148,1530630788147,2701147, RC,0,39.9586186,-88.445067899,0,0.0,0.0,0.0,0.0,0.0,0.0,0.0,0.0,0.0,0.0,0.0,0.0,0.0,1500,1500,0.0,0.0,40.048337833299996,-88.233159,0.0,0.0,0.0,0.0,0.0,0.0,0.0,0.0,0.0,0.0,0.0,0,0.0,0.0,0.0,0.0,90.0,58.0,60.0,89.8907089233,121.4033889771,119.3662033081,42.7559967041,15.015335083,2.0799999237,0,2,25,1,163,329
149,1530630788198,2701198, RC,0,39.9586186,-88.445067899,0,0.0,0.0,0.0,0.0,0.0,0.0,0.0,0.0,0.0,0.0,0.0,0.0,0.0,1500,1500,0.0,0.0,40.048337833299996,-88.233159,0.0,0.0,0.0,0.0,0.0,0.0,0.0,0.0,0.0,0.0,0.0,0,0.0,0.0,0.0,0.0,90.0,58.0,60.0,89.8907089233,121.4033889771,119.3662033081,42.7559967041,15.0107221603,3.2899999619,0,2,25,1,175,331
150,1530630788248,2701248, RC,0,39.9586186,-88.445067899,0,0.0,0.0,0.0,0.0,0.0,0.0,0.0,0.0,0.0,0.0,0.0,0.0,0.0,1500,1500,0.0,0.0,40.048337833299996,-88.233159,0.0,0.0,0.0,0.0,0.0,0.0,0.0,0.0,0.0,0.0,0.0,0,0.0,0.0,0.0,0.0,90.0,58.0,60.0,89.8907089233,121.4033889771,119.3662033081,42.7559967041,15.0107221603,3.2899999619,0,2,25,1,163,334
151,1530630788299,2701299, RC,0,39.9586186,-88.445067899,0,0.0,0.0,0.0,0.0,0.0,0.0,0.0,0.0,0.0,0.0,0.0,0.0,0.0,1500,1500,0.0,0.0,40.048337833299996,-88.233159,0.0,0.0,0.0,0.0,0.0,0.0,0.0,0.0,0.0,0.0,0.0,0,0.0,0.0,0.0,0.0,90.0,58.0,60.0,89.8907089233,121.4033889771,119.3662033081,42.7559967041,15.0107221603,3.2899999619,0,2,25,1,161,336
152,1530630788349,2701349, RC,0,39.9586186,-88.445067899,0,0.0,0.0,0.0,0.0,0.0,0.0,0.0,0.0,0.0,0.0,0.0,0.0,0.0,1500,1500,0.0,0.0,40.048337833299996,-88.233159,0.0,0.0,0.0,0.0,0.0,0.0,0.0,0.0,0.0,0.0,0.0,0,0.0,0.0,0.0,0.0,90.0,58.0,60.0,89.8907089233,121.4033889771,119.3662033081,42.7559967041,15.0107221603,3.2899999619,0,2,25,1,166,339
153,1530630788400,2701400, RC,0,39.9586186,-88.445067899,0,0.0,0.0,0.0,0.0,0.0,0.0,0.0,0.0,0.0,0.0,0.0,0.0,0.0,1500,1500,0.0,0.0,40.048337833299996,-88.233159,0.0,0.0,0.0,0.0,0.0,0.0,0.0,0.0,0.0,0.0,0.0,0,0.0,0.0,0.0,0.0,90.0,58.0,60.0,89.8907089233,121.4033889771,119.3662033081,42.7559967041,15.0107221603,3.2899999619,0,2,25,1,173,341
154,1530630788451,2701451, RC,0,39.9586186,-88.445067899,0,0.0,0.0,0.0,0.0,0.0,0.0,0.0,0.0,0.0,0.0,0.0,0.0,0.0,1500,1500,0.0,0.0,40.048337833299996,-88.233159,0.0,0.0,0.0,0.0,0.0,0.0,0.0,0.0,0.0,0.0,0.0,0,0.0,0.0,0.0,0.0,90.0,58.0,60.0,89.8907089233,121.4033889771,119.3662033081,42.7559967041,15.0107221603,3.2899999619,0,2,25,1,171,344
155,1530630788501,2701501, RC,0,39.9586186,-88.445067899,0,0.0,0.0,0.0,0.0,0.0,0.0,0.0,0.0,0.0,0.0,0.0,0.0,0.0,1500,1500,0.0,0.0,40.048337833299996,-88.233159,0.0,0.0,0.0,0.0,0.0,0.0,0.0,0.0,0.0,0.0,0.0,0,0.0,0.0,0.0,0.0,90.0,58.0,60.0,89.8907089233,121.4033889771,119.3662033081,42.7559967041,15.0107221603,3.2899999619,0,2,25,1,172,346
156,1530630788561,2701561, RC,0,39.9586186,-88.445067899,0,0.0,0.0,0.0,0.0,0.0,0.0,0.0,0.0,0.0,0.0,0.0,0.0,0.0,1500,1500,0.0,0.0,40.048337833299996,-88.233159,0.0,0.0,0.0,0.0,0.0,0.0,0.0,0.0,0.0,0.0,0.0,0,0.0,0.0,0.0,0.0,90.0,58.0,60.0,89.8907089233,121.4033889771,119.3662033081,41.679000854499996,15.0107221603,3.2899999619,0,2,25,1,163,349
157,1530630788611,2701611, RC,0,39.9586186,-88.445067899,0,0.0,0.0,0.0,0.0,0.0,0.0,0.0,0.0,0.0,0.0,0.0,0.0,0.0,1500,1500,0.0,0.0,40.048337833299996,-88.233159,0.0,0.0,0.0,0.0,0.0,0.0,0.0,0.0,0.0,0.0,0.0,0,0.0,0.0,0.0,0.0,90.0,60.0,60.0,89.8907089233,121.4033889771,119.3662033081,41.679000854499996,15.0107221603,3.2899999619,0,2,25,1,180,352
158,1530630788662,2701662, RC,0,39.9586186,-88.445067899,0,0.0,0.0,0.0,0.0,0.0,0.0,0.0,0.0,0.0,0.0,0.0,0.0,0.0,1500,1500,0.0,0.0,40.048337833299996,-88.233159,0.0,0.0,0.0,0.0,0.0,0.0,0.0,0.0,0.0,0.0,0.0,0,0.0,0.0,0.0,0.0,90.0,60.0,60.0,89.8907089233,121.0850753784,119.3662033081,41.679000854499996,15.0107221603,3.2899999619,0,2,25,1,157,354
159,1530630788712,2701712, RC,0,39.9586186,-88.445067899,0,0.0,0.0,0.0,0.0,0.0,0.0,0.0,0.0,0.0,0.0,0.0,0.0,0.0,1500,1500,0.0,0.0,40.048337833299996,-88.233159,0.0,0.0,0.0,0.0,0.0,0.0,0.0,0.0,0.0,0.0,0.0,0,0.0,0.0,0.0,0.0,90.0,60.0,60.0,89.8907089233,120.0664901733,119.3662033081,41.679000854499996,15.0107221603,3.2899999619,0,2,25,1,172,357
160,1530630788762,2701762, RC,0,39.9586186,-88.445067899,0,0.0,0.0,0.0,0.0,0.0,0.0,0.0,0.0,0.0,0.0,0.0,0.0,0.0,1500,1500,0.0,0.0,40.048337833299996,-88.233159,0.0,0.0,0.0,0.0,0.0,0.0,0.0,0.0,0.0,0.0,0.0,0,0.0,0.0,0.0,0.0,90.0,60.0,60.0,89.8907089233,120.0664901733,119.3662033081,41.679000854499996,15.0107221603,3.2899999619,0,2,25,1,169,359
161,1530630788813,2701813, RC,0,39.9586186,-88.445067899,0,0.0,0.0,0.0,0.0,0.0,0.0,0.0,0.0,0.0,0.0,0.0,0.0,0.0,1500,1500,0.0,0.0,40.048337833299996,-88.233159,0.0,0.0,0.0,0.0,0.0,0.0,0.0,0.0,0.0,0.0,0.0,0,0.0,0.0,0.0,0.0,90.0,60.0,60.0,89.8907089233,119.5571899414,119.3662033081,41.679000854499996,15.0107221603,3.2899999619,0,2,25,1,176,362
162,1530630788863,2701863, RC,0,39.9586186,-88.445067899,0,0.0,0.0,0.0,0.0,0.0,0.0,0.0,0.0,0.0,0.0,0.0,0.0,0.0,1500,1500,0.0,0.0,40.0483375,-88.2331593333,0.0,0.0,0.0,0.0,0.0,0.0,0.0,0.0,0.0,0.0,0.0,0,0.0,0.0,0.0,0.0,90.0,60.0,60.0,89.8907089233,119.5571899414,119.3662033081,41.679000854499996,15.0107221603,3.2899999619,0,2,25,1,170,364
163,1530630788914,2701914, RC,0,39.9586186,-88.445067899,0,0.0,0.0,0.0,0.0,0.0,0.0,0.0,0.0,0.0,0.0,0.0,0.0,0.0,1500,1500,0.0,0.0,40.0483375,-88.2331593333,0.0,0.0,0.0,0.0,0.0,0.0,0.0,0.0,0.0,0.0,0.0,0,0.0,0.0,0.0,0.0,90.0,60.0,60.0,89.8907089233,119.5571899414,119.3662033081,41.679000854499996,15.0107221603,3.2899999619,0,2,25,1,169,367
164,1530630788964,2701964, RC,0,39.9586186,-88.445067899,0,0.0,0.0,0.0,0.0,0.0,0.0,0.0,0.0,0.0,0.0,0.0,0.0,0.0,1500,1500,0.0,0.0,40.0483375,-88.2331593333,0.0,0.0,0.0,0.0,0.0,0.0,0.0,0.0,0.0,0.0,0.0,0,0.0,0.0,0.0,0.0,90.0,60.0,60.0,89.8907089233,119.5571899414,119.3662033081,41.679000854499996,15.0107221603,3.2899999619,0,2,25,1,168,369
165,1530630789014,2702014, RC,0,39.9586186,-88.445067899,0,0.0,0.0,0.0,0.0,0.0,0.0,0.0,0.0,0.0,0.0,0.0,0.0,0.0,1500,1500,0.0,0.0,40.0483375,-88.2331593333,0.0,0.0,0.0,0.0,0.0,0.0,0.0,0.0,0.0,0.0,0.0,0,0.0,0.0,0.0,0.0,90.0,60.0,60.0,89.8907089233,119.5571899414,119.3662033081,41.679000854499996,15.0107221603,3.2899999619,0,2,25,1,171,372
166,1530630789065,2702065, RC,0,39.9586186,-88.445067899,0,0.0,0.0,0.0,0.0,0.0,0.0,0.0,0.0,0.0,0.0,0.0,0.0,0.0,1500,1500,0.0,0.0,40.0483375,-88.2331593333,0.0,0.0,0.0,0.0,0.0,0.0,0.0,0.0,0.0,0.0,0.0,0,0.0,0.0,0.0,0.0,90.0,60.0,60.0,89.8907089233,119.5571899414,119.3662033081,41.679000854499996,15.0107221603,3.2899999619,0,2,25,1,175,374
167,1530630789115,2702115, RC,0,39.9586186,-88.445067899,0,0.0,0.0,0.0,0.0,0.0,0.0,0.0,0.0,0.0,0.0,0.0,0.0,0.0,1500,1500,0.0,0.0,40.0483375,-88.2331593333,0.0,0.0,0.0,0.0,0.0,0.0,0.0,0.0,0.0,0.0,0.0,0,0.0,0.0,0.0,0.0,90.0,60.0,60.0,89.8907089233,119.5571899414,119.3662033081,41.679000854499996,15.0107221603,3.2899999619,0,2,25,1,159,377
168,1530630789166,2702166, RC,0,39.9586186,-88.445067899,0,0.0,0.0,0.0,0.0,0.0,0.0,0.0,0.0,0.0,0.0,0.0,0.0,0.0,1500,1500,0.0,0.0,40.0483375,-88.2331593333,0.0,0.0,0.0,0.0,0.0,0.0,0.0,0.0,0.0,0.0,0.0,0,0.0,0.0,0.0,0.0,90.0,60.0,60.0,89.8907089233,119.5571899414,119.3662033081,41.679000854499996,15.0107221603,3.2899999619,0,2,25,1,172,379
169,1530630789217,2702217, RC,0,39.9586186,-88.445067899,0,0.0,0.0,0.0,0.0,0.0,0.0,0.0,0.0,0.0,0.0,0.0,0.0,0.0,1500,1500,0.0,0.0,40.0483375,-88.2331593333,0.0,0.0,0.0,0.0,0.0,0.0,0.0,0.0,0.0,0.0,0.0,0,0.0,0.0,0.0,0.0,90.0,60.0,60.0,89.8907089233,119.5571899414,119.3662033081,41.679000854499996,15.006175041199999,3.0699999332,0,2,25,1,166,382
170,1530630789267,2702267, RC,0,39.9586186,-88.445067899,0,0.0,0.0,0.0,0.0,0.0,0.0,0.0,0.0,0.0,0.0,0.0,0.0,0.0,1500,1500,0.0,0.0,40.0483375,-88.2331593333,0.0,0.0,0.0,0.0,0.0,0.0,0.0,0.0,0.0,0.0,0.0,0,0.0,0.0,0.0,0.0,90.0,60.0,60.0,89.8907089233,119.5571899414,119.3662033081,41.679000854499996,15.006175041199999,3.0699999332,0,2,25,1,161,384
