,(0)linux time (ms),    (1)uptime  (ms),      (2)drive mode,(3)mpc step counter,(4)mpc origin latitude  (deg),(5)mpc origin longitude  (deg),(6)closest trajectory point index to robot,(7)mpc error x (W;E)  (m),(8)mpc error y (W;E)  (m),(9)abs mpc error (m),(10)input [x] for mhe (m),(11)input [y] for mhe (m),(12)input [speed] for mhe (m/s),(13)input [vyaw] for mhe (rad/s),(14)mhe output x  (m),(15)mhe output y  (m),(16)mhe output speed  (m/s),(17)mhe output yaw  (rad),(18)mpc reference heading (rad),(19)mpc turn rate command (rad/s),(20)turn rate command as PWM,(21)throttle command as PWM,(22)primary gps latitude (deg),(23)primary gps longitude (deg),(24)secondary gps latitude  (deg),(25)secondary gps longitude (deg),(26)accelerometer x (m/s^2),(27)accelerometer y (m/s^2),(28)accelerometer z (m/s^2),(29)gyro yaw rate (rad/s),(30)gyro pitch rate   (rad/s),(31)gyro roll rate (rad/s),      (32)yaw (rad),  (33)pitch   (rad),     (34)roll (rad),(35)sonar1 measurement (m),(36)ultrasonic sensor measurement (m),(37)primary gps time (s),(38)normalized turn rate command,(39)normalized throttle command,(40)speed calculation from encoder left (m/s),(41)speed calculation from encoder right (m/s),(42)front gimbal target angle (degrees from straight down),(43)left gimbal target angle  (degrees from straight down),(44)right gimbal target angle  (degrees from straight down),(45)front gimbal measured angle  (degrees from straight down),(46)left gimbal measured angle    (degrees from straight down),(47)right gimbal measured angle  (degrees from straight down),(48)internal temperature (C),(49)battery voltage (V),(50)primary gps type,(51)secondary gps type,    (52)MPC R value, (53)MPC Q[0] value,Unnamed: 54,weed_num,start
0,1530629677865,1590865, RC,0,39.9586186,-88.445067899,0,0.0,0.0,0.0,0.0,0.0,0.0,0.0,0.0,0.0,0.0,0.0,0.0,0.0,1500,1500,0.0,0.0,40.0483125,-88.2327575,0.0,0.0,0.0,0.0,0.0,0.0,0.0,0.0,0.0,0.0,0.0,0,0.0,0.0,0.0,0.0,90.0,90.0,90.0,89.25408935549999,89.44507598879999,90.2726821899,34.686000824000004,15.3896656036,3.5199999808999998,0,2,25,1,97,10
1,1530629677916,1590916, RC,0,39.9586186,-88.445067899,0,0.0,0.0,0.0,0.0,0.0,0.0,0.0,0.0,0.0,0.0,0.0,0.0,0.0,1500,1500,0.0,0.0,40.0483125,-88.2327575,0.0,0.0,0.0,0.0,0.0,0.0,0.0,0.0,0.0,0.0,0.0,0,0.0,0.0,0.0,0.0,90.0,90.0,90.0,89.25408935549999,89.44507598879999,89.6997299194,34.686000824000004,15.3896656036,3.5199999808999998,0,2,25,1,95,12
2,1530629677966,1590966, RC,0,39.9586186,-88.445067899,0,0.0,0.0,0.0,0.0,0.0,0.0,0.0,0.0,0.0,0.0,0.0,0.0,0.0,1500,1500,0.0,0.0,40.0483125,-88.2327575,0.0,0.0,0.0,0.0,0.0,0.0,0.0,0.0,0.0,0.0,0.0,0,0.0,0.0,0.0,0.0,90.0,90.0,90.0,89.25408935549999,89.44507598879999,89.44507598879999,34.686000824000004,15.3896656036,3.5199999808999998,0,2,25,1,87,14
3,1530629678016,1591016, RC,0,39.9586186,-88.445067899,0,0.0,0.0,0.0,0.0,0.0,0.0,0.0,0.0,0.0,0.0,0.0,0.0,0.0,1500,1500,0.0,0.0,40.0483125,-88.2327575,0.0,0.0,0.0,0.0,0.0,0.0,0.0,0.0,0.0,0.0,0.0,0,0.0,0.0,0.0,0.0,90.0,90.0,90.0,89.25408935549999,89.44507598879999,89.44507598879999,34.686000824000004,15.3896656036,3.5199999808999998,0,2,25,1,98,17
4,1530629678066,1591066, RC,0,39.9586186,-88.445067899,0,0.0,0.0,0.0,0.0,0.0,0.0,0.0,0.0,0.0,0.0,0.0,0.0,0.0,1500,1500,0.0,0.0,40.0483125,-88.2327575,0.0,0.0,0.0,0.0,0.0,0.0,0.0,0.0,0.0,0.0,0.0,0,0.0,0.0,0.0,0.0,90.0,90.0,90.0,89.1904296875,89.3814163208,89.3814163208,34.686000824000004,15.3896656036,3.5199999808999998,0,2,25,1,96,19
5,1530629678117,1591117, RC,0,39.9586186,-88.445067899,0,0.0,0.0,0.0,0.0,0.0,0.0,0.0,0.0,0.0,0.0,0.0,0.0,0.0,1500,1500,0.0,0.0,40.0483125,-88.2327575,0.0,0.0,0.0,0.0,0.0,0.0,0.0,0.0,0.0,0.0,0.0,0,0.0,0.0,0.0,0.0,90.0,90.0,90.0,89.25408935549999,89.3814163208,89.3814163208,34.686000824000004,15.3896656036,3.5199999808999998,0,2,25,1,101,21
6,1530629678167,1591167, RC,0,39.9586186,-88.445067899,0,0.0,0.0,0.0,0.0,0.0,0.0,0.0,0.0,0.0,0.0,0.0,0.0,0.0,1500,1500,0.0,0.0,40.0483125,-88.2327575,0.0,0.0,0.0,0.0,0.0,0.0,0.0,0.0,0.0,0.0,0.0,0,0.0,0.0,0.0,0.0,90.0,90.0,90.0,89.7633895874,89.3814163208,89.3814163208,35.223999023400005,15.3896656036,3.5199999808999998,0,2,25,1,112,23
7,1530629678217,1591217, RC,0,39.9586186,-88.445067899,0,0.0,0.0,0.0,0.0,0.0,0.0,0.0,0.0,0.0,0.0,0.0,0.0,0.0,1500,1500,0.0,0.0,40.0483125,-88.2327575,0.0,0.0,0.0,0.0,0.0,0.0,0.0,0.0,0.0,0.0,0.0,0,0.0,0.0,0.0,0.0,90.0,90.0,90.0,89.9543762207,89.3814163208,89.3814163208,35.223999023400005,15.3896656036,3.5199999808999998,0,2,25,1,100,26
8,1530629678268,1591268, RC,0,39.9586186,-88.445067899,0,0.0,0.0,0.0,0.0,0.0,0.0,0.0,0.0,0.0,0.0,0.0,0.0,0.0,1500,1500,0.0,0.0,40.0483125,-88.2327575,0.0,0.0,0.0,0.0,0.0,0.0,0.0,0.0,0.0,0.0,0.0,0,0.0,0.0,0.0,0.0,90.0,90.0,90.0,89.8907089233,89.3814163208,89.3177566528,35.223999023400005,15.3896656036,3.5199999808999998,0,2,25,1,125,28
9,1530629678318,1591318, RC,0,39.9586186,-88.445067899,0,0.0,0.0,0.0,0.0,0.0,0.0,0.0,0.0,0.0,0.0,0.0,0.0,0.0,1500,1500,0.0,0.0,40.0483125,-88.2327575,0.0,0.0,0.0,0.0,0.0,0.0,0.0,0.0,0.0,0.0,0.0,0,0.0,0.0,0.0,0.0,90.0,90.0,90.0,89.8907089233,89.3814163208,89.3177566528,35.223999023400005,15.3896656036,3.5199999808999998,0,2,25,1,134,30
10,1530629678368,1591368, RC,0,39.9586186,-88.445067899,0,0.0,0.0,0.0,0.0,0.0,0.0,0.0,0.0,0.0,0.0,0.0,0.0,0.0,1500,1500,0.0,0.0,40.0483125,-88.2327575,0.0,0.0,0.0,0.0,0.0,0.0,0.0,0.0,0.0,0.0,0.0,0,0.0,0.0,0.0,0.0,90.0,90.0,90.0,89.8907089233,89.3814163208,89.3177566528,35.223999023400005,15.3896656036,3.5199999808999998,0,2,25,1,132,32
11,1530629678419,1591419, RC,0,39.9586186,-88.445067899,0,0.0,0.0,0.0,0.0,0.0,0.0,0.0,0.0,0.0,0.0,0.0,0.0,0.0,1500,1500,0.0,0.0,40.0483125,-88.2327575,0.0,0.0,0.0,0.0,0.0,0.0,0.0,0.0,0.0,0.0,0.0,0,0.0,0.0,0.0,0.0,90.0,90.0,90.0,89.8907089233,89.3814163208,89.3177566528,35.223999023400005,15.3896656036,3.5199999808999998,0,2,25,1,122,35
12,1530629678469,1591469, RC,0,39.9586186,-88.445067899,0,0.0,0.0,0.0,0.0,0.0,0.0,0.0,0.0,0.0,0.0,0.0,0.0,0.0,1500,1500,0.0,0.0,40.0483125,-88.2327575,0.0,0.0,0.0,0.0,0.0,0.0,0.0,0.0,0.0,0.0,0.0,0,0.0,0.0,0.0,0.0,90.0,90.0,90.0,89.8907089233,89.3814163208,89.3177566528,35.223999023400005,15.3896656036,3.5199999808999998,0,2,25,1,125,37
13,1530629678519,1591519, RC,0,39.9586186,-88.445067899,0,0.0,0.0,0.0,0.0,0.0,0.0,0.0,0.0,0.0,0.0,0.0,0.0,0.0,1500,1500,0.0,0.0,40.0483125,-88.2327575,0.0,0.0,0.0,0.0,0.0,0.0,0.0,0.0,0.0,0.0,0.0,0,0.0,0.0,0.0,0.0,90.0,90.0,90.0,89.8907089233,89.3814163208,89.3177566528,35.223999023400005,15.3896656036,3.5199999808999998,0,2,25,1,158,39
14,1530629678581,1591581, RC,0,39.9586186,-88.445067899,0,0.0,0.0,0.0,0.0,0.0,0.0,0.0,0.0,0.0,0.0,0.0,0.0,0.0,1500,1500,0.0,0.0,40.0483125,-88.2327575,0.0,0.0,0.0,0.0,0.0,0.0,0.0,0.0,0.0,0.0,0.0,0,0.0,0.0,0.0,0.0,90.0,90.0,90.0,89.8907089233,89.3814163208,89.3177566528,35.223999023400005,15.3896656036,3.5199999808999998,0,2,25,1,137,42
15,1530629678631,1591631, RC,0,39.9586186,-88.445067899,0,0.0,0.0,0.0,0.0,0.0,0.0,0.0,0.0,0.0,0.0,0.0,0.0,0.0,1500,1500,0.0,0.0,40.0483125,-88.2327575,0.0,0.0,0.0,0.0,0.0,0.0,0.0,0.0,0.0,0.0,0.0,0,0.0,0.0,0.0,0.0,90.0,90.0,90.0,89.8907089233,89.3814163208,89.25408935549999,35.223999023400005,15.3896656036,3.5199999808999998,0,2,25,1,164,44
16,1530629678681,1591681, RC,0,39.9586186,-88.445067899,0,0.0,0.0,0.0,0.0,0.0,0.0,0.0,0.0,0.0,0.0,0.0,0.0,0.0,1500,1500,0.0,0.0,40.0483125,-88.2327575,0.0,0.0,0.0,0.0,0.0,0.0,0.0,0.0,0.0,0.0,0.0,0,0.0,0.0,0.0,0.0,90.0,90.0,90.0,89.8907089233,89.3814163208,89.25408935549999,35.223999023400005,15.3896656036,3.5199999808999998,0,2,25,1,139,46
17,1530629678732,1591732, RC,0,39.9586186,-88.445067899,0,0.0,0.0,0.0,0.0,0.0,0.0,0.0,0.0,0.0,0.0,0.0,0.0,0.0,1500,1500,0.0,0.0,40.0483125,-88.2327575,0.0,0.0,0.0,0.0,0.0,0.0,0.0,0.0,0.0,0.0,0.0,0,0.0,0.0,0.0,0.0,90.0,90.0,90.0,89.8907089233,89.3814163208,89.25408935549999,35.223999023400005,15.3896656036,3.5199999808999998,0,2,25,1,146,49
18,1530629678782,1591782, RC,0,39.9586186,-88.445067899,0,0.0,0.0,0.0,0.0,0.0,0.0,0.0,0.0,0.0,0.0,0.0,0.0,0.0,1500,1500,0.0,0.0,40.0483125,-88.2327575,0.0,0.0,0.0,0.0,0.0,0.0,0.0,0.0,0.0,0.0,0.0,0,0.0,0.0,0.0,0.0,90.0,90.0,90.0,89.8907089233,89.3814163208,89.25408935549999,35.223999023400005,15.3896656036,3.5199999808999998,0,2,25,1,144,51
19,1530629678832,1591832, RC,0,39.9586186,-88.445067899,0,0.0,0.0,0.0,0.0,0.0,0.0,0.0,0.0,0.0,0.0,0.0,0.0,0.0,1500,1500,0.0,0.0,40.0483195,-88.2327551667,0.0,0.0,0.0,0.0,0.0,0.0,0.0,0.0,0.0,0.0,0.0,0,0.0,0.0,0.0,0.0,90.0,90.0,90.0,89.8907089233,89.3814163208,89.25408935549999,35.223999023400005,15.3899488449,2.9000000954000003,0,2,25,1,138,53
20,1530629678883,1591883, RC,0,39.9586186,-88.445067899,0,0.0,0.0,0.0,0.0,0.0,0.0,0.0,0.0,0.0,0.0,0.0,0.0,0.0,1500,1500,0.0,0.0,40.0483195,-88.2327551667,0.0,0.0,0.0,0.0,0.0,0.0,0.0,0.0,0.0,0.0,0.0,0,0.0,0.0,0.0,0.0,90.0,82.0,90.0,89.8907089233,89.3814163208,89.25408935549999,35.223999023400005,15.3899488449,2.9000000954000003,0,2,25,1,145,56
21,1530629678933,1591933, RC,0,39.9586186,-88.445067899,0,0.0,0.0,0.0,0.0,0.0,0.0,0.0,0.0,0.0,0.0,0.0,0.0,0.0,1500,1500,0.0,0.0,40.0483195,-88.2327551667,0.0,0.0,0.0,0.0,0.0,0.0,0.0,0.0,0.0,0.0,0.0,0,0.0,0.0,0.0,0.0,90.0,82.0,90.0,89.8907089233,90.2726821899,89.25408935549999,35.223999023400005,15.3899488449,2.9000000954000003,0,2,25,1,138,58
22,1530629678983,1591983, RC,0,39.9586186,-88.445067899,0,0.0,0.0,0.0,0.0,0.0,0.0,0.0,0.0,0.0,0.0,0.0,0.0,0.0,1500,1500,0.0,0.0,40.0483195,-88.2327551667,0.0,0.0,0.0,0.0,0.0,0.0,0.0,0.0,0.0,0.0,0.0,0,0.0,0.0,0.0,0.0,90.0,82.0,90.0,89.8907089233,96.5752182007,89.25408935549999,35.223999023400005,15.3899488449,2.9000000954000003,0,2,25,1,141,60
23,1530629679034,1592034, RC,0,39.9586186,-88.445067899,0,0.0,0.0,0.0,0.0,0.0,0.0,0.0,0.0,0.0,0.0,0.0,0.0,0.0,1500,1500,0.0,0.0,40.0483195,-88.2327551667,0.0,0.0,0.0,0.0,0.0,0.0,0.0,0.0,0.0,0.0,0.0,0,0.0,0.0,0.0,0.0,90.0,82.0,90.0,89.8907089233,97.4028244019,89.25408935549999,35.223999023400005,15.3899488449,2.9000000954000003,0,2,25,1,134,62
24,1530629679084,1592084, RC,0,39.9586186,-88.445067899,0,0.0,0.0,0.0,0.0,0.0,0.0,0.0,0.0,0.0,0.0,0.0,0.0,0.0,1500,1500,0.0,0.0,40.0483195,-88.2327551667,0.0,0.0,0.0,0.0,0.0,0.0,0.0,0.0,0.0,0.0,0.0,0,0.0,0.0,0.0,0.0,90.0,76.0,90.0,89.8907089233,97.02085876459999,89.25408935549999,35.223999023400005,15.3899488449,2.9000000954000003,0,2,25,1,136,65
25,1530629679135,1592135, RC,0,39.9586186,-88.445067899,0,0.0,0.0,0.0,0.0,0.0,0.0,0.0,0.0,0.0,0.0,0.0,0.0,0.0,1500,1500,0.0,0.0,40.0483195,-88.2327551667,0.0,0.0,0.0,0.0,0.0,0.0,0.0,0.0,0.0,0.0,0.0,0,0.0,0.0,0.0,0.0,90.0,76.0,90.0,89.8907089233,98.9307174683,89.25408935549999,35.223999023400005,15.3899488449,2.9000000954000003,0,2,25,1,144,67
26,1530629679185,1592185, RC,0,39.9586186,-88.445067899,0,0.0,0.0,0.0,0.0,0.0,0.0,0.0,0.0,0.0,0.0,0.0,0.0,0.0,1500,1500,0.0,0.0,40.0483195,-88.2327551667,0.0,0.0,0.0,0.0,0.0,0.0,0.0,0.0,0.0,0.0,0.0,0,0.0,0.0,0.0,0.0,90.0,76.0,90.0,89.8907089233,103.7053604126,89.25408935549999,35.223999023400005,15.3899488449,2.9000000954000003,0,2,25,1,134,69
27,1530629679236,1592236, RC,0,39.9586186,-88.445067899,0,0.0,0.0,0.0,0.0,0.0,0.0,0.0,0.0,0.0,0.0,0.0,0.0,0.0,1500,1500,0.0,0.0,40.0483195,-88.2327551667,0.0,0.0,0.0,0.0,0.0,0.0,0.0,0.0,0.0,0.0,0.0,0,0.0,0.0,0.0,0.0,90.0,76.0,90.0,89.8907089233,103.64170074459999,89.25408935549999,35.223999023400005,15.3899488449,2.9000000954000003,0,2,25,1,138,71
28,1530629679286,1592286, RC,0,39.9586186,-88.445067899,0,0.0,0.0,0.0,0.0,0.0,0.0,0.0,0.0,0.0,0.0,0.0,0.0,0.0,1500,1500,0.0,0.0,40.0483195,-88.2327551667,0.0,0.0,0.0,0.0,0.0,0.0,0.0,0.0,0.0,0.0,0.0,0,0.0,0.0,0.0,0.0,90.0,72.0,90.0,89.8907089233,103.0050811768,89.25408935549999,35.223999023400005,15.3899488449,2.9000000954000003,0,2,25,1,136,74
29,1530629679337,1592337, RC,0,39.9586186,-88.445067899,0,0.0,0.0,0.0,0.0,0.0,0.0,0.0,0.0,0.0,0.0,0.0,0.0,0.0,1500,1500,0.0,0.0,40.0483195,-88.2327551667,0.0,0.0,0.0,0.0,0.0,0.0,0.0,0.0,0.0,0.0,0.0,0,0.0,0.0,0.0,0.0,90.0,72.0,90.0,89.8907089233,104.34197998049999,89.25408935549999,35.223999023400005,15.3899488449,2.9000000954000003,0,2,25,1,135,76
30,1530629679387,1592387, RC,0,39.9586186,-88.445067899,0,0.0,0.0,0.0,0.0,0.0,0.0,0.0,0.0,0.0,0.0,0.0,0.0,0.0,1500,1500,0.0,0.0,40.0483195,-88.2327551667,0.0,0.0,0.0,0.0,0.0,0.0,0.0,0.0,0.0,0.0,0.0,0,0.0,0.0,0.0,0.0,90.0,72.0,90.0,89.8907089233,108.28902435299999,89.25408935549999,35.223999023400005,15.3899488449,2.9000000954000003,0,2,25,1,145,78
31,1530629679438,1592438, RC,0,39.9586186,-88.445067899,0,0.0,0.0,0.0,0.0,0.0,0.0,0.0,0.0,0.0,0.0,0.0,0.0,0.0,1500,1500,0.0,0.0,40.0483195,-88.2327551667,0.0,0.0,0.0,0.0,0.0,0.0,0.0,0.0,0.0,0.0,0.0,0,0.0,0.0,0.0,0.0,90.0,72.0,90.0,89.8907089233,108.1616973877,89.25408935549999,35.223999023400005,15.3899488449,2.9000000954000003,0,2,25,1,132,80
32,1530629679488,1592488, RC,0,39.9586186,-88.445067899,0,0.0,0.0,0.0,0.0,0.0,0.0,0.0,0.0,0.0,0.0,0.0,0.0,0.0,1500,1500,0.0,0.0,40.0483195,-88.2327551667,0.0,0.0,0.0,0.0,0.0,0.0,0.0,0.0,0.0,0.0,0.0,0,0.0,0.0,0.0,0.0,90.0,67.0,90.0,89.8907089233,107.2704315186,89.25408935549999,35.223999023400005,15.3899488449,2.9000000954000003,0,2,25,1,144,83
33,1530629679539,1592539, RC,0,39.9586186,-88.445067899,0,0.0,0.0,0.0,0.0,0.0,0.0,0.0,0.0,0.0,0.0,0.0,0.0,0.0,1500,1500,0.0,0.0,40.0483195,-88.2327551667,0.0,0.0,0.0,0.0,0.0,0.0,0.0,0.0,0.0,0.0,0.0,0,0.0,0.0,0.0,0.0,90.0,67.0,90.0,89.8907089233,108.09803771969999,89.25408935549999,35.223999023400005,15.3899488449,2.9000000954000003,0,2,25,1,135,85
34,1530629679589,1592589, RC,0,39.9586186,-88.445067899,0,0.0,0.0,0.0,0.0,0.0,0.0,0.0,0.0,0.0,0.0,0.0,0.0,0.0,1500,1500,0.0,0.0,40.0483195,-88.2327551667,0.0,0.0,0.0,0.0,0.0,0.0,0.0,0.0,0.0,0.0,0.0,0,0.0,0.0,0.0,0.0,90.0,67.0,90.0,89.8907089233,111.917755127,89.25408935549999,35.223999023400005,15.3899488449,2.9000000954000003,0,2,25,1,150,87
35,1530629679640,1592640, RC,0,39.9586186,-88.445067899,0,0.0,0.0,0.0,0.0,0.0,0.0,0.0,0.0,0.0,0.0,0.0,0.0,0.0,1500,1500,0.0,0.0,40.0483195,-88.2327551667,0.0,0.0,0.0,0.0,0.0,0.0,0.0,0.0,0.0,0.0,0.0,0,0.0,0.0,0.0,0.0,90.0,67.0,90.0,89.8907089233,112.2997283936,89.25408935549999,35.223999023400005,15.3899488449,2.9000000954000003,0,2,25,1,154,89
36,1530629679691,1592691, RC,0,39.9586186,-88.445067899,0,0.0,0.0,0.0,0.0,0.0,0.0,0.0,0.0,0.0,0.0,0.0,0.0,0.0,1500,1500,0.0,0.0,40.0483195,-88.2327551667,0.0,0.0,0.0,0.0,0.0,0.0,0.0,0.0,0.0,0.0,0.0,0,0.0,0.0,0.0,0.0,90.0,67.0,90.0,89.8907089233,112.36338806149999,89.25408935549999,35.223999023400005,15.3899488449,2.9000000954000003,0,2,25,1,138,92
37,1530629679741,1592741, RC,0,39.9586186,-88.445067899,0,0.0,0.0,0.0,0.0,0.0,0.0,0.0,0.0,0.0,0.0,0.0,0.0,0.0,1500,1500,0.0,0.0,40.0483195,-88.2327551667,0.0,0.0,0.0,0.0,0.0,0.0,0.0,0.0,0.0,0.0,0.0,0,0.0,0.0,0.0,0.0,90.0,67.0,90.0,89.8907089233,112.36338806149999,89.25408935549999,35.223999023400005,15.3899488449,2.9000000954000003,0,2,25,1,153,95
38,1530629679792,1592792, RC,0,39.9586186,-88.445067899,0,0.0,0.0,0.0,0.0,0.0,0.0,0.0,0.0,0.0,0.0,0.0,0.0,0.0,1500,1500,0.0,0.0,40.0483195,-88.2327551667,0.0,0.0,0.0,0.0,0.0,0.0,0.0,0.0,0.0,0.0,0.0,0,0.0,0.0,0.0,0.0,90.0,67.0,90.0,89.8907089233,112.36338806149999,89.25408935549999,35.223999023400005,15.3899488449,2.9000000954000003,0,2,25,1,138,99
39,1530629679842,1592842, RC,0,39.9586186,-88.445067899,0,0.0,0.0,0.0,0.0,0.0,0.0,0.0,0.0,0.0,0.0,0.0,0.0,0.0,1500,1500,0.0,0.0,40.0483223333,-88.2327533333,0.0,0.0,0.0,0.0,0.0,0.0,0.0,0.0,0.0,0.0,0.0,0,0.0,0.0,0.0,0.0,90.0,67.0,90.0,89.8907089233,112.36338806149999,89.25408935549999,35.223999023400005,15.390307426500001,3.1799998282999997,0,2,25,1,145,102
40,1530629679893,1592893, RC,0,39.9586186,-88.445067899,0,0.0,0.0,0.0,0.0,0.0,0.0,0.0,0.0,0.0,0.0,0.0,0.0,0.0,1500,1500,0.0,0.0,40.0483223333,-88.2327533333,0.0,0.0,0.0,0.0,0.0,0.0,0.0,0.0,0.0,0.0,0.0,0,0.0,0.0,0.0,0.0,90.0,64.0,90.0,89.8907089233,112.36338806149999,89.25408935549999,35.223999023400005,15.390307426500001,3.1799998282999997,0,2,25,1,137,104
41,1530629679943,1592943, RC,0,39.9586186,-88.445067899,0,0.0,0.0,0.0,0.0,0.0,0.0,0.0,0.0,0.0,0.0,0.0,0.0,0.0,1500,1500,0.0,0.0,40.0483223333,-88.2327533333,0.0,0.0,0.0,0.0,0.0,0.0,0.0,0.0,0.0,0.0,0.0,0,0.0,0.0,0.0,0.0,90.0,64.0,90.0,89.8907089233,112.55437469479999,89.25408935549999,35.223999023400005,15.390307426500001,3.1799998282999997,0,2,25,1,149,107
42,1530629679994,1592994, RC,0,39.9586186,-88.445067899,0,0.0,0.0,0.0,0.0,0.0,0.0,0.0,0.0,0.0,0.0,0.0,0.0,0.0,1500,1500,0.0,0.0,40.0483223333,-88.2327533333,0.0,0.0,0.0,0.0,0.0,0.0,0.0,0.0,0.0,0.0,0.0,0,0.0,0.0,0.0,0.0,90.0,64.0,90.0,89.8907089233,115.291847229,89.25408935549999,35.223999023400005,15.390307426500001,3.1799998282999997,0,2,25,1,143,109
43,1530629680044,1593044, RC,0,39.9586186,-88.445067899,0,0.0,0.0,0.0,0.0,0.0,0.0,0.0,0.0,0.0,0.0,0.0,0.0,0.0,1500,1500,0.0,0.0,40.0483223333,-88.2327533333,0.0,0.0,0.0,0.0,0.0,0.0,0.0,0.0,0.0,0.0,0.0,0,0.0,0.0,0.0,0.0,90.0,64.0,90.0,89.8907089233,115.291847229,89.25408935549999,35.223999023400005,15.390307426500001,3.1799998282999997,0,2,25,1,153,112
44,1530629680095,1593095, RC,0,39.9586186,-88.445067899,0,0.0,0.0,0.0,0.0,0.0,0.0,0.0,0.0,0.0,0.0,0.0,0.0,0.0,1500,1500,0.0,0.0,40.0483223333,-88.2327533333,0.0,0.0,0.0,0.0,0.0,0.0,0.0,0.0,0.0,0.0,0.0,0,0.0,0.0,0.0,0.0,90.0,63.0,90.0,89.8907089233,115.291847229,89.25408935549999,35.223999023400005,15.390307426500001,3.1799998282999997,0,2,25,1,146,114
45,1530629680145,1593145, RC,0,39.9586186,-88.445067899,0,0.0,0.0,0.0,0.0,0.0,0.0,0.0,0.0,0.0,0.0,0.0,0.0,0.0,1500,1500,0.0,0.0,40.0483223333,-88.2327533333,0.0,0.0,0.0,0.0,0.0,0.0,0.0,0.0,0.0,0.0,0.0,0,0.0,0.0,0.0,0.0,90.0,63.0,90.0,89.8907089233,115.291847229,89.25408935549999,35.223999023400005,15.390307426500001,3.1799998282999997,0,2,25,1,143,117
46,1530629680196,1593196, RC,0,39.9586186,-88.445067899,0,0.0,0.0,0.0,0.0,0.0,0.0,0.0,0.0,0.0,0.0,0.0,0.0,0.0,1500,1500,0.0,0.0,40.0483223333,-88.2327533333,0.0,0.0,0.0,0.0,0.0,0.0,0.0,0.0,0.0,0.0,0.0,0,0.0,0.0,0.0,0.0,90.0,61.0,90.0,89.8907089233,115.9921188354,89.25408935549999,35.223999023400005,15.390307426500001,3.1799998282999997,0,2,25,1,152,119
47,1530629680247,1593247, RC,0,39.9586186,-88.445067899,0,0.0,0.0,0.0,0.0,0.0,0.0,0.0,0.0,0.0,0.0,0.0,0.0,0.0,1500,1500,0.0,0.0,40.0483223333,-88.2327533333,0.0,0.0,0.0,0.0,0.0,0.0,0.0,0.0,0.0,0.0,0.0,0,0.0,0.0,0.0,0.0,90.0,61.0,90.0,89.8907089233,116.3740844727,89.25408935549999,35.223999023400005,15.390307426500001,3.1799998282999997,0,2,25,1,139,122
48,1530629680297,1593297, RC,0,39.9586186,-88.445067899,0,0.0,0.0,0.0,0.0,0.0,0.0,0.0,0.0,0.0,0.0,0.0,0.0,0.0,1500,1500,0.0,0.0,40.0483223333,-88.2327533333,0.0,0.0,0.0,0.0,0.0,0.0,0.0,0.0,0.0,0.0,0.0,0,0.0,0.0,0.0,0.0,90.0,61.0,90.0,89.8907089233,118.0929718018,89.25408935549999,35.223999023400005,15.390307426500001,3.1799998282999997,0,2,25,1,153,124
49,1530629680348,1593348, RC,0,39.9586186,-88.445067899,0,0.0,0.0,0.0,0.0,0.0,0.0,0.0,0.0,0.0,0.0,0.0,0.0,0.0,1500,1500,0.0,0.0,40.0483223333,-88.2327533333,0.0,0.0,0.0,0.0,0.0,0.0,0.0,0.0,0.0,0.0,0.0,0,0.0,0.0,0.0,0.0,90.0,61.0,90.0,89.8907089233,118.2839584351,89.25408935549999,35.223999023400005,15.390307426500001,3.1799998282999997,0,2,25,1,145,127
50,1530629680398,1593398, RC,0,39.9586186,-88.445067899,0,0.0,0.0,0.0,0.0,0.0,0.0,0.0,0.0,0.0,0.0,0.0,0.0,0.0,1500,1500,0.0,0.0,40.0483223333,-88.2327533333,0.0,0.0,0.0,0.0,0.0,0.0,0.0,0.0,0.0,0.0,0.0,0,0.0,0.0,0.0,0.0,90.0,58.0,90.0,89.8907089233,118.34761810299999,89.25408935549999,35.223999023400005,15.390307426500001,3.1799998282999997,0,2,25,1,150,129
51,1530629680449,1593449, RC,0,39.9586186,-88.445067899,0,0.0,0.0,0.0,0.0,0.0,0.0,0.0,0.0,0.0,0.0,0.0,0.0,0.0,1500,1500,0.0,0.0,40.0483223333,-88.2327533333,0.0,0.0,0.0,0.0,0.0,0.0,0.0,0.0,0.0,0.0,0.0,0,0.0,0.0,0.0,0.0,90.0,58.0,90.0,89.8907089233,118.34761810299999,89.25408935549999,35.223999023400005,15.390307426500001,3.1799998282999997,0,2,25,1,146,132
52,1530629680499,1593499, RC,0,39.9586186,-88.445067899,0,0.0,0.0,0.0,0.0,0.0,0.0,0.0,0.0,0.0,0.0,0.0,0.0,0.0,1500,1500,0.0,0.0,40.0483223333,-88.2327533333,0.0,0.0,0.0,0.0,0.0,0.0,0.0,0.0,0.0,0.0,0.0,0,0.0,0.0,0.0,0.0,90.0,58.0,90.0,89.8907089233,120.32112884520001,89.25408935549999,35.223999023400005,15.390307426500001,3.1799998282999997,0,2,25,1,147,134
53,1530629680550,1593550, RC,0,39.9586186,-88.445067899,0,0.0,0.0,0.0,0.0,0.0,0.0,0.0,0.0,0.0,0.0,0.0,0.0,0.0,1500,1500,0.0,0.0,40.0483223333,-88.2327533333,0.0,0.0,0.0,0.0,0.0,0.0,0.0,0.0,0.0,0.0,0.0,0,0.0,0.0,0.0,0.0,90.0,58.0,90.0,89.8907089233,121.467048645,89.25408935549999,35.223999023400005,15.390307426500001,3.1799998282999997,0,2,25,1,142,137
54,1530629680600,1593600, RC,0,39.9586186,-88.445067899,0,0.0,0.0,0.0,0.0,0.0,0.0,0.0,0.0,0.0,0.0,0.0,0.0,0.0,1500,1500,0.0,0.0,40.0483223333,-88.2327533333,0.0,0.0,0.0,0.0,0.0,0.0,0.0,0.0,0.0,0.0,0.0,0,0.0,0.0,0.0,0.0,90.0,58.0,90.0,89.82704925540001,120.9577560425,89.25408935549999,35.223999023400005,15.390307426500001,3.1799998282999997,0,2,25,1,152,139
55,1530629680651,1593651, RC,0,39.9586186,-88.445067899,0,0.0,0.0,0.0,0.0,0.0,0.0,0.0,0.0,0.0,0.0,0.0,0.0,0.0,1500,1500,0.0,0.0,40.0483223333,-88.2327533333,0.0,0.0,0.0,0.0,0.0,0.0,0.0,0.0,0.0,0.0,0.0,0,0.0,0.0,0.0,0.0,90.0,58.0,90.0,89.82704925540001,120.9577560425,89.25408935549999,35.223999023400005,15.390307426500001,3.1799998282999997,0,2,25,1,141,142
56,1530629680701,1593701, RC,0,39.9586186,-88.445067899,0,0.0,0.0,0.0,0.0,0.0,0.0,0.0,0.0,0.0,0.0,0.0,0.0,0.0,1500,1500,0.0,0.0,40.0483223333,-88.2327533333,0.0,0.0,0.0,0.0,0.0,0.0,0.0,0.0,0.0,0.0,0.0,0,0.0,0.0,0.0,0.0,90.0,58.0,90.0,89.8907089233,120.9577560425,89.25408935549999,35.223999023400005,15.390307426500001,3.1799998282999997,0,2,25,1,145,144
57,1530629680752,1593752, RC,0,39.9586186,-88.445067899,0,0.0,0.0,0.0,0.0,0.0,0.0,0.0,0.0,0.0,0.0,0.0,0.0,0.0,1500,1500,0.0,0.0,40.0483223333,-88.2327533333,0.0,0.0,0.0,0.0,0.0,0.0,0.0,0.0,0.0,0.0,0.0,0,0.0,0.0,0.0,0.0,90.0,58.0,90.0,89.82704925540001,120.9577560425,89.25408935549999,35.223999023400005,15.390307426500001,3.1799998282999997,0,2,25,1,144,147
58,1530629680803,1593803, RC,0,39.9586186,-88.445067899,0,0.0,0.0,0.0,0.0,0.0,0.0,0.0,0.0,0.0,0.0,0.0,0.0,0.0,1500,1500,0.0,0.0,40.0483281667,-88.2327495,0.0,0.0,0.0,0.0,0.0,0.0,0.0,0.0,0.0,0.0,0.0,0,0.0,0.0,0.0,0.0,90.0,58.0,90.0,89.82704925540001,120.9577560425,89.25408935549999,35.223999023400005,15.390307426500001,3.1799998282999997,0,2,25,1,148,149
59,1530629680853,1593853, RC,0,39.9586186,-88.445067899,0,0.0,0.0,0.0,0.0,0.0,0.0,0.0,0.0,0.0,0.0,0.0,0.0,0.0,1500,1500,0.0,0.0,40.0483281667,-88.2327495,0.0,0.0,0.0,0.0,0.0,0.0,0.0,0.0,0.0,0.0,0.0,0,0.0,0.0,0.0,0.0,90.0,58.0,90.0,89.82704925540001,120.9577560425,89.25408935549999,35.223999023400005,15.3857345581,3.0199999808999998,0,2,25,1,140,152
60,1530629680904,1593904, RC,0,39.9586186,-88.445067899,0,0.0,0.0,0.0,0.0,0.0,0.0,0.0,0.0,0.0,0.0,0.0,0.0,0.0,1500,1500,0.0,0.0,40.0483281667,-88.2327495,0.0,0.0,0.0,0.0,0.0,0.0,0.0,0.0,0.0,0.0,0.0,0,0.0,0.0,0.0,0.0,90.0,58.0,90.0,89.82704925540001,120.9577560425,89.25408935549999,35.223999023400005,15.3857345581,3.0199999808999998,0,2,25,1,147,154
61,1530629680954,1593954, RC,0,39.9586186,-88.445067899,0,0.0,0.0,0.0,0.0,0.0,0.0,0.0,0.0,0.0,0.0,0.0,0.0,0.0,1500,1500,0.0,0.0,40.0483281667,-88.2327495,0.0,0.0,0.0,0.0,0.0,0.0,0.0,0.0,0.0,0.0,0.0,0,0.0,0.0,0.0,0.0,90.0,58.0,90.0,89.82704925540001,120.9577560425,89.25408935549999,35.223999023400005,15.3857345581,3.0199999808999998,0,2,25,1,158,157
62,1530629681005,1594005, RC,0,39.9586186,-88.445067899,0,0.0,0.0,0.0,0.0,0.0,0.0,0.0,0.0,0.0,0.0,0.0,0.0,0.0,1500,1500,0.0,0.0,40.0483281667,-88.2327495,0.0,0.0,0.0,0.0,0.0,0.0,0.0,0.0,0.0,0.0,0.0,0,0.0,0.0,0.0,0.0,90.0,58.0,90.0,89.82704925540001,120.9577560425,89.25408935549999,35.223999023400005,15.3857345581,3.0199999808999998,0,2,25,1,147,159
63,1530629681055,1594055, RC,0,39.9586186,-88.445067899,0,0.0,0.0,0.0,0.0,0.0,0.0,0.0,0.0,0.0,0.0,0.0,0.0,0.0,1500,1500,0.0,0.0,40.0483281667,-88.2327495,0.0,0.0,0.0,0.0,0.0,0.0,0.0,0.0,0.0,0.0,0.0,0,0.0,0.0,0.0,0.0,90.0,58.0,90.0,89.82704925540001,120.8940887451,89.25408935549999,35.223999023400005,15.3857345581,3.0199999808999998,0,2,25,1,164,162
64,1530629681106,1594106, RC,0,39.9586186,-88.445067899,0,0.0,0.0,0.0,0.0,0.0,0.0,0.0,0.0,0.0,0.0,0.0,0.0,0.0,1500,1500,0.0,0.0,40.0483281667,-88.2327495,0.0,0.0,0.0,0.0,0.0,0.0,0.0,0.0,0.0,0.0,0.0,0,0.0,0.0,0.0,0.0,90.0,58.0,90.0,89.82704925540001,120.8940887451,89.25408935549999,35.223999023400005,15.3857345581,3.0199999808999998,0,2,25,1,145,164
65,1530629681156,1594156, RC,0,39.9586186,-88.445067899,0,0.0,0.0,0.0,0.0,0.0,0.0,0.0,0.0,0.0,0.0,0.0,0.0,0.0,1500,1500,0.0,0.0,40.0483281667,-88.2327495,0.0,0.0,0.0,0.0,0.0,0.0,0.0,0.0,0.0,0.0,0.0,0,0.0,0.0,0.0,0.0,90.0,58.0,90.0,89.82704925540001,120.8940887451,89.25408935549999,35.223999023400005,15.3857345581,3.0199999808999998,0,2,25,1,153,167
66,1530629681207,1594207, RC,0,39.9586186,-88.445067899,0,0.0,0.0,0.0,0.0,0.0,0.0,0.0,0.0,0.0,0.0,0.0,0.0,0.0,1500,1500,0.0,0.0,40.0483281667,-88.2327495,0.0,0.0,0.0,0.0,0.0,0.0,0.0,0.0,0.0,0.0,0.0,0,0.0,0.0,0.0,0.0,90.0,61.0,90.0,89.82704925540001,120.8940887451,89.25408935549999,35.223999023400005,15.3857345581,3.0199999808999998,0,2,25,1,151,170
67,1530629681257,1594257, RC,0,39.9586186,-88.445067899,0,0.0,0.0,0.0,0.0,0.0,0.0,0.0,0.0,0.0,0.0,0.0,0.0,0.0,1500,1500,0.0,0.0,40.0483281667,-88.2327495,0.0,0.0,0.0,0.0,0.0,0.0,0.0,0.0,0.0,0.0,0.0,0,0.0,0.0,0.0,0.0,90.0,61.0,90.0,89.82704925540001,120.76677703860001,89.25408935549999,35.223999023400005,15.3857345581,3.0199999808999998,0,2,25,1,158,172
68,1530629681308,1594308, RC,0,39.9586186,-88.445067899,0,0.0,0.0,0.0,0.0,0.0,0.0,0.0,0.0,0.0,0.0,0.0,0.0,0.0,1500,1500,0.0,0.0,40.0483281667,-88.2327495,0.0,0.0,0.0,0.0,0.0,0.0,0.0,0.0,0.0,0.0,0.0,0,0.0,0.0,0.0,0.0,90.0,61.0,90.0,89.82704925540001,118.72959136959999,89.25408935549999,35.223999023400005,15.3857345581,3.0199999808999998,0,2,25,1,147,175
69,1530629681359,1594359, RC,0,39.9586186,-88.445067899,0,0.0,0.0,0.0,0.0,0.0,0.0,0.0,0.0,0.0,0.0,0.0,0.0,0.0,1500,1500,0.0,0.0,40.0483281667,-88.2327495,0.0,0.0,0.0,0.0,0.0,0.0,0.0,0.0,0.0,0.0,0.0,0,0.0,0.0,0.0,0.0,90.0,61.0,90.0,89.82704925540001,118.72959136959999,89.25408935549999,35.223999023400005,15.3857345581,3.0199999808999998,0,2,25,1,154,177
70,1530629681409,1594409, RC,0,39.9586186,-88.445067899,0,0.0,0.0,0.0,0.0,0.0,0.0,0.0,0.0,0.0,0.0,0.0,0.0,0.0,1500,1500,0.0,0.0,40.0483281667,-88.2327495,0.0,0.0,0.0,0.0,0.0,0.0,0.0,0.0,0.0,0.0,0.0,0,0.0,0.0,0.0,0.0,90.0,61.0,90.0,89.82704925540001,118.6659317017,89.25408935549999,35.223999023400005,15.3857345581,3.0199999808999998,0,2,25,1,142,180
71,1530629681460,1594460, RC,0,39.9586186,-88.445067899,0,0.0,0.0,0.0,0.0,0.0,0.0,0.0,0.0,0.0,0.0,0.0,0.0,0.0,1500,1500,0.0,0.0,40.0483281667,-88.2327495,0.0,0.0,0.0,0.0,0.0,0.0,0.0,0.0,0.0,0.0,0.0,0,0.0,0.0,0.0,0.0,90.0,61.0,90.0,89.82704925540001,118.6659317017,89.25408935549999,35.223999023400005,15.3857345581,3.0199999808999998,0,2,25,1,133,182
72,1530629681510,1594510, RC,0,39.9586186,-88.445067899,0,0.0,0.0,0.0,0.0,0.0,0.0,0.0,0.0,0.0,0.0,0.0,0.0,0.0,1500,1500,0.0,0.0,40.0483281667,-88.2327495,0.0,0.0,0.0,0.0,0.0,0.0,0.0,0.0,0.0,0.0,0.0,0,0.0,0.0,0.0,0.0,90.0,61.0,90.0,89.82704925540001,118.6659317017,89.25408935549999,35.223999023400005,15.3857345581,3.0199999808999998,0,2,25,1,136,184
73,1530629681561,1594561, RC,0,39.9586186,-88.445067899,0,0.0,0.0,0.0,0.0,0.0,0.0,0.0,0.0,0.0,0.0,0.0,0.0,0.0,1500,1500,0.0,0.0,40.0483281667,-88.2327495,0.0,0.0,0.0,0.0,0.0,0.0,0.0,0.0,0.0,0.0,0.0,0,0.0,0.0,0.0,0.0,90.0,61.0,90.0,89.82704925540001,118.6659317017,89.25408935549999,35.223999023400005,15.3857345581,3.0199999808999998,0,2,25,1,141,187
74,1530629681611,1594611, RC,0,39.9586186,-88.445067899,0,0.0,0.0,0.0,0.0,0.0,0.0,0.0,0.0,0.0,0.0,0.0,0.0,0.0,1500,1500,0.0,0.0,40.0483281667,-88.2327495,0.0,0.0,0.0,0.0,0.0,0.0,0.0,0.0,0.0,0.0,0.0,0,0.0,0.0,0.0,0.0,90.0,61.0,90.0,89.82704925540001,118.6659317017,89.25408935549999,35.223999023400005,15.3857345581,3.0199999808999998,0,2,25,1,141,190
75,1530629681662,1594662, RC,0,39.9586186,-88.445067899,0,0.0,0.0,0.0,0.0,0.0,0.0,0.0,0.0,0.0,0.0,0.0,0.0,0.0,1500,1500,0.0,0.0,40.0483281667,-88.2327495,0.0,0.0,0.0,0.0,0.0,0.0,0.0,0.0,0.0,0.0,0.0,0,0.0,0.0,0.0,0.0,90.0,61.0,90.0,89.82704925540001,118.6659317017,89.25408935549999,35.223999023400005,15.3857345581,3.0199999808999998,0,2,25,1,153,192
76,1530629681713,1594713, RC,0,39.9586186,-88.445067899,0,0.0,0.0,0.0,0.0,0.0,0.0,0.0,0.0,0.0,0.0,0.0,0.0,0.0,1500,1500,0.0,0.0,40.0483281667,-88.2327495,0.0,0.0,0.0,0.0,0.0,0.0,0.0,0.0,0.0,0.0,0.0,0,0.0,0.0,0.0,0.0,90.0,63.0,90.0,89.82704925540001,118.6659317017,89.25408935549999,35.223999023400005,15.3857345581,3.0199999808999998,0,2,25,1,143,195
77,1530629681763,1594763, RC,0,39.9586186,-88.445067899,0,0.0,0.0,0.0,0.0,0.0,0.0,0.0,0.0,0.0,0.0,0.0,0.0,0.0,1500,1500,0.0,0.0,40.0483281667,-88.2327495,0.0,0.0,0.0,0.0,0.0,0.0,0.0,0.0,0.0,0.0,0.0,0,0.0,0.0,0.0,0.0,90.0,63.0,90.0,89.82704925540001,117.39268493649999,89.25408935549999,35.223999023400005,15.3857345581,3.0199999808999998,0,2,25,1,138,197
78,1530629681814,1594814, RC,0,39.9586186,-88.445067899,0,0.0,0.0,0.0,0.0,0.0,0.0,0.0,0.0,0.0,0.0,0.0,0.0,0.0,1500,1500,0.0,0.0,40.0483273333,-88.2327481667,0.0,0.0,0.0,0.0,0.0,0.0,0.0,0.0,0.0,0.0,0.0,0,0.0,0.0,0.0,0.0,90.0,63.0,90.0,89.82704925540001,116.88338470459999,89.25408935549999,35.223999023400005,15.3857345581,3.0199999808999998,0,2,25,1,133,200
79,1530629681864,1594864, RC,0,39.9586186,-88.445067899,0,0.0,0.0,0.0,0.0,0.0,0.0,0.0,0.0,0.0,0.0,0.0,0.0,0.0,1500,1500,0.0,0.0,40.0483273333,-88.2327481667,0.0,0.0,0.0,0.0,0.0,0.0,0.0,0.0,0.0,0.0,0.0,0,0.0,0.0,0.0,0.0,90.0,63.0,90.0,89.82704925540001,116.81973266600001,89.25408935549999,35.223999023400005,15.381175041199999,3.3400001526,0,2,25,1,142,202
80,1530629681915,1594915, RC,0,39.9586186,-88.445067899,0,0.0,0.0,0.0,0.0,0.0,0.0,0.0,0.0,0.0,0.0,0.0,0.0,0.0,1500,1500,0.0,0.0,40.0483273333,-88.2327481667,0.0,0.0,0.0,0.0,0.0,0.0,0.0,0.0,0.0,0.0,0.0,0,0.0,0.0,0.0,0.0,90.0,63.0,90.0,89.82704925540001,116.81973266600001,89.25408935549999,35.223999023400005,15.381175041199999,3.3400001526,0,2,25,1,143,205
81,1530629681965,1594965, RC,0,39.9586186,-88.445067899,0,0.0,0.0,0.0,0.0,0.0,0.0,0.0,0.0,0.0,0.0,0.0,0.0,0.0,1500,1500,0.0,0.0,40.0483273333,-88.2327481667,0.0,0.0,0.0,0.0,0.0,0.0,0.0,0.0,0.0,0.0,0.0,0,0.0,0.0,0.0,0.0,90.0,63.0,90.0,89.82704925540001,116.81973266600001,89.25408935549999,35.223999023400005,15.381175041199999,3.3400001526,0,2,25,1,144,207
82,1530629682016,1595016, RC,0,39.9586186,-88.445067899,0,0.0,0.0,0.0,0.0,0.0,0.0,0.0,0.0,0.0,0.0,0.0,0.0,0.0,1500,1500,0.0,0.0,40.0483273333,-88.2327481667,0.0,0.0,0.0,0.0,0.0,0.0,0.0,0.0,0.0,0.0,0.0,0,0.0,0.0,0.0,0.0,90.0,63.0,90.0,89.82704925540001,116.81973266600001,89.25408935549999,35.223999023400005,15.381175041199999,3.3400001526,0,2,25,1,142,210
83,1530629682066,1595066, RC,0,39.9586186,-88.445067899,0,0.0,0.0,0.0,0.0,0.0,0.0,0.0,0.0,0.0,0.0,0.0,0.0,0.0,1500,1500,0.0,0.0,40.0483273333,-88.2327481667,0.0,0.0,0.0,0.0,0.0,0.0,0.0,0.0,0.0,0.0,0.0,0,0.0,0.0,0.0,0.0,90.0,63.0,90.0,89.82704925540001,116.81973266600001,89.25408935549999,35.223999023400005,15.381175041199999,3.3400001526,0,2,25,1,148,212
84,1530629682117,1595117, RC,0,39.9586186,-88.445067899,0,0.0,0.0,0.0,0.0,0.0,0.0,0.0,0.0,0.0,0.0,0.0,0.0,0.0,1500,1500,0.0,0.0,40.0483273333,-88.2327481667,0.0,0.0,0.0,0.0,0.0,0.0,0.0,0.0,0.0,0.0,0.0,0,0.0,0.0,0.0,0.0,90.0,63.0,90.0,89.82704925540001,116.81973266600001,89.25408935549999,35.223999023400005,15.381175041199999,3.3400001526,0,2,25,1,152,215
85,1530629682167,1595167, RC,0,39.9586186,-88.445067899,0,0.0,0.0,0.0,0.0,0.0,0.0,0.0,0.0,0.0,0.0,0.0,0.0,0.0,1500,1500,0.0,0.0,40.0483273333,-88.2327481667,0.0,0.0,0.0,0.0,0.0,0.0,0.0,0.0,0.0,0.0,0.0,0,0.0,0.0,0.0,0.0,90.0,63.0,90.0,89.82704925540001,116.81973266600001,89.25408935549999,35.223999023400005,15.381175041199999,3.3400001526,0,2,25,1,138,217
86,1530629682218,1595218, RC,0,39.9586186,-88.445067899,0,0.0,0.0,0.0,0.0,0.0,0.0,0.0,0.0,0.0,0.0,0.0,0.0,0.0,1500,1500,0.0,0.0,40.0483273333,-88.2327481667,0.0,0.0,0.0,0.0,0.0,0.0,0.0,0.0,0.0,0.0,0.0,0,0.0,0.0,0.0,0.0,90.0,63.0,90.0,89.82704925540001,116.81973266600001,89.25408935549999,35.223999023400005,15.381175041199999,3.3400001526,0,2,25,1,136,220
87,1530629682269,1595269, RC,0,39.9586186,-88.445067899,0,0.0,0.0,0.0,0.0,0.0,0.0,0.0,0.0,0.0,0.0,0.0,0.0,0.0,1500,1500,0.0,0.0,40.0483273333,-88.2327481667,0.0,0.0,0.0,0.0,0.0,0.0,0.0,0.0,0.0,0.0,0.0,0,0.0,0.0,0.0,0.0,90.0,63.0,90.0,89.82704925540001,116.7560577393,89.25408935549999,35.223999023400005,15.381175041199999,3.3400001526,0,2,25,1,138,222
88,1530629682319,1595319, RC,0,39.9586186,-88.445067899,0,0.0,0.0,0.0,0.0,0.0,0.0,0.0,0.0,0.0,0.0,0.0,0.0,0.0,1500,1500,0.0,0.0,40.0483273333,-88.2327481667,0.0,0.0,0.0,0.0,0.0,0.0,0.0,0.0,0.0,0.0,0.0,0,0.0,0.0,0.0,0.0,90.0,63.0,90.0,89.82704925540001,116.7560577393,89.25408935549999,35.223999023400005,15.381175041199999,3.3400001526,0,2,25,1,128,225
89,1530629682370,1595370, RC,0,39.9586186,-88.445067899,0,0.0,0.0,0.0,0.0,0.0,0.0,0.0,0.0,0.0,0.0,0.0,0.0,0.0,1500,1500,0.0,0.0,40.0483273333,-88.2327481667,0.0,0.0,0.0,0.0,0.0,0.0,0.0,0.0,0.0,0.0,0.0,0,0.0,0.0,0.0,0.0,90.0,63.0,90.0,89.82704925540001,116.7560577393,89.25408935549999,35.223999023400005,15.381175041199999,3.3400001526,0,2,25,1,142,227
90,1530629682420,1595420, RC,0,39.9586186,-88.445067899,0,0.0,0.0,0.0,0.0,0.0,0.0,0.0,0.0,0.0,0.0,0.0,0.0,0.0,1500,1500,0.0,0.0,40.0483273333,-88.2327481667,0.0,0.0,0.0,0.0,0.0,0.0,0.0,0.0,0.0,0.0,0.0,0,0.0,0.0,0.0,0.0,90.0,63.0,90.0,89.82704925540001,116.7560577393,89.25408935549999,35.223999023400005,15.381175041199999,3.3400001526,0,2,25,1,145,230
91,1530629682471,1595471, RC,0,39.9586186,-88.445067899,0,0.0,0.0,0.0,0.0,0.0,0.0,0.0,0.0,0.0,0.0,0.0,0.0,0.0,1500,1500,0.0,0.0,40.0483273333,-88.2327481667,0.0,0.0,0.0,0.0,0.0,0.0,0.0,0.0,0.0,0.0,0.0,0,0.0,0.0,0.0,0.0,90.0,63.0,90.0,89.82704925540001,116.7560577393,89.25408935549999,35.223999023400005,15.381175041199999,3.3400001526,0,2,25,1,140,232
92,1530629682521,1595521, RC,0,39.9586186,-88.445067899,0,0.0,0.0,0.0,0.0,0.0,0.0,0.0,0.0,0.0,0.0,0.0,0.0,0.0,1500,1500,0.0,0.0,40.0483273333,-88.2327481667,0.0,0.0,0.0,0.0,0.0,0.0,0.0,0.0,0.0,0.0,0.0,0,0.0,0.0,0.0,0.0,90.0,61.0,90.0,89.82704925540001,116.7560577393,89.25408935549999,35.223999023400005,15.381175041199999,3.3400001526,0,2,25,1,136,235
93,1530629682572,1595572, RC,0,39.9586186,-88.445067899,0,0.0,0.0,0.0,0.0,0.0,0.0,0.0,0.0,0.0,0.0,0.0,0.0,0.0,1500,1500,0.0,0.0,40.0483273333,-88.2327481667,0.0,0.0,0.0,0.0,0.0,0.0,0.0,0.0,0.0,0.0,0.0,0,0.0,0.0,0.0,0.0,90.0,61.0,90.0,89.82704925540001,117.2017059326,89.25408935549999,35.223999023400005,15.381175041199999,3.3400001526,0,2,25,1,145,237
94,1530629682622,1595622, RC,0,39.9586186,-88.445067899,0,0.0,0.0,0.0,0.0,0.0,0.0,0.0,0.0,0.0,0.0,0.0,0.0,0.0,1500,1500,0.0,0.0,40.0483273333,-88.2327481667,0.0,0.0,0.0,0.0,0.0,0.0,0.0,0.0,0.0,0.0,0.0,0,0.0,0.0,0.0,0.0,90.0,58.0,90.0,89.82704925540001,117.8383178711,89.25408935549999,35.223999023400005,15.381175041199999,3.3400001526,0,2,25,1,134,240
95,1530629682673,1595673, RC,0,39.9586186,-88.445067899,0,0.0,0.0,0.0,0.0,0.0,0.0,0.0,0.0,0.0,0.0,0.0,0.0,0.0,1500,1500,0.0,0.0,40.0483273333,-88.2327481667,0.0,0.0,0.0,0.0,0.0,0.0,0.0,0.0,0.0,0.0,0.0,0,0.0,0.0,0.0,0.0,90.0,58.0,90.0,89.82704925540001,119.81184387209998,89.25408935549999,35.223999023400005,15.381175041199999,3.3400001526,0,2,25,1,138,242
96,1530629682723,1595723, RC,0,39.9586186,-88.445067899,0,0.0,0.0,0.0,0.0,0.0,0.0,0.0,0.0,0.0,0.0,0.0,0.0,0.0,1500,1500,0.0,0.0,40.0483273333,-88.2327481667,0.0,0.0,0.0,0.0,0.0,0.0,0.0,0.0,0.0,0.0,0.0,0,0.0,0.0,0.0,0.0,90.0,58.0,90.0,89.8907089233,121.6580352783,89.25408935549999,35.223999023400005,15.381175041199999,3.3400001526,0,2,25,1,135,245
97,1530629682774,1595774, RC,0,39.9586186,-88.445067899,0,0.0,0.0,0.0,0.0,0.0,0.0,0.0,0.0,0.0,0.0,0.0,0.0,0.0,1500,1500,0.0,0.0,40.0483273333,-88.2327481667,0.0,0.0,0.0,0.0,0.0,0.0,0.0,0.0,0.0,0.0,0.0,0,0.0,0.0,0.0,0.0,90.0,58.0,90.0,89.82704925540001,121.0214157104,89.25408935549999,35.223999023400005,15.381175041199999,3.3400001526,0,2,25,1,140,247
98,1530629682824,1595824, RC,0,39.9586186,-88.445067899,0,0.0,0.0,0.0,0.0,0.0,0.0,0.0,0.0,0.0,0.0,0.0,0.0,0.0,1500,1500,0.0,0.0,40.0483223333,-88.2327488333,0.0,0.0,0.0,0.0,0.0,0.0,0.0,0.0,0.0,0.0,0.0,0,0.0,0.0,0.0,0.0,90.0,58.0,90.0,89.82704925540001,120.9577560425,89.25408935549999,35.223999023400005,15.376464843800001,3.2899999619,0,2,25,1,147,250
99,1530629682875,1595875, RC,0,39.9586186,-88.445067899,0,0.0,0.0,0.0,0.0,0.0,0.0,0.0,0.0,0.0,0.0,0.0,0.0,0.0,1500,1500,0.0,0.0,40.0483223333,-88.2327488333,0.0,0.0,0.0,0.0,0.0,0.0,0.0,0.0,0.0,0.0,0.0,0,0.0,0.0,0.0,0.0,90.0,58.0,90.0,89.82704925540001,120.9577560425,89.25408935549999,35.223999023400005,15.376464843800001,3.2899999619,0,2,25,1,142,253
100,1530629682926,1595926, RC,0,39.9586186,-88.445067899,0,0.0,0.0,0.0,0.0,0.0,0.0,0.0,0.0,0.0,0.0,0.0,0.0,0.0,1500,1500,0.0,0.0,40.0483223333,-88.2327488333,0.0,0.0,0.0,0.0,0.0,0.0,0.0,0.0,0.0,0.0,0.0,0,0.0,0.0,0.0,0.0,90.0,58.0,90.0,89.82704925540001,120.9577560425,89.25408935549999,35.223999023400005,15.376464843800001,3.2899999619,0,2,25,1,137,255
101,1530629682976,1595976, RC,0,39.9586186,-88.445067899,0,0.0,0.0,0.0,0.0,0.0,0.0,0.0,0.0,0.0,0.0,0.0,0.0,0.0,1500,1500,0.0,0.0,40.0483223333,-88.2327488333,0.0,0.0,0.0,0.0,0.0,0.0,0.0,0.0,0.0,0.0,0.0,0,0.0,0.0,0.0,0.0,90.0,58.0,90.0,89.82704925540001,120.9577560425,89.25408935549999,35.223999023400005,15.376464843800001,3.2899999619,0,2,25,1,139,257
102,1530629683027,1596027, RC,0,39.9586186,-88.445067899,0,0.0,0.0,0.0,0.0,0.0,0.0,0.0,0.0,0.0,0.0,0.0,0.0,0.0,1500,1500,0.0,0.0,40.0483223333,-88.2327488333,0.0,0.0,0.0,0.0,0.0,0.0,0.0,0.0,0.0,0.0,0.0,0,0.0,0.0,0.0,0.0,90.0,58.0,90.0,89.82704925540001,120.9577560425,89.25408935549999,35.223999023400005,15.376464843800001,3.2899999619,0,2,25,1,144,260
103,1530629683077,1596077, RC,0,39.9586186,-88.445067899,0,0.0,0.0,0.0,0.0,0.0,0.0,0.0,0.0,0.0,0.0,0.0,0.0,0.0,1500,1500,0.0,0.0,40.0483223333,-88.2327488333,0.0,0.0,0.0,0.0,0.0,0.0,0.0,0.0,0.0,0.0,0.0,0,0.0,0.0,0.0,0.0,90.0,58.0,90.0,89.82704925540001,120.9577560425,89.25408935549999,35.223999023400005,15.376464843800001,3.2899999619,0,2,25,1,145,262
104,1530629683128,1596128, RC,0,39.9586186,-88.445067899,0,0.0,0.0,0.0,0.0,0.0,0.0,0.0,0.0,0.0,0.0,0.0,0.0,0.0,1500,1500,0.0,0.0,40.0483223333,-88.2327488333,0.0,0.0,0.0,0.0,0.0,0.0,0.0,0.0,0.0,0.0,0.0,0,0.0,0.0,0.0,0.0,90.0,58.0,90.0,89.82704925540001,120.9577560425,89.25408935549999,35.223999023400005,15.376464843800001,3.2899999619,0,2,25,1,148,265
105,1530629683178,1596178, RC,0,39.9586186,-88.445067899,0,0.0,0.0,0.0,0.0,0.0,0.0,0.0,0.0,0.0,0.0,0.0,0.0,0.0,1500,1500,0.0,0.0,40.0483223333,-88.2327488333,0.0,0.0,0.0,0.0,0.0,0.0,0.0,0.0,0.0,0.0,0.0,0,0.0,0.0,0.0,0.0,90.0,58.0,90.0,89.82704925540001,120.9577560425,89.25408935549999,35.223999023400005,15.376464843800001,3.2899999619,0,2,25,1,148,267
106,1530629683229,1596229, RC,0,39.9586186,-88.445067899,0,0.0,0.0,0.0,0.0,0.0,0.0,0.0,0.0,0.0,0.0,0.0,0.0,0.0,1500,1500,0.0,0.0,40.0483223333,-88.2327488333,0.0,0.0,0.0,0.0,0.0,0.0,0.0,0.0,0.0,0.0,0.0,0,0.0,0.0,0.0,0.0,90.0,58.0,90.0,89.82704925540001,120.9577560425,89.25408935549999,35.223999023400005,15.376464843800001,3.2899999619,0,2,25,1,146,270
107,1530629683279,1596279, RC,0,39.9586186,-88.445067899,0,0.0,0.0,0.0,0.0,0.0,0.0,0.0,0.0,0.0,0.0,0.0,0.0,0.0,1500,1500,0.0,0.0,40.0483223333,-88.2327488333,0.0,0.0,0.0,0.0,0.0,0.0,0.0,0.0,0.0,0.0,0.0,0,0.0,0.0,0.0,0.0,90.0,58.0,90.0,89.82704925540001,120.9577560425,89.25408935549999,35.223999023400005,15.376464843800001,3.2899999619,0,2,25,1,143,273
108,1530629683330,1596330, RC,0,39.9586186,-88.445067899,0,0.0,0.0,0.0,0.0,0.0,0.0,0.0,0.0,0.0,0.0,0.0,0.0,0.0,1500,1500,0.0,0.0,40.0483223333,-88.2327488333,0.0,0.0,0.0,0.0,0.0,0.0,0.0,0.0,0.0,0.0,0.0,0,0.0,0.0,0.0,0.0,90.0,58.0,90.0,89.82704925540001,120.9577560425,89.25408935549999,35.223999023400005,15.376464843800001,3.2899999619,0,2,25,1,144,275
109,1530629683395,1596395, RC,0,39.9586186,-88.445067899,0,0.0,0.0,0.0,0.0,0.0,0.0,0.0,0.0,0.0,0.0,0.0,0.0,0.0,1500,1500,0.0,0.0,40.0483223333,-88.2327488333,0.0,0.0,0.0,0.0,0.0,0.0,0.0,0.0,0.0,0.0,0.0,0,0.0,0.0,0.0,0.0,90.0,58.0,90.0,89.82704925540001,120.8940887451,89.25408935549999,34.686000824000004,15.376464843800001,3.2899999619,0,2,25,1,150,278
110,1530629683446,1596446, RC,0,39.9586186,-88.445067899,0,0.0,0.0,0.0,0.0,0.0,0.0,0.0,0.0,0.0,0.0,0.0,0.0,0.0,1500,1500,0.0,0.0,40.0483223333,-88.2327488333,0.0,0.0,0.0,0.0,0.0,0.0,0.0,0.0,0.0,0.0,0.0,0,0.0,0.0,0.0,0.0,90.0,58.0,90.0,89.82704925540001,120.8940887451,89.25408935549999,34.686000824000004,15.376464843800001,3.2899999619,0,2,25,1,145,281
111,1530629683496,1596496, RC,0,39.9586186,-88.445067899,0,0.0,0.0,0.0,0.0,0.0,0.0,0.0,0.0,0.0,0.0,0.0,0.0,0.0,1500,1500,0.0,0.0,40.0483223333,-88.2327488333,0.0,0.0,0.0,0.0,0.0,0.0,0.0,0.0,0.0,0.0,0.0,0,0.0,0.0,0.0,0.0,90.0,61.0,90.0,89.82704925540001,120.8940887451,89.25408935549999,34.686000824000004,15.376464843800001,3.2899999619,0,2,25,1,145,283
112,1530629683547,1596547, RC,0,39.9586186,-88.445067899,0,0.0,0.0,0.0,0.0,0.0,0.0,0.0,0.0,0.0,0.0,0.0,0.0,0.0,1500,1500,0.0,0.0,40.0483223333,-88.2327488333,0.0,0.0,0.0,0.0,0.0,0.0,0.0,0.0,0.0,0.0,0.0,0,0.0,0.0,0.0,0.0,90.0,61.0,90.0,89.82704925540001,120.7031021118,89.25408935549999,34.686000824000004,15.376464843800001,3.2899999619,0,2,25,1,145,286
113,1530629683598,1596598, RC,0,39.9586186,-88.445067899,0,0.0,0.0,0.0,0.0,0.0,0.0,0.0,0.0,0.0,0.0,0.0,0.0,0.0,1500,1500,0.0,0.0,40.0483223333,-88.2327488333,0.0,0.0,0.0,0.0,0.0,0.0,0.0,0.0,0.0,0.0,0.0,0,0.0,0.0,0.0,0.0,90.0,61.0,90.0,89.82704925540001,118.6022567749,89.25408935549999,34.686000824000004,15.376464843800001,3.2899999619,0,2,25,1,149,288
114,1530629683648,1596648, RC,0,39.9586186,-88.445067899,0,0.0,0.0,0.0,0.0,0.0,0.0,0.0,0.0,0.0,0.0,0.0,0.0,0.0,1500,1500,0.0,0.0,40.0483223333,-88.2327488333,0.0,0.0,0.0,0.0,0.0,0.0,0.0,0.0,0.0,0.0,0.0,0,0.0,0.0,0.0,0.0,90.0,61.0,90.0,89.82704925540001,118.6022567749,89.25408935549999,34.686000824000004,15.376464843800001,3.2899999619,0,2,25,1,139,291
115,1530629683699,1596699, RC,0,39.9586186,-88.445067899,0,0.0,0.0,0.0,0.0,0.0,0.0,0.0,0.0,0.0,0.0,0.0,0.0,0.0,1500,1500,0.0,0.0,40.0483223333,-88.2327488333,0.0,0.0,0.0,0.0,0.0,0.0,0.0,0.0,0.0,0.0,0.0,0,0.0,0.0,0.0,0.0,90.0,61.0,90.0,89.82704925540001,118.6022567749,89.25408935549999,34.686000824000004,15.376464843800001,3.2899999619,0,2,25,1,133,293
116,1530629683749,1596749, RC,0,39.9586186,-88.445067899,0,0.0,0.0,0.0,0.0,0.0,0.0,0.0,0.0,0.0,0.0,0.0,0.0,0.0,1500,1500,0.0,0.0,40.0483223333,-88.2327488333,0.0,0.0,0.0,0.0,0.0,0.0,0.0,0.0,0.0,0.0,0.0,0,0.0,0.0,0.0,0.0,90.0,61.0,90.0,89.82704925540001,118.6022567749,89.25408935549999,34.686000824000004,15.376464843800001,3.2899999619,0,2,25,1,135,296
117,1530629683800,1596800, RC,0,39.9586186,-88.445067899,0,0.0,0.0,0.0,0.0,0.0,0.0,0.0,0.0,0.0,0.0,0.0,0.0,0.0,1500,1500,0.0,0.0,40.048319,-88.2327428333,0.0,0.0,0.0,0.0,0.0,0.0,0.0,0.0,0.0,0.0,0.0,0,0.0,0.0,0.0,0.0,90.0,61.0,90.0,89.82704925540001,118.53860473629999,89.25408935549999,34.686000824000004,15.376464843800001,3.2899999619,0,2,25,1,138,298
118,1530629683851,1596851, RC,0,39.9586186,-88.445067899,0,0.0,0.0,0.0,0.0,0.0,0.0,0.0,0.0,0.0,0.0,0.0,0.0,0.0,1500,1500,0.0,0.0,40.048319,-88.2327428333,0.0,0.0,0.0,0.0,0.0,0.0,0.0,0.0,0.0,0.0,0.0,0,0.0,0.0,0.0,0.0,90.0,61.0,90.0,89.82704925540001,118.53860473629999,89.25408935549999,34.686000824000004,15.371797561600001,3.3499999045999997,0,2,25,1,135,301
119,1530629683901,1596901, RC,0,39.9586186,-88.445067899,0,0.0,0.0,0.0,0.0,0.0,0.0,0.0,0.0,0.0,0.0,0.0,0.0,0.0,1500,1500,0.0,0.0,40.048319,-88.2327428333,0.0,0.0,0.0,0.0,0.0,0.0,0.0,0.0,0.0,0.0,0.0,0,0.0,0.0,0.0,0.0,90.0,61.0,90.0,89.8907089233,118.53860473629999,89.25408935549999,34.686000824000004,15.371797561600001,3.3499999045999997,0,2,25,1,146,303
120,1530629683952,1596952, RC,0,39.9586186,-88.445067899,0,0.0,0.0,0.0,0.0,0.0,0.0,0.0,0.0,0.0,0.0,0.0,0.0,0.0,1500,1500,0.0,0.0,40.048319,-88.2327428333,0.0,0.0,0.0,0.0,0.0,0.0,0.0,0.0,0.0,0.0,0.0,0,0.0,0.0,0.0,0.0,90.0,61.0,90.0,89.82704925540001,118.53860473629999,89.25408935549999,34.686000824000004,15.371797561600001,3.3499999045999997,0,2,25,1,138,306
121,1530629684002,1597002, RC,0,39.9586186,-88.445067899,0,0.0,0.0,0.0,0.0,0.0,0.0,0.0,0.0,0.0,0.0,0.0,0.0,0.0,1500,1500,0.0,0.0,40.048319,-88.2327428333,0.0,0.0,0.0,0.0,0.0,0.0,0.0,0.0,0.0,0.0,0.0,0,0.0,0.0,0.0,0.0,90.0,61.0,90.0,89.82704925540001,118.53860473629999,89.25408935549999,34.686000824000004,15.371797561600001,3.3499999045999997,0,2,25,1,132,308
122,1530629684053,1597053, RC,0,39.9586186,-88.445067899,0,0.0,0.0,0.0,0.0,0.0,0.0,0.0,0.0,0.0,0.0,0.0,0.0,0.0,1500,1500,0.0,0.0,40.048319,-88.2327428333,0.0,0.0,0.0,0.0,0.0,0.0,0.0,0.0,0.0,0.0,0.0,0,0.0,0.0,0.0,0.0,90.0,61.0,90.0,89.82704925540001,118.53860473629999,89.25408935549999,34.686000824000004,15.371797561600001,3.3499999045999997,0,2,25,1,133,311
123,1530629684103,1597103, RC,0,39.9586186,-88.445067899,0,0.0,0.0,0.0,0.0,0.0,0.0,0.0,0.0,0.0,0.0,0.0,0.0,0.0,1500,1500,0.0,0.0,40.048319,-88.2327428333,0.0,0.0,0.0,0.0,0.0,0.0,0.0,0.0,0.0,0.0,0.0,0,0.0,0.0,0.0,0.0,90.0,61.0,90.0,89.82704925540001,118.53860473629999,89.25408935549999,34.686000824000004,15.371797561600001,3.3499999045999997,0,2,25,1,137,314
124,1530629684154,1597154, RC,0,39.9586186,-88.445067899,0,0.0,0.0,0.0,0.0,0.0,0.0,0.0,0.0,0.0,0.0,0.0,0.0,0.0,1500,1500,0.0,0.0,40.048319,-88.2327428333,0.0,0.0,0.0,0.0,0.0,0.0,0.0,0.0,0.0,0.0,0.0,0,0.0,0.0,0.0,0.0,90.0,61.0,90.0,89.82704925540001,118.53860473629999,89.25408935549999,34.686000824000004,15.371797561600001,3.3499999045999997,0,2,25,1,134,316
125,1530629684205,1597205, RC,0,39.9586186,-88.445067899,0,0.0,0.0,0.0,0.0,0.0,0.0,0.0,0.0,0.0,0.0,0.0,0.0,0.0,1500,1500,0.0,0.0,40.048319,-88.2327428333,0.0,0.0,0.0,0.0,0.0,0.0,0.0,0.0,0.0,0.0,0.0,0,0.0,0.0,0.0,0.0,90.0,61.0,90.0,89.82704925540001,118.53860473629999,89.25408935549999,34.686000824000004,15.371797561600001,3.3499999045999997,0,2,25,1,142,319
126,1530629684255,1597255, RC,0,39.9586186,-88.445067899,0,0.0,0.0,0.0,0.0,0.0,0.0,0.0,0.0,0.0,0.0,0.0,0.0,0.0,1500,1500,0.0,0.0,40.048319,-88.2327428333,0.0,0.0,0.0,0.0,0.0,0.0,0.0,0.0,0.0,0.0,0.0,0,0.0,0.0,0.0,0.0,90.0,61.0,90.0,89.82704925540001,118.53860473629999,89.25408935549999,34.686000824000004,15.371797561600001,3.3499999045999997,0,2,25,1,134,321
127,1530629684306,1597306, RC,0,39.9586186,-88.445067899,0,0.0,0.0,0.0,0.0,0.0,0.0,0.0,0.0,0.0,0.0,0.0,0.0,0.0,1500,1500,0.0,0.0,40.048319,-88.2327428333,0.0,0.0,0.0,0.0,0.0,0.0,0.0,0.0,0.0,0.0,0.0,0,0.0,0.0,0.0,0.0,90.0,58.0,90.0,89.82704925540001,118.53860473629999,89.25408935549999,34.686000824000004,15.371797561600001,3.3499999045999997,0,2,25,1,156,324
128,1530629684356,1597356, RC,0,39.9586186,-88.445067899,0,0.0,0.0,0.0,0.0,0.0,0.0,0.0,0.0,0.0,0.0,0.0,0.0,0.0,1500,1500,0.0,0.0,40.048319,-88.2327428333,0.0,0.0,0.0,0.0,0.0,0.0,0.0,0.0,0.0,0.0,0.0,0,0.0,0.0,0.0,0.0,90.0,58.0,90.0,89.82704925540001,118.6022567749,89.25408935549999,34.686000824000004,15.371797561600001,3.3499999045999997,0,2,25,1,141,326
129,1530629684407,1597407, RC,0,39.9586186,-88.445067899,0,0.0,0.0,0.0,0.0,0.0,0.0,0.0,0.0,0.0,0.0,0.0,0.0,0.0,1500,1500,0.0,0.0,40.048319,-88.2327428333,0.0,0.0,0.0,0.0,0.0,0.0,0.0,0.0,0.0,0.0,0.0,0,0.0,0.0,0.0,0.0,90.0,58.0,90.0,89.82704925540001,119.87550354,89.25408935549999,34.686000824000004,15.371797561600001,3.3499999045999997,0,2,25,1,147,329
130,1530629684458,1597458, RC,0,39.9586186,-88.445067899,0,0.0,0.0,0.0,0.0,0.0,0.0,0.0,0.0,0.0,0.0,0.0,0.0,0.0,1500,1500,0.0,0.0,40.048319,-88.2327428333,0.0,0.0,0.0,0.0,0.0,0.0,0.0,0.0,0.0,0.0,0.0,0,0.0,0.0,0.0,0.0,90.0,58.0,90.0,89.82704925540001,121.6580352783,89.25408935549999,34.686000824000004,15.371797561600001,3.3499999045999997,0,2,25,1,137,331
131,1530629684508,1597508, RC,0,39.9586186,-88.445067899,0,0.0,0.0,0.0,0.0,0.0,0.0,0.0,0.0,0.0,0.0,0.0,0.0,0.0,1500,1500,0.0,0.0,40.048319,-88.2327428333,0.0,0.0,0.0,0.0,0.0,0.0,0.0,0.0,0.0,0.0,0.0,0,0.0,0.0,0.0,0.0,90.0,58.0,90.0,89.82704925540001,121.7217025757,89.25408935549999,34.686000824000004,15.371797561600001,3.3499999045999997,0,2,25,1,137,334
132,1530629684559,1597559, RC,0,39.9586186,-88.445067899,0,0.0,0.0,0.0,0.0,0.0,0.0,0.0,0.0,0.0,0.0,0.0,0.0,0.0,1500,1500,0.0,0.0,40.048319,-88.2327428333,0.0,0.0,0.0,0.0,0.0,0.0,0.0,0.0,0.0,0.0,0.0,0,0.0,0.0,0.0,0.0,90.0,58.0,90.0,89.82704925540001,121.7217025757,89.25408935549999,34.686000824000004,15.371797561600001,3.3499999045999997,0,2,25,1,129,336
133,1530629684609,1597609, RC,0,39.9586186,-88.445067899,0,0.0,0.0,0.0,0.0,0.0,0.0,0.0,0.0,0.0,0.0,0.0,0.0,0.0,1500,1500,0.0,0.0,40.048319,-88.2327428333,0.0,0.0,0.0,0.0,0.0,0.0,0.0,0.0,0.0,0.0,0.0,0,0.0,0.0,0.0,0.0,90.0,58.0,90.0,89.82704925540001,121.7217025757,89.25408935549999,34.686000824000004,15.371797561600001,3.3499999045999997,0,2,25,1,139,339
134,1530629684660,1597660, RC,0,39.9586186,-88.445067899,0,0.0,0.0,0.0,0.0,0.0,0.0,0.0,0.0,0.0,0.0,0.0,0.0,0.0,1500,1500,0.0,0.0,40.048319,-88.2327428333,0.0,0.0,0.0,0.0,0.0,0.0,0.0,0.0,0.0,0.0,0.0,0,0.0,0.0,0.0,0.0,90.0,58.0,90.0,89.82704925540001,121.7217025757,89.25408935549999,34.686000824000004,15.371797561600001,3.3499999045999997,0,2,25,1,138,341
135,1530629684711,1597711, RC,0,39.9586186,-88.445067899,0,0.0,0.0,0.0,0.0,0.0,0.0,0.0,0.0,0.0,0.0,0.0,0.0,0.0,1500,1500,0.0,0.0,40.048319,-88.2327428333,0.0,0.0,0.0,0.0,0.0,0.0,0.0,0.0,0.0,0.0,0.0,0,0.0,0.0,0.0,0.0,90.0,58.0,90.0,89.82704925540001,121.7217025757,89.25408935549999,34.686000824000004,15.371797561600001,3.3499999045999997,0,2,25,1,136,344
136,1530629684761,1597761, RC,0,39.9586186,-88.445067899,0,0.0,0.0,0.0,0.0,0.0,0.0,0.0,0.0,0.0,0.0,0.0,0.0,0.0,1500,1500,0.0,0.0,40.048319,-88.2327428333,0.0,0.0,0.0,0.0,0.0,0.0,0.0,0.0,0.0,0.0,0.0,0,0.0,0.0,0.0,0.0,90.0,58.0,90.0,89.82704925540001,121.7217025757,89.25408935549999,34.686000824000004,15.371797561600001,3.3499999045999997,0,2,25,1,137,346
137,1530629684812,1597812, RC,0,39.9586186,-88.445067899,0,0.0,0.0,0.0,0.0,0.0,0.0,0.0,0.0,0.0,0.0,0.0,0.0,0.0,1500,1500,0.0,0.0,40.048316,-88.23273616670001,0.0,0.0,0.0,0.0,0.0,0.0,0.0,0.0,0.0,0.0,0.0,0,0.0,0.0,0.0,0.0,90.0,58.0,90.0,89.82704925540001,121.7217025757,89.25408935549999,34.686000824000004,15.371797561600001,3.3499999045999997,0,2,25,1,140,349
138,1530629684862,1597862, RC,0,39.9586186,-88.445067899,0,0.0,0.0,0.0,0.0,0.0,0.0,0.0,0.0,0.0,0.0,0.0,0.0,0.0,1500,1500,0.0,0.0,40.048316,-88.23273616670001,0.0,0.0,0.0,0.0,0.0,0.0,0.0,0.0,0.0,0.0,0.0,0,0.0,0.0,0.0,0.0,90.0,58.0,90.0,89.82704925540001,121.7217025757,89.25408935549999,34.686000824000004,15.3671550751,3.3999998569,0,2,25,1,153,351
139,1530629684913,1597913, RC,0,39.9586186,-88.445067899,0,0.0,0.0,0.0,0.0,0.0,0.0,0.0,0.0,0.0,0.0,0.0,0.0,0.0,1500,1500,0.0,0.0,40.048316,-88.23273616670001,0.0,0.0,0.0,0.0,0.0,0.0,0.0,0.0,0.0,0.0,0.0,0,0.0,0.0,0.0,0.0,90.0,58.0,90.0,89.82704925540001,121.7217025757,89.25408935549999,34.686000824000004,15.3671550751,3.3999998569,0,2,25,1,130,354
140,1530629684964,1597964, RC,0,39.9586186,-88.445067899,0,0.0,0.0,0.0,0.0,0.0,0.0,0.0,0.0,0.0,0.0,0.0,0.0,0.0,1500,1500,0.0,0.0,40.048316,-88.23273616670001,0.0,0.0,0.0,0.0,0.0,0.0,0.0,0.0,0.0,0.0,0.0,0,0.0,0.0,0.0,0.0,90.0,58.0,90.0,89.82704925540001,121.7217025757,89.25408935549999,34.686000824000004,15.3671550751,3.3999998569,0,2,25,1,141,356
141,1530629685014,1598014, RC,0,39.9586186,-88.445067899,0,0.0,0.0,0.0,0.0,0.0,0.0,0.0,0.0,0.0,0.0,0.0,0.0,0.0,1500,1500,0.0,0.0,40.048316,-88.23273616670001,0.0,0.0,0.0,0.0,0.0,0.0,0.0,0.0,0.0,0.0,0.0,0,0.0,0.0,0.0,0.0,90.0,60.0,90.0,89.82704925540001,121.7217025757,89.25408935549999,34.686000824000004,15.3671550751,3.3999998569,0,2,25,1,145,359
142,1530629685065,1598065, RC,0,39.9586186,-88.445067899,0,0.0,0.0,0.0,0.0,0.0,0.0,0.0,0.0,0.0,0.0,0.0,0.0,0.0,1500,1500,0.0,0.0,40.048316,-88.23273616670001,0.0,0.0,0.0,0.0,0.0,0.0,0.0,0.0,0.0,0.0,0.0,0,0.0,0.0,0.0,0.0,90.0,60.0,90.0,89.82704925540001,121.4033889771,89.25408935549999,34.686000824000004,15.3671550751,3.3999998569,0,2,25,1,126,361
143,1530629685115,1598115, RC,0,39.9586186,-88.445067899,0,0.0,0.0,0.0,0.0,0.0,0.0,0.0,0.0,0.0,0.0,0.0,0.0,0.0,1500,1500,0.0,0.0,40.048316,-88.23273616670001,0.0,0.0,0.0,0.0,0.0,0.0,0.0,0.0,0.0,0.0,0.0,0,0.0,0.0,0.0,0.0,90.0,60.0,90.0,89.82704925540001,119.939163208,89.25408935549999,34.686000824000004,15.3671550751,3.3999998569,0,2,25,1,138,364
144,1530629685166,1598166, RC,0,39.9586186,-88.445067899,0,0.0,0.0,0.0,0.0,0.0,0.0,0.0,0.0,0.0,0.0,0.0,0.0,0.0,1500,1500,0.0,0.0,40.048316,-88.23273616670001,0.0,0.0,0.0,0.0,0.0,0.0,0.0,0.0,0.0,0.0,0.0,0,0.0,0.0,0.0,0.0,90.0,60.0,90.0,89.82704925540001,119.0479049683,89.25408935549999,34.686000824000004,15.3671550751,3.3999998569,0,2,25,1,143,366
145,1530629685217,1598217, RC,0,39.9586186,-88.445067899,0,0.0,0.0,0.0,0.0,0.0,0.0,0.0,0.0,0.0,0.0,0.0,0.0,0.0,1500,1500,0.0,0.0,40.048316,-88.23273616670001,0.0,0.0,0.0,0.0,0.0,0.0,0.0,0.0,0.0,0.0,0.0,0,0.0,0.0,0.0,0.0,90.0,60.0,90.0,89.82704925540001,119.0479049683,89.25408935549999,34.686000824000004,15.3671550751,3.3999998569,0,2,25,1,154,369
146,1530629685267,1598267, RC,0,39.9586186,-88.445067899,0,0.0,0.0,0.0,0.0,0.0,0.0,0.0,0.0,0.0,0.0,0.0,0.0,0.0,1500,1500,0.0,0.0,40.048316,-88.23273616670001,0.0,0.0,0.0,0.0,0.0,0.0,0.0,0.0,0.0,0.0,0.0,0,0.0,0.0,0.0,0.0,90.0,60.0,90.0,89.82704925540001,119.0479049683,89.25408935549999,34.686000824000004,15.3671550751,3.3999998569,0,2,25,1,150,371
147,1530629685318,1598318, RC,0,39.9586186,-88.445067899,0,0.0,0.0,0.0,0.0,0.0,0.0,0.0,0.0,0.0,0.0,0.0,0.0,0.0,1500,1500,0.0,0.0,40.048316,-88.23273616670001,0.0,0.0,0.0,0.0,0.0,0.0,0.0,0.0,0.0,0.0,0.0,0,0.0,0.0,0.0,0.0,90.0,60.0,90.0,89.82704925540001,119.0479049683,89.25408935549999,34.686000824000004,15.3671550751,3.3999998569,0,2,25,1,149,374
148,1530629685368,1598368, RC,0,39.9586186,-88.445067899,0,0.0,0.0,0.0,0.0,0.0,0.0,0.0,0.0,0.0,0.0,0.0,0.0,0.0,1500,1500,0.0,0.0,40.048316,-88.23273616670001,0.0,0.0,0.0,0.0,0.0,0.0,0.0,0.0,0.0,0.0,0.0,0,0.0,0.0,0.0,0.0,90.0,60.0,90.0,89.82704925540001,119.0479049683,89.25408935549999,34.686000824000004,15.3671550751,3.3999998569,0,2,25,1,147,376
149,1530629685419,1598419, RC,0,39.9586186,-88.445067899,0,0.0,0.0,0.0,0.0,0.0,0.0,0.0,0.0,0.0,0.0,0.0,0.0,0.0,1500,1500,0.0,0.0,40.048316,-88.23273616670001,0.0,0.0,0.0,0.0,0.0,0.0,0.0,0.0,0.0,0.0,0.0,0,0.0,0.0,0.0,0.0,90.0,60.0,90.0,89.82704925540001,119.0479049683,89.25408935549999,34.686000824000004,15.3671550751,3.3999998569,0,2,25,1,150,379
150,1530629685469,1598469, RC,0,39.9586186,-88.445067899,0,0.0,0.0,0.0,0.0,0.0,0.0,0.0,0.0,0.0,0.0,0.0,0.0,0.0,1500,1500,0.0,0.0,40.048316,-88.23273616670001,0.0,0.0,0.0,0.0,0.0,0.0,0.0,0.0,0.0,0.0,0.0,0,0.0,0.0,0.0,0.0,90.0,60.0,90.0,89.82704925540001,119.0479049683,89.25408935549999,34.686000824000004,15.3671550751,3.3999998569,0,2,25,1,147,381
151,1530629685520,1598520, RC,0,39.9586186,-88.445067899,0,0.0,0.0,0.0,0.0,0.0,0.0,0.0,0.0,0.0,0.0,0.0,0.0,0.0,1500,1500,0.0,0.0,40.048316,-88.23273616670001,0.0,0.0,0.0,0.0,0.0,0.0,0.0,0.0,0.0,0.0,0.0,0,0.0,0.0,0.0,0.0,90.0,60.0,90.0,89.82704925540001,119.0479049683,89.25408935549999,34.686000824000004,15.3671550751,3.3999998569,0,2,25,1,147,384
152,1530629685571,1598571, RC,0,39.9586186,-88.445067899,0,0.0,0.0,0.0,0.0,0.0,0.0,0.0,0.0,0.0,0.0,0.0,0.0,0.0,1500,1500,0.0,0.0,40.048316,-88.23273616670001,0.0,0.0,0.0,0.0,0.0,0.0,0.0,0.0,0.0,0.0,0.0,0,0.0,0.0,0.0,0.0,90.0,60.0,90.0,89.82704925540001,119.0479049683,89.25408935549999,34.686000824000004,15.3671550751,3.3999998569,0,2,25,1,152,387
153,1530629685621,1598621, RC,0,39.9586186,-88.445067899,0,0.0,0.0,0.0,0.0,0.0,0.0,0.0,0.0,0.0,0.0,0.0,0.0,0.0,1500,1500,0.0,0.0,40.048316,-88.23273616670001,0.0,0.0,0.0,0.0,0.0,0.0,0.0,0.0,0.0,0.0,0.0,0,0.0,0.0,0.0,0.0,90.0,60.0,90.0,89.82704925540001,119.0479049683,89.25408935549999,34.686000824000004,15.3671550751,3.3999998569,0,2,25,1,157,389
154,1530629685672,1598672, RC,0,39.9586186,-88.445067899,0,0.0,0.0,0.0,0.0,0.0,0.0,0.0,0.0,0.0,0.0,0.0,0.0,0.0,1500,1500,0.0,0.0,40.048316,-88.23273616670001,0.0,0.0,0.0,0.0,0.0,0.0,0.0,0.0,0.0,0.0,0.0,0,0.0,0.0,0.0,0.0,90.0,60.0,90.0,89.82704925540001,119.0479049683,89.25408935549999,34.686000824000004,15.3671550751,3.3999998569,0,2,25,1,138,392
155,1530629685722,1598722, RC,0,39.9586186,-88.445067899,0,0.0,0.0,0.0,0.0,0.0,0.0,0.0,0.0,0.0,0.0,0.0,0.0,0.0,1500,1500,0.0,0.0,40.048316,-88.23273616670001,0.0,0.0,0.0,0.0,0.0,0.0,0.0,0.0,0.0,0.0,0.0,0,0.0,0.0,0.0,0.0,90.0,60.0,90.0,89.82704925540001,119.0479049683,89.25408935549999,34.686000824000004,15.3671550751,3.3999998569,0,2,25,1,151,394
156,1530629685773,1598773, RC,0,39.9586186,-88.445067899,0,0.0,0.0,0.0,0.0,0.0,0.0,0.0,0.0,0.0,0.0,0.0,0.0,0.0,1500,1500,0.0,0.0,40.048316,-88.23273616670001,0.0,0.0,0.0,0.0,0.0,0.0,0.0,0.0,0.0,0.0,0.0,0,0.0,0.0,0.0,0.0,90.0,60.0,90.0,89.82704925540001,119.0479049683,89.25408935549999,34.686000824000004,15.3671550751,3.3999998569,0,2,25,1,143,397
157,1530629685824,1598824, RC,0,39.9586186,-88.445067899,0,0.0,0.0,0.0,0.0,0.0,0.0,0.0,0.0,0.0,0.0,0.0,0.0,0.0,1500,1500,0.0,0.0,40.048314,-88.2327315,0.0,0.0,0.0,0.0,0.0,0.0,0.0,0.0,0.0,0.0,0.0,0,0.0,0.0,0.0,0.0,90.0,60.0,90.0,89.82704925540001,119.0479049683,89.25408935549999,34.686000824000004,15.3671550751,3.3999998569,0,2,25,1,158,399
158,1530629685874,1598874, RC,0,39.9586186,-88.445067899,0,0.0,0.0,0.0,0.0,0.0,0.0,0.0,0.0,0.0,0.0,0.0,0.0,0.0,1500,1500,0.0,0.0,40.048314,-88.2327315,0.0,0.0,0.0,0.0,0.0,0.0,0.0,0.0,0.0,0.0,0.0,0,0.0,0.0,0.0,0.0,90.0,60.0,90.0,89.82704925540001,119.0479049683,89.25408935549999,34.686000824000004,15.3626098633,3.3499999045999997,0,2,25,1,143,402
159,1530629685925,1598925, RC,0,39.9586186,-88.445067899,0,0.0,0.0,0.0,0.0,0.0,0.0,0.0,0.0,0.0,0.0,0.0,0.0,0.0,1500,1500,0.0,0.0,40.048314,-88.2327315,0.0,0.0,0.0,0.0,0.0,0.0,0.0,0.0,0.0,0.0,0.0,0,0.0,0.0,0.0,0.0,90.0,60.0,90.0,89.82704925540001,119.0479049683,89.25408935549999,34.686000824000004,15.3626098633,3.3499999045999997,0,2,25,1,153,404
160,1530629685975,1598975, RC,0,39.9586186,-88.445067899,0,0.0,0.0,0.0,0.0,0.0,0.0,0.0,0.0,0.0,0.0,0.0,0.0,0.0,1500,1500,0.0,0.0,40.048314,-88.2327315,0.0,0.0,0.0,0.0,0.0,0.0,0.0,0.0,0.0,0.0,0.0,0,0.0,0.0,0.0,0.0,90.0,60.0,90.0,89.82704925540001,119.0479049683,89.25408935549999,34.686000824000004,15.3626098633,3.3499999045999997,0,2,25,1,153,407
161,1530629686026,1599026, RC,0,39.9586186,-88.445067899,0,0.0,0.0,0.0,0.0,0.0,0.0,0.0,0.0,0.0,0.0,0.0,0.0,0.0,1500,1500,0.0,0.0,40.048314,-88.2327315,0.0,0.0,0.0,0.0,0.0,0.0,0.0,0.0,0.0,0.0,0.0,0,0.0,0.0,0.0,0.0,90.0,60.0,90.0,89.82704925540001,119.0479049683,89.25408935549999,34.686000824000004,15.3626098633,3.3499999045999997,0,2,25,1,140,409
162,1530629686077,1599077, RC,0,39.9586186,-88.445067899,0,0.0,0.0,0.0,0.0,0.0,0.0,0.0,0.0,0.0,0.0,0.0,0.0,0.0,1500,1500,0.0,0.0,40.048314,-88.2327315,0.0,0.0,0.0,0.0,0.0,0.0,0.0,0.0,0.0,0.0,0.0,0,0.0,0.0,0.0,0.0,90.0,60.0,90.0,89.82704925540001,119.0479049683,88.9994430542,34.686000824000004,15.3626098633,3.3499999045999997,0,2,25,1,153,412
163,1530629686127,1599127, RC,0,39.9586186,-88.445067899,0,0.0,0.0,0.0,0.0,0.0,0.0,0.0,0.0,0.0,0.0,0.0,0.0,0.0,1500,1500,0.0,0.0,40.048314,-88.2327315,0.0,0.0,0.0,0.0,0.0,0.0,0.0,0.0,0.0,0.0,0.0,0,0.0,0.0,0.0,0.0,90.0,60.0,90.0,89.82704925540001,119.0479049683,88.9994430542,34.686000824000004,15.3626098633,3.3499999045999997,0,2,25,1,158,414
164,1530629686178,1599178, RC,0,39.9586186,-88.445067899,0,0.0,0.0,0.0,0.0,0.0,0.0,0.0,0.0,0.0,0.0,0.0,0.0,0.0,1500,1500,0.0,0.0,40.048314,-88.2327315,0.0,0.0,0.0,0.0,0.0,0.0,0.0,0.0,0.0,0.0,0.0,0,0.0,0.0,0.0,0.0,90.0,60.0,90.0,89.82704925540001,119.0479049683,88.9994430542,34.686000824000004,15.3626098633,3.3499999045999997,0,2,25,1,161,417
