,(0)linux time (ms),    (1)uptime  (ms),      (2)drive mode,(3)mpc step counter,(4)mpc origin latitude  (deg),(5)mpc origin longitude  (deg),(6)closest trajectory point index to robot,(7)mpc error x (W;E)  (m),(8)mpc error y (W;E)  (m),(9)abs mpc error (m),(10)input [x] for mhe (m),(11)input [y] for mhe (m),(12)input [speed] for mhe (m/s),(13)input [vyaw] for mhe (rad/s),(14)mhe output x  (m),(15)mhe output y  (m),(16)mhe output speed  (m/s),(17)mhe output yaw  (rad),(18)mpc reference heading (rad),(19)mpc turn rate command (rad/s),(20)turn rate command as PWM,(21)throttle command as PWM,(22)primary gps latitude (deg),(23)primary gps longitude (deg),(24)secondary gps latitude  (deg),(25)secondary gps longitude (deg),(26)accelerometer x (m/s^2),(27)accelerometer y (m/s^2),(28)accelerometer z (m/s^2),(29)gyro yaw rate (rad/s),(30)gyro pitch rate   (rad/s),(31)gyro roll rate (rad/s),      (32)yaw (rad),  (33)pitch   (rad),     (34)roll (rad),(35)sonar1 measurement (m),(36)ultrasonic sensor measurement (m),(37)primary gps time (s),(38)normalized turn rate command,(39)normalized throttle command,(40)speed calculation from encoder left (m/s),(41)speed calculation from encoder right (m/s),(42)front gimbal target angle (degrees from straight down),(43)left gimbal target angle  (degrees from straight down),(44)right gimbal target angle  (degrees from straight down),(45)front gimbal measured angle  (degrees from straight down),(46)left gimbal measured angle    (degrees from straight down),(47)right gimbal measured angle  (degrees from straight down),(48)internal temperature (C),(49)battery voltage (V),(50)primary gps type,(51)secondary gps type,    (52)MPC R value, (53)MPC Q[0] value,Unnamed: 54,weed_num,start
0,1530633605197,194197, RC,0,39.9586186,-88.445067899,0,0.0,0.0,0.0,0.0,0.0,0.0,0.0,0.0,0.0,0.0,0.0,0.0,0.0,1500,1500,0.0,0.0,40.0483813333,-88.233105,0.0,0.0,0.0,0.0,0.0,0.0,0.0,0.0,0.0,0.0,0.0,0,0.0,0.0,0.0,0.0,90.0,60.0,60.0,90.0816955566,120.13014221190001,120.51211547850001,50.8259963989,14.5536212921,3.5599999427999998,0,2,25,1,295,4002
1,1530633605248,194248, RC,0,39.9586186,-88.445067899,0,0.0,0.0,0.0,0.0,0.0,0.0,0.0,0.0,0.0,0.0,0.0,0.0,0.0,1500,1500,0.0,0.0,40.0483813333,-88.233105,0.0,0.0,0.0,0.0,0.0,0.0,0.0,0.0,0.0,0.0,0.0,0,0.0,0.0,0.0,0.0,90.0,60.0,60.0,90.0816955566,120.13014221190001,120.51211547850001,50.8259963989,14.5536212921,3.5599999427999998,0,2,25,1,300,4004
2,1530633605298,194298, RC,0,39.9586186,-88.445067899,0,0.0,0.0,0.0,0.0,0.0,0.0,0.0,0.0,0.0,0.0,0.0,0.0,0.0,1500,1500,0.0,0.0,40.0483813333,-88.233105,0.0,0.0,0.0,0.0,0.0,0.0,0.0,0.0,0.0,0.0,0.0,0,0.0,0.0,0.0,0.0,90.0,60.0,60.0,90.0816955566,120.13014221190001,120.51211547850001,50.8259963989,14.5536212921,3.5599999427999998,0,2,25,1,368,4006
3,1530633605349,194349, RC,0,39.9586186,-88.445067899,0,0.0,0.0,0.0,0.0,0.0,0.0,0.0,0.0,0.0,0.0,0.0,0.0,0.0,1500,1500,0.0,0.0,40.0483805,-88.2331068333,0.0,0.0,0.0,0.0,0.0,0.0,0.0,0.0,0.0,0.0,0.0,0,0.0,0.0,0.0,0.0,90.0,60.0,60.0,90.0816955566,120.13014221190001,120.51211547850001,50.8259963989,14.5536212921,3.5599999427999998,0,2,25,1,351,4007
4,1530633605399,194399, RC,0,39.9586186,-88.445067899,0,0.0,0.0,0.0,0.0,0.0,0.0,0.0,0.0,0.0,0.0,0.0,0.0,0.0,1500,1500,0.0,0.0,40.0483805,-88.2331068333,0.0,0.0,0.0,0.0,0.0,0.0,0.0,0.0,0.0,0.0,0.0,0,0.0,0.0,0.0,0.0,90.0,60.0,60.0,90.0816955566,120.13014221190001,120.51211547850001,50.8259963989,14.5536212921,3.5599999427999998,0,2,25,1,328,4009
5,1530633605450,194450, RC,0,39.9586186,-88.445067899,0,0.0,0.0,0.0,0.0,0.0,0.0,0.0,0.0,0.0,0.0,0.0,0.0,0.0,1500,1500,0.0,0.0,40.0483805,-88.2331068333,0.0,0.0,0.0,0.0,0.0,0.0,0.0,0.0,0.0,0.0,0.0,0,0.0,0.0,0.0,0.0,90.0,60.0,60.0,90.0816955566,120.13014221190001,120.51211547850001,50.8259963989,14.5536212921,3.5599999427999998,0,2,25,1,322,4010
6,1530633605500,194500, RC,0,39.9586186,-88.445067899,0,0.0,0.0,0.0,0.0,0.0,0.0,0.0,0.0,0.0,0.0,0.0,0.0,0.0,1500,1500,0.0,0.0,40.0483805,-88.2331068333,0.0,0.0,0.0,0.0,0.0,0.0,0.0,0.0,0.0,0.0,0.0,0,0.0,0.0,0.0,0.0,90.0,60.0,60.0,90.0816955566,120.13014221190001,120.51211547850001,50.8259963989,14.553606987,3.3499999045999997,0,2,25,1,302,4012
7,1530633605551,194551, RC,0,39.9586186,-88.445067899,0,0.0,0.0,0.0,0.0,0.0,0.0,0.0,0.0,0.0,0.0,0.0,0.0,0.0,1500,1500,0.0,0.0,40.0483805,-88.2331068333,0.0,0.0,0.0,0.0,0.0,0.0,0.0,0.0,0.0,0.0,0.0,0,0.0,0.0,0.0,0.0,90.0,60.0,60.0,90.0816955566,120.13014221190001,120.51211547850001,50.8259963989,14.553606987,3.3499999045999997,0,2,25,1,312,4013
8,1530633605601,194601, RC,0,39.9586186,-88.445067899,0,0.0,0.0,0.0,0.0,0.0,0.0,0.0,0.0,0.0,0.0,0.0,0.0,0.0,1500,1500,0.0,0.0,40.0483805,-88.2331068333,0.0,0.0,0.0,0.0,0.0,0.0,0.0,0.0,0.0,0.0,0.0,0,0.0,0.0,0.0,0.0,90.0,60.0,60.0,90.0816955566,120.13014221190001,120.51211547850001,50.8259963989,14.553606987,3.3499999045999997,0,2,25,1,329,4015
9,1530633605652,194652, RC,0,39.9586186,-88.445067899,0,0.0,0.0,0.0,0.0,0.0,0.0,0.0,0.0,0.0,0.0,0.0,0.0,0.0,1500,1500,0.0,0.0,40.0483805,-88.2331068333,0.0,0.0,0.0,0.0,0.0,0.0,0.0,0.0,0.0,0.0,0.0,0,0.0,0.0,0.0,0.0,90.0,60.0,60.0,90.0816955566,120.13014221190001,120.51211547850001,50.8259963989,14.553606987,3.3499999045999997,0,2,25,1,338,4016
10,1530633605703,194703, RC,0,39.9586186,-88.445067899,0,0.0,0.0,0.0,0.0,0.0,0.0,0.0,0.0,0.0,0.0,0.0,0.0,0.0,1500,1500,0.0,0.0,40.0483805,-88.2331068333,0.0,0.0,0.0,0.0,0.0,0.0,0.0,0.0,0.0,0.0,0.0,0,0.0,0.0,0.0,0.0,90.0,60.0,60.0,90.0816955566,120.13014221190001,120.51211547850001,50.8259963989,14.553606987,3.3499999045999997,0,2,25,1,322,4018
11,1530633605753,194753, RC,0,39.9586186,-88.445067899,0,0.0,0.0,0.0,0.0,0.0,0.0,0.0,0.0,0.0,0.0,0.0,0.0,0.0,1500,1500,0.0,0.0,40.0483805,-88.2331068333,0.0,0.0,0.0,0.0,0.0,0.0,0.0,0.0,0.0,0.0,0.0,0,0.0,0.0,0.0,0.0,90.0,60.0,60.0,90.0816955566,120.13014221190001,120.51211547850001,50.8259963989,14.553606987,3.3499999045999997,0,2,25,1,305,4019
12,1530633605804,194804, RC,0,39.9586186,-88.445067899,0,0.0,0.0,0.0,0.0,0.0,0.0,0.0,0.0,0.0,0.0,0.0,0.0,0.0,1500,1500,0.0,0.0,40.0483805,-88.2331068333,0.0,0.0,0.0,0.0,0.0,0.0,0.0,0.0,0.0,0.0,0.0,0,0.0,0.0,0.0,0.0,90.0,60.0,60.0,90.0816955566,120.13014221190001,120.51211547850001,50.8259963989,14.553606987,3.3499999045999997,0,2,25,1,323,4021
13,1530633605854,194854, RC,0,39.9586186,-88.445067899,0,0.0,0.0,0.0,0.0,0.0,0.0,0.0,0.0,0.0,0.0,0.0,0.0,0.0,1500,1500,0.0,0.0,40.0483805,-88.2331068333,0.0,0.0,0.0,0.0,0.0,0.0,0.0,0.0,0.0,0.0,0.0,0,0.0,0.0,0.0,0.0,90.0,60.0,60.0,90.0816955566,120.13014221190001,120.51211547850001,50.8259963989,14.553606987,3.3499999045999997,0,2,25,1,331,4022
14,1530633605905,194905, RC,0,39.9586186,-88.445067899,0,0.0,0.0,0.0,0.0,0.0,0.0,0.0,0.0,0.0,0.0,0.0,0.0,0.0,1500,1500,0.0,0.0,40.0483805,-88.2331068333,0.0,0.0,0.0,0.0,0.0,0.0,0.0,0.0,0.0,0.0,0.0,0,0.0,0.0,0.0,0.0,90.0,60.0,60.0,90.0816955566,120.13014221190001,120.51211547850001,50.8259963989,14.553606987,3.3499999045999997,0,2,25,1,312,4024
15,1530633605955,194955, RC,0,39.9586186,-88.445067899,0,0.0,0.0,0.0,0.0,0.0,0.0,0.0,0.0,0.0,0.0,0.0,0.0,0.0,1500,1500,0.0,0.0,40.0483805,-88.2331068333,0.0,0.0,0.0,0.0,0.0,0.0,0.0,0.0,0.0,0.0,0.0,0,0.0,0.0,0.0,0.0,90.0,60.0,60.0,90.0816955566,120.13014221190001,120.51211547850001,50.8259963989,14.553606987,3.3499999045999997,0,2,25,1,310,4025
16,1530633606006,195006, RC,0,39.9586186,-88.445067899,0,0.0,0.0,0.0,0.0,0.0,0.0,0.0,0.0,0.0,0.0,0.0,0.0,0.0,1500,1500,0.0,0.0,40.0483805,-88.2331068333,0.0,0.0,0.0,0.0,0.0,0.0,0.0,0.0,0.0,0.0,0.0,0,0.0,0.0,0.0,0.0,90.0,60.0,60.0,89.9543762207,120.13014221190001,120.51211547850001,50.8259963989,14.553606987,3.3499999045999997,0,2,25,1,329,4026
17,1530633606057,195057, RC,0,39.9586186,-88.445067899,0,0.0,0.0,0.0,0.0,0.0,0.0,0.0,0.0,0.0,0.0,0.0,0.0,0.0,1500,1500,0.0,0.0,40.0483805,-88.2331068333,0.0,0.0,0.0,0.0,0.0,0.0,0.0,0.0,0.0,0.0,0.0,0,0.0,0.0,0.0,0.0,90.0,60.0,60.0,90.01803588870001,120.13014221190001,120.51211547850001,50.8259963989,14.553606987,3.3499999045999997,0,2,25,1,305,4028
18,1530633606107,195107, RC,0,39.9586186,-88.445067899,0,0.0,0.0,0.0,0.0,0.0,0.0,0.0,0.0,0.0,0.0,0.0,0.0,0.0,1500,1500,0.0,0.0,40.0483805,-88.2331068333,0.0,0.0,0.0,0.0,0.0,0.0,0.0,0.0,0.0,0.0,0.0,0,0.0,0.0,0.0,0.0,90.0,60.0,60.0,90.01803588870001,120.13014221190001,120.51211547850001,50.8259963989,14.553606987,3.3499999045999997,0,2,25,1,292,4029
19,1530633606158,195158, RC,0,39.9586186,-88.445067899,0,0.0,0.0,0.0,0.0,0.0,0.0,0.0,0.0,0.0,0.0,0.0,0.0,0.0,1500,1500,0.0,0.0,40.0483805,-88.2331068333,0.0,0.0,0.0,0.0,0.0,0.0,0.0,0.0,0.0,0.0,0.0,0,0.0,0.0,0.0,0.0,90.0,60.0,60.0,90.01803588870001,120.13014221190001,120.51211547850001,50.8259963989,14.553606987,3.3499999045999997,0,2,25,1,301,4030
20,1530633606208,195208, RC,0,39.9586186,-88.445067899,0,0.0,0.0,0.0,0.0,0.0,0.0,0.0,0.0,0.0,0.0,0.0,0.0,0.0,1500,1500,0.0,0.0,40.0483805,-88.2331068333,0.0,0.0,0.0,0.0,0.0,0.0,0.0,0.0,0.0,0.0,0.0,0,0.0,0.0,0.0,0.0,90.0,60.0,60.0,90.01803588870001,120.13014221190001,120.51211547850001,50.8259963989,14.553606987,3.3499999045999997,0,2,25,1,327,4032
21,1530633606259,195259, RC,0,39.9586186,-88.445067899,0,0.0,0.0,0.0,0.0,0.0,0.0,0.0,0.0,0.0,0.0,0.0,0.0,0.0,1500,1500,0.0,0.0,40.0483805,-88.2331068333,0.0,0.0,0.0,0.0,0.0,0.0,0.0,0.0,0.0,0.0,0.0,0,0.0,0.0,0.0,0.0,90.0,60.0,60.0,90.01803588870001,120.13014221190001,120.51211547850001,50.8259963989,14.553606987,3.3499999045999997,0,2,25,1,331,4033
22,1530633606309,195309, RC,0,39.9586186,-88.445067899,0,0.0,0.0,0.0,0.0,0.0,0.0,0.0,0.0,0.0,0.0,0.0,0.0,0.0,1500,1500,0.0,0.0,40.0483801667,-88.23310766670001,0.0,0.0,0.0,0.0,0.0,0.0,0.0,0.0,0.0,0.0,0.0,0,0.0,0.0,0.0,0.0,90.0,60.0,60.0,90.01803588870001,120.13014221190001,120.51211547850001,50.8259963989,14.553606987,3.3499999045999997,0,2,25,1,353,4035
23,1530633606360,195360, RC,0,39.9586186,-88.445067899,0,0.0,0.0,0.0,0.0,0.0,0.0,0.0,0.0,0.0,0.0,0.0,0.0,0.0,1500,1500,0.0,0.0,40.0483801667,-88.23310766670001,0.0,0.0,0.0,0.0,0.0,0.0,0.0,0.0,0.0,0.0,0.0,0,0.0,0.0,0.0,0.0,90.0,60.0,60.0,90.01803588870001,120.13014221190001,120.51211547850001,50.8259963989,14.553606987,3.3499999045999997,0,2,25,1,328,4036
24,1530633606411,195411, RC,0,39.9586186,-88.445067899,0,0.0,0.0,0.0,0.0,0.0,0.0,0.0,0.0,0.0,0.0,0.0,0.0,0.0,1500,1500,0.0,0.0,40.0483801667,-88.23310766670001,0.0,0.0,0.0,0.0,0.0,0.0,0.0,0.0,0.0,0.0,0.0,0,0.0,0.0,0.0,0.0,90.0,60.0,60.0,90.01803588870001,120.13014221190001,120.51211547850001,50.8259963989,14.553606987,3.3499999045999997,0,2,25,1,294,4037
25,1530633606461,195461, RC,0,39.9586186,-88.445067899,0,0.0,0.0,0.0,0.0,0.0,0.0,0.0,0.0,0.0,0.0,0.0,0.0,0.0,1500,1500,0.0,0.0,40.0483801667,-88.23310766670001,0.0,0.0,0.0,0.0,0.0,0.0,0.0,0.0,0.0,0.0,0.0,0,0.0,0.0,0.0,0.0,90.0,60.0,60.0,90.01803588870001,120.13014221190001,120.51211547850001,50.8259963989,14.553606987,3.3499999045999997,0,2,25,1,334,4039
26,1530633606512,195512, RC,0,39.9586186,-88.445067899,0,0.0,0.0,0.0,0.0,0.0,0.0,0.0,0.0,0.0,0.0,0.0,0.0,0.0,1500,1500,0.0,0.0,40.0483801667,-88.23310766670001,0.0,0.0,0.0,0.0,0.0,0.0,0.0,0.0,0.0,0.0,0.0,0,0.0,0.0,0.0,0.0,90.0,60.0,60.0,90.01803588870001,120.13014221190001,120.51211547850001,50.8259963989,14.5535526276,3.0099999905000003,0,2,25,1,339,4040
27,1530633606562,195562, RC,0,39.9586186,-88.445067899,0,0.0,0.0,0.0,0.0,0.0,0.0,0.0,0.0,0.0,0.0,0.0,0.0,0.0,1500,1500,0.0,0.0,40.0483801667,-88.23310766670001,0.0,0.0,0.0,0.0,0.0,0.0,0.0,0.0,0.0,0.0,0.0,0,0.0,0.0,0.0,0.0,90.0,60.0,60.0,90.01803588870001,120.13014221190001,120.51211547850001,50.8259963989,14.5535526276,3.0099999905000003,0,2,25,1,328,4041
28,1530633606613,195613, RC,0,39.9586186,-88.445067899,0,0.0,0.0,0.0,0.0,0.0,0.0,0.0,0.0,0.0,0.0,0.0,0.0,0.0,1500,1500,0.0,0.0,40.0483801667,-88.23310766670001,0.0,0.0,0.0,0.0,0.0,0.0,0.0,0.0,0.0,0.0,0.0,0,0.0,0.0,0.0,0.0,90.0,60.0,60.0,90.01803588870001,120.13014221190001,120.51211547850001,50.8259963989,14.5535526276,3.0099999905000003,0,2,25,1,339,4043
29,1530633606663,195663, RC,0,39.9586186,-88.445067899,0,0.0,0.0,0.0,0.0,0.0,0.0,0.0,0.0,0.0,0.0,0.0,0.0,0.0,1500,1500,0.0,0.0,40.0483801667,-88.23310766670001,0.0,0.0,0.0,0.0,0.0,0.0,0.0,0.0,0.0,0.0,0.0,0,0.0,0.0,0.0,0.0,90.0,60.0,60.0,90.01803588870001,120.13014221190001,120.51211547850001,50.8259963989,14.5535526276,3.0099999905000003,0,2,25,1,347,4044
30,1530633606714,195714, RC,0,39.9586186,-88.445067899,0,0.0,0.0,0.0,0.0,0.0,0.0,0.0,0.0,0.0,0.0,0.0,0.0,0.0,1500,1500,0.0,0.0,40.0483801667,-88.23310766670001,0.0,0.0,0.0,0.0,0.0,0.0,0.0,0.0,0.0,0.0,0.0,0,0.0,0.0,0.0,0.0,90.0,60.0,60.0,90.01803588870001,120.13014221190001,120.51211547850001,50.8259963989,14.5535526276,3.0099999905000003,0,2,25,1,342,4045
31,1530633606765,195765, RC,0,39.9586186,-88.445067899,0,0.0,0.0,0.0,0.0,0.0,0.0,0.0,0.0,0.0,0.0,0.0,0.0,0.0,1500,1500,0.0,0.0,40.0483801667,-88.23310766670001,0.0,0.0,0.0,0.0,0.0,0.0,0.0,0.0,0.0,0.0,0.0,0,0.0,0.0,0.0,0.0,90.0,60.0,60.0,90.01803588870001,120.13014221190001,120.51211547850001,50.8259963989,14.5535526276,3.0099999905000003,0,2,25,1,308,4047
32,1530633606815,195815, RC,0,39.9586186,-88.445067899,0,0.0,0.0,0.0,0.0,0.0,0.0,0.0,0.0,0.0,0.0,0.0,0.0,0.0,1500,1500,0.0,0.0,40.0483801667,-88.23310766670001,0.0,0.0,0.0,0.0,0.0,0.0,0.0,0.0,0.0,0.0,0.0,0,0.0,0.0,0.0,0.0,90.0,60.0,60.0,90.01803588870001,120.13014221190001,120.51211547850001,50.8259963989,14.5535526276,3.0099999905000003,0,2,25,1,281,4048
33,1530633606866,195866, RC,0,39.9586186,-88.445067899,0,0.0,0.0,0.0,0.0,0.0,0.0,0.0,0.0,0.0,0.0,0.0,0.0,0.0,1500,1500,0.0,0.0,40.0483801667,-88.23310766670001,0.0,0.0,0.0,0.0,0.0,0.0,0.0,0.0,0.0,0.0,0.0,0,0.0,0.0,0.0,0.0,90.0,60.0,60.0,90.01803588870001,120.13014221190001,120.51211547850001,50.8259963989,14.5535526276,3.0099999905000003,0,2,25,1,299,4050
34,1530633606916,195916, RC,0,39.9586186,-88.445067899,0,0.0,0.0,0.0,0.0,0.0,0.0,0.0,0.0,0.0,0.0,0.0,0.0,0.0,1500,1500,0.0,0.0,40.0483801667,-88.23310766670001,0.0,0.0,0.0,0.0,0.0,0.0,0.0,0.0,0.0,0.0,0.0,0,0.0,0.0,0.0,0.0,90.0,60.0,60.0,90.01803588870001,120.13014221190001,120.51211547850001,50.8259963989,14.5535526276,3.0099999905000003,0,2,25,1,326,4051
35,1530633606967,195967, RC,0,39.9586186,-88.445067899,0,0.0,0.0,0.0,0.0,0.0,0.0,0.0,0.0,0.0,0.0,0.0,0.0,0.0,1500,1500,0.0,0.0,40.0483801667,-88.23310766670001,0.0,0.0,0.0,0.0,0.0,0.0,0.0,0.0,0.0,0.0,0.0,0,0.0,0.0,0.0,0.0,90.0,60.0,60.0,90.01803588870001,120.13014221190001,120.51211547850001,50.8259963989,14.5535526276,3.0099999905000003,0,2,25,1,321,4052
36,1530633607017,196017, RC,0,39.9586186,-88.445067899,0,0.0,0.0,0.0,0.0,0.0,0.0,0.0,0.0,0.0,0.0,0.0,0.0,0.0,1500,1500,0.0,0.0,40.0483801667,-88.23310766670001,0.0,0.0,0.0,0.0,0.0,0.0,0.0,0.0,0.0,0.0,0.0,0,0.0,0.0,0.0,0.0,90.0,60.0,60.0,90.01803588870001,120.13014221190001,120.51211547850001,50.8259963989,14.5535526276,3.0099999905000003,0,2,25,1,321,4054
37,1530633607068,196068, RC,0,39.9586186,-88.445067899,0,0.0,0.0,0.0,0.0,0.0,0.0,0.0,0.0,0.0,0.0,0.0,0.0,0.0,1500,1500,0.0,0.0,40.0483801667,-88.23310766670001,0.0,0.0,0.0,0.0,0.0,0.0,0.0,0.0,0.0,0.0,0.0,0,0.0,0.0,0.0,0.0,90.0,60.0,60.0,90.01803588870001,120.13014221190001,120.51211547850001,50.8259963989,14.5535526276,3.0099999905000003,0,2,25,1,366,4056
38,1530633607119,196119, RC,0,39.9586186,-88.445067899,0,0.0,0.0,0.0,0.0,0.0,0.0,0.0,0.0,0.0,0.0,0.0,0.0,0.0,1500,1500,0.0,0.0,40.0483801667,-88.23310766670001,0.0,0.0,0.0,0.0,0.0,0.0,0.0,0.0,0.0,0.0,0.0,0,0.0,0.0,0.0,0.0,90.0,60.0,60.0,90.01803588870001,120.13014221190001,120.51211547850001,50.8259963989,14.5535526276,3.0099999905000003,0,2,25,1,352,4058
39,1530633607169,196169, RC,0,39.9586186,-88.445067899,0,0.0,0.0,0.0,0.0,0.0,0.0,0.0,0.0,0.0,0.0,0.0,0.0,0.0,1500,1500,0.0,0.0,40.0483801667,-88.23310766670001,0.0,0.0,0.0,0.0,0.0,0.0,0.0,0.0,0.0,0.0,0.0,0,0.0,0.0,0.0,0.0,90.0,60.0,60.0,90.01803588870001,120.13014221190001,120.51211547850001,50.8259963989,14.5535526276,3.0099999905000003,0,2,25,1,280,4060
40,1530633607220,196220, RC,0,39.9586186,-88.445067899,0,0.0,0.0,0.0,0.0,0.0,0.0,0.0,0.0,0.0,0.0,0.0,0.0,0.0,1500,1500,0.0,0.0,40.0483801667,-88.23310766670001,0.0,0.0,0.0,0.0,0.0,0.0,0.0,0.0,0.0,0.0,0.0,0,0.0,0.0,0.0,0.0,90.0,60.0,60.0,90.01803588870001,120.13014221190001,120.51211547850001,50.8259963989,14.5535526276,3.0099999905000003,0,2,25,1,315,4062
41,1530633607270,196270, RC,0,39.9586186,-88.445067899,0,0.0,0.0,0.0,0.0,0.0,0.0,0.0,0.0,0.0,0.0,0.0,0.0,0.0,1500,1500,0.0,0.0,40.0483801667,-88.23310766670001,0.0,0.0,0.0,0.0,0.0,0.0,0.0,0.0,0.0,0.0,0.0,0,0.0,0.0,0.0,0.0,90.0,60.0,60.0,90.01803588870001,120.13014221190001,120.51211547850001,50.8259963989,14.5535526276,3.0099999905000003,0,2,25,1,273,4065
42,1530633607338,196338, RC,0,39.9586186,-88.445067899,0,0.0,0.0,0.0,0.0,0.0,0.0,0.0,0.0,0.0,0.0,0.0,0.0,0.0,1500,1500,0.0,0.0,40.0483793333,-88.23310933329999,0.0,0.0,0.0,0.0,0.0,0.0,0.0,0.0,0.0,0.0,0.0,0,0.0,0.0,0.0,0.0,90.0,60.0,60.0,90.01803588870001,120.13014221190001,120.51211547850001,50.8259963989,14.5535526276,3.0099999905000003,0,2,25,1,348,4068
43,1530633607388,196388, RC,0,39.9586186,-88.445067899,0,0.0,0.0,0.0,0.0,0.0,0.0,0.0,0.0,0.0,0.0,0.0,0.0,0.0,1500,1500,0.0,0.0,40.0483793333,-88.23310933329999,0.0,0.0,0.0,0.0,0.0,0.0,0.0,0.0,0.0,0.0,0.0,0,0.0,0.0,0.0,0.0,90.0,60.0,60.0,90.01803588870001,120.13014221190001,120.51211547850001,50.8259963989,14.5535526276,3.0099999905000003,0,2,25,1,329,4070
44,1530633607439,196439, RC,0,39.9586186,-88.445067899,0,0.0,0.0,0.0,0.0,0.0,0.0,0.0,0.0,0.0,0.0,0.0,0.0,0.0,1500,1500,0.0,0.0,40.0483793333,-88.23310933329999,0.0,0.0,0.0,0.0,0.0,0.0,0.0,0.0,0.0,0.0,0.0,0,0.0,0.0,0.0,0.0,90.0,60.0,60.0,90.01803588870001,120.13014221190001,120.51211547850001,50.8259963989,14.5535526276,3.0099999905000003,0,2,25,1,312,4072
45,1530633607490,196490, RC,0,39.9586186,-88.445067899,0,0.0,0.0,0.0,0.0,0.0,0.0,0.0,0.0,0.0,0.0,0.0,0.0,0.0,1500,1500,0.0,0.0,40.0483793333,-88.23310933329999,0.0,0.0,0.0,0.0,0.0,0.0,0.0,0.0,0.0,0.0,0.0,0,0.0,0.0,0.0,0.0,90.0,60.0,60.0,90.01803588870001,120.13014221190001,120.51211547850001,50.8259963989,14.5534696579,3.2899999619,0,2,25,1,304,4074
46,1530633607540,196540, RC,0,39.9586186,-88.445067899,0,0.0,0.0,0.0,0.0,0.0,0.0,0.0,0.0,0.0,0.0,0.0,0.0,0.0,1500,1500,0.0,0.0,40.0483793333,-88.23310933329999,0.0,0.0,0.0,0.0,0.0,0.0,0.0,0.0,0.0,0.0,0.0,0,0.0,0.0,0.0,0.0,90.0,60.0,60.0,90.01803588870001,120.13014221190001,120.51211547850001,50.8259963989,14.5534696579,3.2899999619,0,2,25,1,364,4077
47,1530633607591,196591, RC,0,39.9586186,-88.445067899,0,0.0,0.0,0.0,0.0,0.0,0.0,0.0,0.0,0.0,0.0,0.0,0.0,0.0,1500,1500,0.0,0.0,40.0483793333,-88.23310933329999,0.0,0.0,0.0,0.0,0.0,0.0,0.0,0.0,0.0,0.0,0.0,0,0.0,0.0,0.0,0.0,90.0,60.0,60.0,90.01803588870001,120.13014221190001,120.51211547850001,50.8259963989,14.5534696579,3.2899999619,0,2,25,1,386,4079
48,1530633607641,196641, RC,0,39.9586186,-88.445067899,0,0.0,0.0,0.0,0.0,0.0,0.0,0.0,0.0,0.0,0.0,0.0,0.0,0.0,1500,1500,0.0,0.0,40.0483793333,-88.23310933329999,0.0,0.0,0.0,0.0,0.0,0.0,0.0,0.0,0.0,0.0,0.0,0,0.0,0.0,0.0,0.0,90.0,60.0,60.0,90.01803588870001,120.13014221190001,120.51211547850001,50.8259963989,14.5534696579,3.2899999619,0,2,25,1,342,4081
49,1530633607692,196692, RC,0,39.9586186,-88.445067899,0,0.0,0.0,0.0,0.0,0.0,0.0,0.0,0.0,0.0,0.0,0.0,0.0,0.0,1500,1500,0.0,0.0,40.0483793333,-88.23310933329999,0.0,0.0,0.0,0.0,0.0,0.0,0.0,0.0,0.0,0.0,0.0,0,0.0,0.0,0.0,0.0,90.0,60.0,60.0,90.01803588870001,120.13014221190001,120.51211547850001,50.8259963989,14.5534696579,3.2899999619,0,2,25,1,342,4083
50,1530633607743,196743, RC,0,39.9586186,-88.445067899,0,0.0,0.0,0.0,0.0,0.0,0.0,0.0,0.0,0.0,0.0,0.0,0.0,0.0,1500,1500,0.0,0.0,40.0483793333,-88.23310933329999,0.0,0.0,0.0,0.0,0.0,0.0,0.0,0.0,0.0,0.0,0.0,0,0.0,0.0,0.0,0.0,90.0,60.0,60.0,90.01803588870001,120.13014221190001,120.51211547850001,50.8259963989,14.5534696579,3.2899999619,0,2,25,1,309,4086
51,1530633607793,196793, RC,0,39.9586186,-88.445067899,0,0.0,0.0,0.0,0.0,0.0,0.0,0.0,0.0,0.0,0.0,0.0,0.0,0.0,1500,1500,0.0,0.0,40.0483793333,-88.23310933329999,0.0,0.0,0.0,0.0,0.0,0.0,0.0,0.0,0.0,0.0,0.0,0,0.0,0.0,0.0,0.0,90.0,60.0,60.0,90.01803588870001,120.13014221190001,120.51211547850001,50.8259963989,14.5534696579,3.2899999619,0,2,25,1,339,4088
52,1530633607844,196844, RC,0,39.9586186,-88.445067899,0,0.0,0.0,0.0,0.0,0.0,0.0,0.0,0.0,0.0,0.0,0.0,0.0,0.0,1500,1500,0.0,0.0,40.0483793333,-88.23310933329999,0.0,0.0,0.0,0.0,0.0,0.0,0.0,0.0,0.0,0.0,0.0,0,0.0,0.0,0.0,0.0,90.0,60.0,60.0,90.01803588870001,120.13014221190001,120.51211547850001,50.8259963989,14.5534696579,3.2899999619,0,2,25,1,329,4090
53,1530633607895,196895, RC,0,39.9586186,-88.445067899,0,0.0,0.0,0.0,0.0,0.0,0.0,0.0,0.0,0.0,0.0,0.0,0.0,0.0,1500,1500,0.0,0.0,40.0483793333,-88.23310933329999,0.0,0.0,0.0,0.0,0.0,0.0,0.0,0.0,0.0,0.0,0.0,0,0.0,0.0,0.0,0.0,90.0,60.0,60.0,90.01803588870001,120.13014221190001,120.51211547850001,50.8259963989,14.5534696579,3.2899999619,0,2,25,1,327,4092
54,1530633607945,196945, RC,0,39.9586186,-88.445067899,0,0.0,0.0,0.0,0.0,0.0,0.0,0.0,0.0,0.0,0.0,0.0,0.0,0.0,1500,1500,0.0,0.0,40.0483793333,-88.23310933329999,0.0,0.0,0.0,0.0,0.0,0.0,0.0,0.0,0.0,0.0,0.0,0,0.0,0.0,0.0,0.0,90.0,60.0,60.0,90.01803588870001,120.13014221190001,120.51211547850001,50.8259963989,14.5534696579,3.2899999619,0,2,25,1,331,4093
55,1530633607996,196996, RC,0,39.9586186,-88.445067899,0,0.0,0.0,0.0,0.0,0.0,0.0,0.0,0.0,0.0,0.0,0.0,0.0,0.0,1522,1500,0.0,0.0,40.0483793333,-88.23310933329999,0.0,0.0,0.0,0.0,0.0,0.0,0.0,0.0,0.0,0.0,0.0,0,0.045737981799999994,0.0,0.0,0.0,90.0,60.0,60.0,90.01803588870001,120.13014221190001,120.51211547850001,50.8259963989,14.5534696579,3.2899999619,0,2,25,1,298,4095
56,1530633608046,197046, RC,0,39.9586186,-88.445067899,0,0.0,0.0,0.0,0.0,0.0,0.0026670429,0.0,0.0,0.0,0.0,0.0,0.0,0.0,1522,1500,0.0,0.0,40.0483793333,-88.23310933329999,0.0,0.0,0.0,0.0,0.0,0.0,0.0,0.0,0.0,0.0,0.0,0,0.045737981799999994,0.0,0.0086448975,-0.013978983300000001,90.0,60.0,60.0,90.01803588870001,120.13014221190001,120.51211547850001,50.8259963989,14.5534696579,3.2899999619,0,2,25,1,273,4096
57,1530633608097,197097, RC,0,39.9586186,-88.445067899,0,0.0,0.0,0.0,0.0,0.0,0.0005518021,0.0,0.0,0.0,0.0,0.0,0.0,0.0,1577,1500,0.0,0.0,40.0483793333,-88.23310933329999,0.0,0.0,0.0,0.0,0.0,0.0,0.0,0.0,0.0,0.0,0.0,0,0.1550539732,0.0,0.0200488046,-0.021152408799999998,90.0,60.0,60.0,89.8907089233,120.19381713870001,120.51211547850001,50.8259963989,14.5534696579,3.2899999619,0,2,25,1,327,4098
58,1530633608148,197148, RC,0,39.9586186,-88.445067899,0,0.0,0.0,0.0,0.0,0.0,0.0020232722,0.0,0.0,0.0,0.0,0.0,0.0,0.0,1577,1500,0.0,0.0,40.0483793333,-88.23310933329999,0.0,0.0,0.0,0.0,0.0,0.0,0.0,0.0,0.0,0.0,0.0,0,0.1550539732,0.0,0.0415690802,-0.0375225358,90.0,60.0,60.0,90.0816955566,120.13014221190001,120.57579040530001,50.8259963989,14.5534696579,3.2899999619,0,2,25,1,321,4100
59,1530633608198,197198, RC,0,39.9586186,-88.445067899,0,0.0,0.0,0.0,0.0,0.0,0.0086448994,0.0,0.0,0.0,0.0,0.0,0.0,0.0,1600,1500,0.0,0.0,40.0483793333,-88.23310933329999,0.0,0.0,0.0,0.0,0.0,0.0,0.0,0.0,0.0,0.0,0.0,0,0.2007319927,0.0,0.0577552728,-0.0750450715,90.0,60.0,60.0,90.20902252200001,119.939163208,120.76677703860001,50.8259963989,14.5534696579,3.2899999619,0,2,25,1,341,4101
60,1530633608249,197249, RC,0,39.9586186,-88.445067899,0,0.0,0.0,0.0,0.0,0.0,0.0018393397,0.0,0.0,0.0,0.0,0.0,0.0,0.0,1600,1500,0.0,0.0,40.0483793333,-88.23310933329999,0.0,0.0,0.0,0.0,0.0,0.0,0.0,0.0,0.0,0.0,0.0,0,0.2007319927,0.0,0.1083371192,-0.1046584398,90.0,60.0,60.0,90.2726821899,119.4935302734,121.0850753784,50.8259963989,14.5534696579,3.2899999619,0,2,25,1,354,4103
61,1530633608300,197300, RC,0,39.9586186,-88.445067899,0,0.0,0.0,0.0,0.0,0.0,0.0059778541,0.0,0.0,0.0,0.0,0.0,0.0,0.0,1600,1500,0.0,0.0,40.048379,-88.2331105,0.0,0.0,0.0,0.0,0.0,0.0,0.0,0.0,0.0,0.0,0.0,0,0.2007319927,0.0,0.1484347284,-0.1364790201,90.0,60.0,60.0,90.5909881592,118.411277771,122.29466247559999,50.8259963989,14.5534696579,3.2899999619,0,2,25,1,362,4104
62,1530633608350,197350, RC,0,39.9586186,-88.445067899,0,0.0,0.0,0.0,0.0,0.0,0.0006437674,0.0,0.0,0.0,0.0,0.0,0.0,0.0,1600,1500,0.0,0.0,40.048379,-88.2331105,0.0,0.0,0.0,0.0,0.0,0.0,0.0,0.0,0.0,0.0,0.0,0,0.2007319927,0.0,0.1736336946,-0.1723461598,90.0,60.0,60.0,91.29127502440001,118.72959136959999,122.5493011475,50.8259963989,14.5534696579,3.2899999619,0,2,25,1,334,4106
63,1530633608401,197401, RC,0,39.9586186,-88.445067899,0,0.0,0.0,0.0,0.0,0.0,0.0032188445,0.0,0.0,0.0,0.0,0.0,0.0,0.0,1557,1500,0.0,0.0,40.048379,-88.2331105,0.0,0.0,0.0,0.0,0.0,0.0,0.0,0.0,0.0,0.0,0.0,0,0.1144729853,0.0,0.1797035187,-0.1861412078,90.0,60.0,60.0,90.20902252200001,120.83042907709999,121.7217025757,50.8259963989,14.5534696579,3.2899999619,0,2,25,1,286,4107
64,1530633608452,197452, RC,0,39.9586186,-88.445067899,0,0.0,0.0,0.0,0.0,0.0,0.0076332614,0.0,0.0,0.0,0.0,0.0,0.0,0.0,1557,1500,0.0,0.0,40.048379,-88.2331105,0.0,0.0,0.0,0.0,0.0,0.0,0.0,0.0,0.0,0.0,0.0,0,0.1144729853,0.0,0.1732658148,-0.1885323375,90.0,60.0,60.0,90.145362854,120.2574768066,121.84902954100001,50.8259963989,14.5534696579,3.2899999619,0,2,25,1,331,4109
65,1530633608502,197502, RC,0,39.9586186,-88.445067899,0,0.0,0.0,0.0,0.0,0.0,0.0006437674,0.0,0.0,0.0,0.0,0.0,0.0,0.0,1522,1500,0.0,0.0,40.048379,-88.2331105,0.0,0.0,0.0,0.0,0.0,0.0,0.0,0.0,0.0,0.0,0.0,0,0.0446900129,0.0,0.1736336946,-0.1723461598,90.0,60.0,60.0,89.7633895874,120.00283050540001,120.2574768066,50.2870025635,14.5394926071,27.489997863800003,0,2,25,1,372,4110
66,1530633608553,197553, RC,0,39.9586186,-88.445067899,0,0.0,0.0,0.0,0.0,0.0,0.0090127662,0.0,0.0,0.0,0.0,0.0,0.0,0.0,1522,1500,0.0,0.0,40.048379,-88.2331105,0.0,0.0,0.0,0.0,0.0,0.0,0.0,0.0,0.0,0.0,0.0,0,0.0446900129,0.0,0.1427327842,-0.1607583165,90.0,60.0,60.0,90.01803588870001,120.19381713870001,119.3662033081,50.2870025635,14.5394926071,27.489997863800003,0,2,25,1,315,4112
67,1530633608604,197604, RC,0,39.9586186,-88.445067899,0,0.0,0.0,0.0,0.0,0.0,0.0021152422,0.0,0.0,0.0,0.0,0.0,0.0,0.0,1478,1500,0.0,0.0,40.048379,-88.2331105,0.0,0.0,0.0,0.0,0.0,0.0,0.0,0.0,0.0,0.0,0.0,0,-0.0426130295,0.0,0.1324324757,-0.1366629601,90.0,60.0,60.0,90.145362854,120.4484634399,117.5200195312,50.2870025635,14.5394926071,27.489997863800003,0,2,25,1,275,4113
68,1530633608654,197654, RC,0,39.9586186,-88.445067899,0,0.0,0.0,0.0,0.0,0.0,0.0112199746,0.0,0.0,0.0,0.0,0.0,0.0,0.0,1478,1500,0.0,0.0,40.048379,-88.2331105,0.0,0.0,0.0,0.0,0.0,0.0,0.0,0.0,0.0,0.0,0.0,0,-0.0426130295,0.0,0.0936224014,-0.1160623506,90.0,60.0,60.0,89.8907089233,120.83042907709999,116.9470443726,50.2870025635,14.5394926071,27.489997863800003,0,2,25,1,262,4115
69,1530633608705,197705, RC,0,39.9586186,-88.445067899,0,0.0,0.0,0.0,0.0,0.0,0.0074493252,0.0,0.0,0.0,0.0,0.0,0.0,0.0,1426,1500,0.0,0.0,40.048379,-88.2331105,0.0,0.0,0.0,0.0,0.0,0.0,0.0,0.0,0.0,0.0,0.0,0,-0.1473010182,0.0,0.0697109848,-0.08460963519999999,90.0,60.0,60.0,90.145362854,121.0850753784,117.0107192993,50.2870025635,14.5394926071,27.489997863800003,0,2,25,1,325,4116
70,1530633608755,197755, RC,0,39.9586186,-88.445067899,0,0.0,0.0,0.0,0.0,0.0,0.0089207981,0.0,0.0,0.0,0.0,0.0,0.0,0.0,1426,1500,0.0,0.0,40.048379,-88.2331105,0.0,0.0,0.0,0.0,0.0,0.0,0.0,0.0,0.0,0.0,0.0,0,-0.1473010182,0.0,0.0114039071,-0.0292455032,90.0,60.0,60.0,90.9729614258,120.6394424438,120.00283050540001,50.2870025635,14.5394926071,27.489997863800003,0,2,25,1,346,4118
71,1530633608806,197806, RC,0,39.9586186,-88.445067899,0,0.0,0.0,0.0,0.0,0.0,0.0004598349,0.0,0.0,0.0,0.0,0.0,0.0,0.0,1377,1500,0.0,0.0,40.048379,-88.2331105,0.0,0.0,0.0,0.0,0.0,0.0,0.0,0.0,0.0,0.0,0.0,0,-0.24564099309999998,0.0,-0.0193130691,0.0183933992,90.0,60.0,60.0,91.73690795899999,120.83042907709999,120.2574768066,50.2870025635,14.5394926071,27.489997863800003,0,2,25,1,325,4119
72,1530633608856,197856, RC,0,39.9586186,-88.445067899,0,0.0,0.0,0.0,0.0,0.0,0.0057019517,0.0,0.0,0.0,0.0,0.0,0.0,0.0,1377,1500,0.0,0.0,40.048379,-88.2331105,0.0,0.0,0.0,0.0,0.0,0.0,0.0,0.0,0.0,0.0,0.0,0,-0.24564099309999998,0.0,-0.0803791583,0.09178306160000001,90.0,60.0,60.0,90.4636688232,119.87550354,120.76677703860001,50.2870025635,14.5394926071,27.489997863800003,0,2,25,1,361,4121
73,1530633608907,197907, RC,0,39.9586186,-88.445067899,0,0.0,0.0,0.0,0.0,0.0,0.0048742518,0.0,0.0,0.0,0.0,0.0,0.0,0.0,1357,1500,0.0,0.0,40.048379,-88.2331105,0.0,0.0,0.0,0.0,0.0,0.0,0.0,0.0,0.0,0.0,0.0,0,-0.2847260237,0.0,-0.1230518371,0.1328003407,90.0,60.0,60.0,89.3177566528,119.42987060549999,121.2124023438,50.2870025635,14.5394926071,27.489997863800003,0,2,25,1,336,4122
74,1530633608958,197958, RC,0,39.9586186,-88.445067899,0,0.0,0.0,0.0,0.0,0.0,0.0127834156,0.0,0.0,0.0,0.0,0.0,0.0,0.0,1357,1500,0.0,0.0,40.048379,-88.2331105,0.0,0.0,0.0,0.0,0.0,0.0,0.0,0.0,0.0,0.0,0.0,0,-0.2847260237,0.0,-0.1548724174,0.1804392487,90.0,60.0,60.0,91.2276153564,120.32112884520001,120.0664901733,50.2870025635,14.5394926071,27.489997863800003,0,2,25,1,340,4124
75,1530633609008,198008, RC,0,39.9586186,-88.445067899,0,0.0,0.0,0.0,0.0,0.0,0.0085529387,0.0,0.0,0.0,0.0,0.0,0.0,0.0,1339,1500,0.0,0.0,40.048379,-88.2331105,0.0,0.0,0.0,0.0,0.0,0.0,0.0,0.0,0.0,0.0,0.0,0,-0.3217689991,0.0,-0.17896775899999998,0.1960736364,90.0,60.0,60.0,89.63606262209998,120.9577560425,119.81184387209998,50.2870025635,14.5394926071,27.489997863800003,0,2,25,1,356,4125
76,1530633609059,198059, RC,0,39.9586186,-88.445067899,0,0.0,0.0,0.0,0.0,0.0,0.0077252239000000006,0.0,0.0,0.0,0.0,0.0,0.0,0.0,1339,1500,0.0,0.0,40.048379,-88.2331105,0.0,0.0,0.0,0.0,0.0,0.0,0.0,0.0,0.0,0.0,0.0,0,-0.3217689991,0.0,-0.22256012260000002,0.2071096748,90.0,60.0,60.0,89.9543762207,121.0214157104,119.5571899414,50.2870025635,14.5394926071,27.489997863800003,0,2,25,1,391,4127
77,1530633609109,198109, RC,0,39.9586186,-88.445067899,0,0.0,0.0,0.0,0.0,0.0,0.0015634298000000001,0.0,0.0,0.0,0.0,0.0,0.0,0.0,1327,1500,0.0,0.0,40.048379,-88.2331105,0.0,0.0,0.0,0.0,0.0,0.0,0.0,0.0,0.0,0.0,0.0,0,-0.3445990086,0.0,-0.2483108938,0.2514377534,90.0,60.0,60.0,90.40000915530001,120.7031021118,119.87550354,50.2870025635,14.5394926071,27.489997863800003,0,2,25,1,430,4128
78,1530633609160,198160, RC,0,39.9586186,-88.445067899,0,0.0,0.0,0.0,0.0,0.0,0.013611123000000001,0.0,0.0,0.0,0.0,0.0,0.0,0.0,1327,1500,0.0,0.0,40.048379,-88.2331105,0.0,0.0,0.0,0.0,0.0,0.0,0.0,0.0,0.0,0.0,0.0,0,-0.3445990086,0.0,-0.239849925,0.267072171,90.0,60.0,60.0,89.7633895874,121.2760620117,119.4935302734,50.2870025635,14.5394926071,27.489997863800003,0,2,25,1,417,4130
79,1530633609211,198211, RC,0,39.9586186,-88.445067899,0,0.0,0.0,0.0,0.0,0.0,0.020324707,0.0,0.0,0.0,0.0,0.0,0.0,0.0,1317,1500,0.0,0.0,40.048379,-88.2331105,0.0,0.0,0.0,0.0,0.0,0.0,0.0,0.0,0.0,0.0,0.0,0,-0.36552399399999996,0.0,-0.2389302552,0.2795796692,90.0,60.0,60.0,89.3814163208,120.76677703860001,119.1752166748,50.2870025635,14.5394926071,27.489997863800003,0,2,25,1,410,4131
80,1530633609261,198261, RC,0,39.9586186,-88.445067899,0,0.0,0.0,0.0,0.0,0.0,0.0248310864,0.0,0.0,0.0,0.0,0.0,0.0,0.0,1317,1500,0.0,0.0,40.048379,-88.2331105,0.0,0.0,0.0,0.0,0.0,0.0,0.0,0.0,0.0,0.0,0.0,0,-0.36552399399999996,0.0,-0.2615541518,0.3112163246,90.0,60.0,60.0,90.01803588870001,120.57579040530001,119.1115570068,50.2870025635,14.5394926071,27.489997863800003,0,2,25,1,307,4133
81,1530633609312,198312, RC,0,39.9586186,-88.445067899,0,0.0,0.0,0.0,0.0,0.0,0.051593489900000004,0.0,0.0,0.0,0.0,0.0,0.0,0.0,1311,1500,0.0,0.0,40.0483783333,-88.2331108333,0.0,0.0,0.0,0.0,0.0,0.0,0.0,0.0,0.0,0.0,0.0,0,-0.3767180443,0.0,-0.2431607395,0.3463477194,90.0,60.0,60.0,88.93578338620001,121.2760620117,118.4749450684,50.2870025635,14.5394926071,27.489997863800003,0,2,25,1,404,4135
82,1530633609362,198362, RC,0,39.9586186,-88.445067899,0,0.0,0.0,0.0,0.0,0.0,0.0598705113,0.0,0.0,0.0,0.0,0.0,0.0,0.0,1311,1500,0.0,0.0,40.0483783333,-88.2331108333,0.0,0.0,0.0,0.0,0.0,0.0,0.0,0.0,0.0,0.0,0.0,0,-0.3767180443,0.0,-0.24647155399999998,0.36621257659999995,90.0,60.0,60.0,89.1904296875,120.19381713870001,119.3662033081,50.2870025635,14.5394926071,27.489997863800003,0,2,25,1,313,4136
83,1530633609413,198413, RC,0,39.9586186,-88.445067899,0,0.0,0.0,0.0,0.0,0.0,0.0597785413,0.0,0.0,0.0,0.0,0.0,0.0,0.0,1305,1500,0.0,0.0,40.0483783333,-88.2331108333,0.0,0.0,0.0,0.0,0.0,0.0,0.0,0.0,0.0,0.0,0.0,0,-0.3887499571,0.0,-0.2703829706,0.3899400532,90.0,60.0,60.0,90.145362854,118.9205703735,119.81184387209998,50.2870025635,14.5394926071,27.489997863800003,0,2,25,1,300,4138
84,1530633609464,198464, RC,0,39.9586186,-88.445067899,0,0.0,0.0,0.0,0.0,0.0,0.0420289189,0.0,0.0,0.0,0.0,0.0,0.0,0.0,1305,1500,0.0,0.0,40.0483783333,-88.2331108333,0.0,0.0,0.0,0.0,0.0,0.0,0.0,0.0,0.0,0.0,0.0,0,-0.3887499571,0.0,-0.3053304255,0.38938826320000003,90.0,60.0,60.0,90.145362854,119.0479049683,120.2574768066,50.2870025635,14.5394926071,27.489997863800003,0,2,25,1,331,4139
85,1530633609514,198514, RC,0,39.9586186,-88.445067899,0,0.0,0.0,0.0,0.0,0.0,0.0373386145,0.0,0.0,0.0,0.0,0.0,0.0,0.0,1300,1500,0.0,0.0,40.0483783333,-88.2331108333,0.0,0.0,0.0,0.0,0.0,0.0,0.0,0.0,0.0,0.0,0.0,0,-0.3998849988,0.0,-0.3338401914,0.4085174203,90.0,60.0,60.0,90.0816955566,119.4935302734,120.7031021118,50.2870025635,14.4794635773,43.2200012207,0,2,25,1,275,4141
86,1530633609565,198565, RC,0,39.9586186,-88.445067899,0,0.0,0.0,0.0,0.0,0.0,0.0293374956,0.0,0.0,0.0,0.0,0.0,0.0,0.0,1300,1500,0.0,0.0,40.0483783333,-88.2331108333,0.0,0.0,0.0,0.0,0.0,0.0,0.0,0.0,0.0,0.0,0.0,0,-0.3998849988,0.0,-0.35793551799999995,0.41661050920000003,90.0,60.0,60.0,89.6997299194,120.19381713870001,120.4484634399,50.2870025635,14.4794635773,43.2200012207,0,2,25,1,297,4142
87,1530633609615,198615, RC,0,39.9586186,-88.445067899,0,0.0,0.0,0.0,0.0,0.0,0.031176805499999998,0.0,0.0,0.0,0.0,0.0,0.0,0.0,1288,1500,0.0,0.0,40.0483783333,-88.2331108333,0.0,0.0,0.0,0.0,0.0,0.0,0.0,0.0,0.0,0.0,0.0,0,-0.4225980043,0.0,-0.3211487532,0.3835023642,90.0,60.0,60.0,89.25408935549999,120.9577560425,119.87550354,50.2870025635,14.4794635773,43.2200012207,0,2,25,1,319,4144
88,1530633609666,198666, RC,0,39.9586186,-88.445067899,0,0.0,0.0,0.0,0.0,0.0,0.0287856758,0.0,0.0,0.0,0.0,0.0,0.0,0.0,1288,1500,0.0,0.0,40.0483783333,-88.2331108333,0.0,0.0,0.0,0.0,0.0,0.0,0.0,0.0,0.0,0.0,0.0,0,-0.4225980043,0.0,-0.2999963462,0.35756769780000003,90.0,60.0,60.0,88.55381011959999,121.0214157104,119.42987060549999,50.2870025635,14.4794635773,43.2200012207,0,2,25,1,310,4146
89,1530633609717,198717, RC,0,39.9586186,-88.445067899,0,0.0,0.0,0.0,0.0,0.0,0.0069895089,0.0,0.0,0.0,0.0,0.0,0.0,0.0,1282,1500,0.0,0.0,40.0483783333,-88.2331108333,0.0,0.0,0.0,0.0,0.0,0.0,0.0,0.0,0.0,0.0,0.0,0,-0.4357349873,0.0,-0.3141592443,0.328138262,90.0,60.0,60.0,90.2726821899,120.38480377200001,119.2388916016,50.2870025635,14.4794635773,43.2200012207,0,2,25,1,295,4147
90,1530633609767,198767, RC,0,39.9586186,-88.445067899,0,0.0,0.0,0.0,0.0,0.0,0.0064376891,0.0,0.0,0.0,0.0,0.0,0.0,0.0,1282,1500,0.0,0.0,40.0483783333,-88.2331108333,0.0,0.0,0.0,0.0,0.0,0.0,0.0,0.0,0.0,0.0,0.0,0,-0.4357349873,0.0,-0.3255631626,0.3126877844,90.0,60.0,60.0,91.29127502440001,120.0664901733,119.2388916016,50.2870025635,14.4794635773,43.2200012207,0,2,25,1,267,4150
91,1530633609818,198818, RC,0,39.9586186,-88.445067899,0,0.0,0.0,0.0,0.0,0.0,0.027222231,0.0,0.0,0.0,0.0,0.0,0.0,0.0,1276,1500,0.0,0.0,40.0483783333,-88.2331108333,0.0,0.0,0.0,0.0,0.0,0.0,0.0,0.0,0.0,0.0,0.0,0,-0.4479030371,0.0,-0.3586712778,0.3042268157,90.0,60.0,60.0,90.9729614258,119.6845169067,119.62085723879999,50.2870025635,14.4794635773,43.2200012207,0,2,25,1,285,4152
92,1530633609868,198868, RC,0,39.9586186,-88.445067899,0,0.0,0.0,0.0,0.0,0.0,0.0501220077,0.0,0.0,0.0,0.0,0.0,0.0,0.0,1276,1500,0.0,0.0,40.0483783333,-88.2331108333,0.0,0.0,0.0,0.0,0.0,0.0,0.0,0.0,0.0,0.0,0.0,0,-0.4479030371,0.0,-0.38552564380000004,0.2852816284,90.0,60.0,60.0,90.7819747925,119.3662033081,119.939163208,50.2870025635,14.4794635773,43.2200012207,0,2,25,1,276,4154
93,1530633609919,198919, RC,0,39.9586186,-88.445067899,0,0.0,0.0,0.0,0.0,0.0,0.0368787646,0.0,0.0,0.0,0.0,0.0,0.0,0.0,1270,1500,0.0,0.0,40.0483783333,-88.2331108333,0.0,0.0,0.0,0.0,0.0,0.0,0.0,0.0,0.0,0.0,0.0,0,-0.4588329792,0.0,-0.3680519164,0.2985248864,90.0,60.0,60.0,90.4636688232,119.1752166748,120.0664901733,50.2870025635,14.4794635773,43.2200012207,0,2,25,1,270,4157
94,1530633609970,198970, RC,0,39.9586186,-88.445067899,0,0.0,0.0,0.0,0.0,0.0,0.04708710309999999,0.0,0.0,0.0,0.0,0.0,0.0,0.0,1270,1500,0.0,0.0,40.0483783333,-88.2331108333,0.0,0.0,0.0,0.0,0.0,0.0,0.0,0.0,0.0,0.0,0.0,0,-0.4588329792,0.0,-0.3833184242,0.289144218,90.0,60.0,60.0,90.40000915530001,119.1115570068,120.38480377200001,50.2870025635,14.4794635773,43.2200012207,0,2,25,1,261,4159
95,1530633610020,199020, RC,0,39.9586186,-88.445067899,0,0.0,0.0,0.0,0.0,0.0,0.0610660762,0.0,0.0,0.0,0.0,0.0,0.0,0.0,1259,1500,0.0,0.0,40.0483783333,-88.2331108333,0.0,0.0,0.0,0.0,0.0,0.0,0.0,0.0,0.0,0.0,0.0,0,-0.4816119671,0.0,-0.38460597399999996,0.2624738216,90.0,60.0,60.0,90.3363494873,119.5571899414,120.6394424438,50.2870025635,14.4794635773,43.2200012207,0,2,25,1,257,4161
96,1530633610071,199071, RC,0,39.9586186,-88.445067899,0,0.0,0.0,0.0,0.0,0.0,0.059502646299999996,0.0,0.0,0.0,0.0,0.0,0.0,0.0,1259,1500,0.0,0.0,40.0483783333,-88.2331108333,0.0,0.0,0.0,0.0,0.0,0.0,0.0,0.0,0.0,0.0,0.0,0,-0.4816119671,0.0,-0.3831345141,0.2641292214,90.0,60.0,60.0,90.01803588870001,119.5571899414,120.7031021118,50.2870025635,14.4794635773,43.2200012207,0,2,25,1,240,4162
97,1530633610122,199122, RC,0,39.9586186,-88.445067899,0,0.0,0.0,0.0,0.0,0.0,0.0657563955,0.0,0.0,0.0,0.0,0.0,0.0,0.0,1255,1500,0.0,0.0,40.0483783333,-88.2331108333,0.0,0.0,0.0,0.0,0.0,0.0,0.0,0.0,0.0,0.0,0.0,0,-0.4894360304,0.0,-0.4219445586,0.2904317677,90.0,60.0,60.0,89.6997299194,119.62085723879999,120.6394424438,50.2870025635,14.4794635773,43.2200012207,0,2,25,1,302,4164
98,1530633610172,199172, RC,0,39.9586186,-88.445067899,0,0.0,0.0,0.0,0.0,0.0,0.09003569189999999,0.0,0.0,0.0,0.0,0.0,0.0,0.0,1255,1500,0.0,0.0,40.0483783333,-88.2331108333,0.0,0.0,0.0,0.0,0.0,0.0,0.0,0.0,0.0,0.0,0.0,0,-0.4894360304,0.0,-0.4684798717,0.288408488,90.0,60.0,60.0,90.0816955566,120.32112884520001,120.13014221190001,50.2870025635,14.4794635773,43.2200012207,0,2,25,1,254,4165
99,1530633610223,199223, RC,0,39.9586186,-88.445067899,0,0.0,0.0,0.0,0.0,0.0,0.0510416925,0.0,0.0,0.0,0.0,0.0,0.0,0.0,1500,1500,0.0,0.0,40.0483783333,-88.2331108333,0.0,0.0,0.0,0.0,0.0,0.0,0.0,0.0,0.0,0.0,0.0,0,0.0,0.0,-0.41789802909999996,0.3158146441,90.0,60.0,60.0,89.6997299194,120.0664901733,120.13014221190001,50.2870025635,14.4794635773,43.2200012207,0,2,25,1,226,4167
100,1530633610273,199273, RC,0,39.9586186,-88.445067899,0,0.0,0.0,0.0,0.0,0.0,0.038074329500000004,0.0,0.0,0.0,0.0,0.0,0.0,0.0,1500,1500,0.0,0.0,40.0483783333,-88.2331108333,0.0,0.0,0.0,0.0,0.0,0.0,0.0,0.0,0.0,0.0,0.0,0,0.0,0.0,-0.3908597231,0.3147110641,90.0,60.0,60.0,89.44507598879999,120.6394424438,119.4935302734,50.2870025635,14.4794635773,43.2200012207,0,2,25,1,258,4169
101,1530633610324,199324, RC,0,39.9586186,-88.445067899,0,0.0,0.0,0.0,0.0,0.0,0.0174737275,0.0,0.0,0.0,0.0,0.0,0.0,0.0,1500,1500,0.0,0.0,40.0483786667,-88.2331115,0.0,0.0,0.0,0.0,0.0,0.0,0.0,0.0,0.0,0.0,0.0,0,0.0,0.0,-0.322620213,0.2876727581,90.0,60.0,60.0,88.6174697876,120.7031021118,118.856918335,50.2870025635,14.4794635773,43.2200012207,0,2,25,1,246,4170
102,1530633610375,199375, RC,0,39.9586186,-88.445067899,0,0.0,0.0,0.0,0.0,0.0,0.010668173400000001,0.0,0.0,0.0,0.0,0.0,0.0,0.0,1500,1500,0.0,0.0,40.0483786667,-88.2331115,0.0,0.0,0.0,0.0,0.0,0.0,0.0,0.0,0.0,0.0,0.0,0,0.0,0.0,-0.23782666030000002,0.2164903134,90.0,60.0,60.0,88.8721160889,120.0664901733,118.7932434082,50.2870025635,14.4794635773,43.2200012207,0,2,25,1,225,4172
103,1530633610425,199425, RC,0,39.9586186,-88.445067899,0,0.0,0.0,0.0,0.0,0.0,0.0068055615000000005,0.0,0.0,0.0,0.0,0.0,0.0,0.0,1500,1584,0.0,0.0,40.0483786667,-88.2331115,0.0,0.0,0.0,0.0,0.0,0.0,0.0,0.0,0.0,0.0,0.0,0,0.0,0.1693810225,-0.1868769377,0.1732658148,90.0,60.0,60.0,89.9543762207,120.0664901733,119.939163208,50.2870025635,14.4794635773,43.2200012207,0,2,25,1,244,4173
104,1530633610476,199476, RC,0,39.9586186,-88.445067899,0,0.0,0.0,0.0,0.0,0.0,0.0173817575,0.0,0.0,0.0,0.0,0.0,0.0,0.0,1500,1635,0.0,0.0,40.0483786667,-88.2331115,0.0,0.0,0.0,0.0,0.0,0.0,0.0,0.0,0.0,0.0,0.0,0,0.0,0.2704919577,-0.1180856228,0.1528491378,90.0,60.0,60.0,90.01803588870001,120.13014221190001,119.939163208,50.2870025635,14.4686985016,20.4500007629,0,2,25,1,260,4175
105,1530633610526,199526, RC,0,39.9586186,-88.445067899,0,0.0,0.0,0.0,0.0,0.0,0.0571115091,0.0,0.0,0.0,0.0,0.0,0.0,0.0,1500,1635,0.0,0.0,40.0483786667,-88.2331115,0.0,0.0,0.0,0.0,0.0,0.0,0.0,0.0,0.0,0.0,0.0,0,0.0,0.2704919577,-0.039177943,0.1534009576,90.0,60.0,60.0,90.01803588870001,120.32112884520001,119.87550354,50.2870025635,14.4686985016,20.4500007629,0,2,25,1,270,4177
106,1530633610577,199577, RC,0,39.9586186,-88.445067899,0,0.0,0.0,0.0,0.0,0.0,0.1115559638,0.0,0.0,0.0,0.0,0.0,0.0,0.0,1500,1667,0.0,0.0,40.0483786667,-88.2331115,0.0,0.0,0.0,0.0,0.0,0.0,0.0,0.0,0.0,0.0,0.0,0,0.0,0.3343200684,0.0456156284,0.1774962991,90.0,60.0,60.0,90.01803588870001,120.83042907709999,119.4935302734,50.2870025635,14.4686985016,20.4500007629,0,2,25,1,220,4178
107,1530633610627,199627, RC,0,39.9586186,-88.445067899,0,0.0,0.0,0.0,0.0,0.0,0.16397716099999998,0.0,0.0,0.0,0.0,0.0,0.0,0.0,1500,1667,0.0,0.0,40.0483786667,-88.2331115,0.0,0.0,0.0,0.0,0.0,0.0,0.0,0.0,0.0,0.0,0.0,0,0.0,0.3343200684,0.11219973119999999,0.2157545835,90.0,60.0,60.0,89.9543762207,120.76677703860001,118.7932434082,50.2870025635,14.4686985016,20.4500007629,0,2,25,1,257,4180
108,1530633610678,199678, RC,0,39.9586186,-88.445067899,0,0.0,0.0,0.0,0.0,0.0,0.20379886030000002,0.0,0.0,0.0,0.0,0.0,0.0,0.0,1500,1679,0.0,0.0,40.0483786667,-88.2331115,0.0,0.0,0.0,0.0,0.0,0.0,0.0,0.0,0.0,0.0,0.0,0,0.0,0.3586070538,0.1776802391,0.2299174815,90.0,60.0,60.0,89.63606262209998,120.9577560425,118.15663146969999,50.2870025635,14.4686985016,20.4500007629,0,2,25,1,229,4181
109,1530633610729,199729, RC,0,39.9586186,-88.445067899,0,0.0,0.0,0.0,0.0,0.0,0.2562200427,0.0,0.0,0.0,0.0,0.0,0.0,0.0,1500,1679,0.0,0.0,40.0483786667,-88.2331115,0.0,0.0,0.0,0.0,0.0,0.0,0.0,0.0,0.0,0.0,0.0,0,0.0,0.3586070538,0.2354355007,0.2770045996,90.0,60.0,60.0,90.01803588870001,121.2760620117,118.34761810299999,50.2870025635,14.4686985016,20.4500007629,0,2,25,1,222,4183
110,1530633610779,199779, RC,0,39.9586186,-88.445067899,0,0.0,0.0,0.0,0.0,0.0,0.2824306488,0.0,0.0,0.0,0.0,0.0,0.0,0.0,1500,1685,0.0,0.0,40.0483786667,-88.2331115,0.0,0.0,0.0,0.0,0.0,0.0,0.0,0.0,0.0,0.0,0.0,0,0.0,0.37018001079999996,0.2687275708,0.2961337268,90.0,60.0,60.0,91.67324829100001,118.9842300415,119.42987060549999,50.2870025635,14.4686985016,20.4500007629,0,2,25,1,224,4184
111,1530633610830,199830, RC,0,39.9586186,-88.445067899,0,0.0,0.0,0.0,0.0,0.0,0.33006954190000004,0.0,0.0,0.0,0.0,0.0,0.0,0.0,1500,1685,0.0,0.0,40.0483786667,-88.2331115,0.0,0.0,0.0,0.0,0.0,0.0,0.0,0.0,0.0,0.0,0.0,0,0.0,0.37018001079999996,0.3253792226,0.3347598612,90.0,60.0,60.0,91.9915542603,118.6659317017,122.3583145142,50.2870025635,14.4686985016,20.4500007629,0,2,25,1,234,4186
112,1530633610880,199880, RC,0,39.9586186,-88.445067899,0,0.0,0.0,0.0,0.0,0.0,0.3676840663,0.0,0.0,0.0,0.0,0.0,0.0,0.0,1500,1690,0.0,0.0,40.0483786667,-88.2331115,0.0,0.0,0.0,0.0,0.0,0.0,0.0,0.0,0.0,0.0,0.0,0,0.0,0.3806350231,0.36970731619999997,0.36566078659999995,90.0,60.0,60.0,93.1374740601,119.4935302734,123.1222610474,50.2870025635,14.4686985016,20.4500007629,0,2,25,1,266,4188
113,1530633610931,199931, RC,0,39.9586186,-88.445067899,0,0.0,0.0,0.0,0.0,0.0,0.39325088259999996,0.0,0.0,0.0,0.0,0.0,0.0,0.0,1500,1690,0.0,0.0,40.0483786667,-88.2331115,0.0,0.0,0.0,0.0,0.0,0.0,0.0,0.0,0.0,0.0,0.0,0,0.0,0.3806350231,0.3956420124,0.3908597231,90.0,60.0,60.0,93.20113372799999,119.4935302734,123.88619995120001,50.2870025635,14.4686985016,20.4500007629,0,2,25,1,305,4189
114,1530633610982,199982, RC,0,39.9586186,-88.445067899,0,0.0,0.0,0.0,0.0,0.0,0.42497947810000003,0.0,0.0,0.0,0.0,0.0,0.0,0.0,1500,1703,0.0,0.0,40.0483786667,-88.2331115,0.0,0.0,0.0,0.0,0.0,0.0,0.0,0.0,0.0,0.0,0.0,0,0.0,0.4072070122,0.42396783829999996,0.42599111799999995,90.0,60.0,60.0,89.0631027222,119.2388916016,120.4484634399,50.2870025635,14.4686985016,20.4500007629,0,2,25,1,338,4191
115,1530633611032,200032, RC,0,39.9586186,-88.445067899,0,0.0,0.0,0.0,0.0,0.0,0.43417620659999995,0.0,0.0,0.0,0.0,0.0,0.0,0.0,1500,1703,0.0,0.0,40.0483786667,-88.2331115,0.0,0.0,0.0,0.0,0.0,0.0,0.0,0.0,0.0,0.0,0.0,0,0.0,0.4072070122,0.4377629161,0.4305894673,90.0,60.0,60.0,88.36282348629999,119.3025436401,120.38480377200001,50.2870025635,14.4686985016,20.4500007629,0,2,25,1,335,4192
116,1530633611083,200083, RC,0,39.9586186,-88.445067899,0,0.0,0.0,0.0,0.0,0.0,0.44603994490000004,0.0,0.0,0.0,0.0,0.0,0.0,0.0,1500,1709,0.0,0.0,40.0483786667,-88.2331115,0.0,0.0,0.0,0.0,0.0,0.0,0.0,0.0,0.0,0.0,0.0,0,0.0,0.41807699200000004,0.4394183159,0.4526615739,90.0,60.0,60.0,88.681137085,119.42987060549999,120.32112884520001,50.2870025635,14.4686985016,20.4500007629,0,2,25,1,312,4194
117,1530633611133,200133, RC,0,39.9586186,-88.445067899,0,0.0,0.0,0.0,0.0,0.0,0.4507302642,0.0,0.0,0.0,0.0,0.0,0.0,0.0,1500,1709,0.0,0.0,40.0483786667,-88.2331115,0.0,0.0,0.0,0.0,0.0,0.0,0.0,0.0,0.0,0.0,0.0,0,0.0,0.41807699200000004,0.4510061443,0.45045435429999997,90.0,60.0,60.0,89.5087432861,120.19381713870001,119.81184387209998,50.2870025635,14.4686985016,20.4500007629,0,2,25,1,376,4196
118,1530633611184,200184, RC,0,39.9586186,-88.445067899,0,0.0,0.0,0.0,0.0,0.0,0.45045435429999997,0.0,0.0,0.0,0.0,0.0,0.0,0.0,1500,1709,0.0,0.0,40.0483786667,-88.2331115,0.0,0.0,0.0,0.0,0.0,0.0,0.0,0.0,0.0,0.0,0.0,0,0.0,0.41807699200000004,0.460202843,0.4407058358,90.0,60.0,60.0,91.6095809937,120.13014221190001,119.3662033081,50.2870025635,14.4686985016,20.4500007629,0,2,25,1,341,4197
119,1530633611235,200235, RC,0,39.9586186,-88.445067899,0,0.0,0.0,0.0,0.0,0.0,0.46424940229999995,0.0,0.0,0.0,0.0,0.0,0.0,0.0,1500,1709,0.0,0.0,40.0483786667,-88.2331115,0.0,0.0,0.0,0.0,0.0,0.0,0.0,0.0,0.0,0.0,0.0,0,0.0,0.41807699200000004,0.4738139808,0.4546848238,90.0,60.0,60.0,91.8642349243,119.87550354,119.6845169067,50.2870025635,14.4686985016,20.4500007629,0,2,25,1,317,4199
120,1530633611285,200285, RC,0,39.9586186,-88.445067899,0,0.0,0.0,0.0,0.0,0.0,0.4730782211,0.0,0.0,0.0,0.0,0.0,0.0,0.0,1500,1709,0.0,0.0,40.0483786667,-88.2331115,0.0,0.0,0.0,0.0,0.0,0.0,0.0,0.0,0.0,0.0,0.0,0,0.0,0.41807699200000004,0.4900001585,0.4561562836,90.0,60.0,60.0,90.5909881592,119.6845169067,119.7481765747,50.2870025635,14.4686985016,20.4500007629,0,2,25,1,329,4200
121,1530633611336,200336, RC,0,39.9586186,-88.445067899,0,0.0,0.0,0.0,0.0,0.0,0.48595359920000003,0.0,0.0,0.0,0.0,0.0,0.0,0.0,1500,1709,0.0,0.0,40.048377333299996,-88.2331133333,0.0,0.0,0.0,0.0,0.0,0.0,0.0,0.0,0.0,0.0,0.0,0,0.0,0.41807699200000004,0.4997486472,0.4721585512,90.0,60.0,60.0,89.82704925540001,120.19381713870001,119.1115570068,50.2870025635,14.4686985016,20.4500007629,0,2,25,1,377,4202
122,1530633611386,200386, RC,0,39.9586186,-88.445067899,0,0.0,0.0,0.0,0.0,0.0,0.4840223193,0.0,0.0,0.0,0.0,0.0,0.0,0.0,1500,1715,0.0,0.0,40.048377333299996,-88.2331133333,0.0,0.0,0.0,0.0,0.0,0.0,0.0,0.0,0.0,0.0,0.0,0,0.0,0.43032395840000004,0.4929431081,0.4751015007,90.0,60.0,60.0,89.5724029541,121.0850753784,118.2839584351,50.2870025635,14.4686985016,20.4500007629,0,2,25,1,367,4204
123,1530633611437,200437, RC,0,39.9586186,-88.445067899,0,0.0,0.0,0.0,0.0,0.0,0.48402228950000004,0.0,0.0,0.0,0.0,0.0,0.0,0.0,1500,1715,0.0,0.0,40.048377333299996,-88.2331133333,0.0,0.0,0.0,0.0,0.0,0.0,0.0,0.0,0.0,0.0,0.0,0,0.0,0.43032395840000004,0.4813552499,0.48668932909999996,90.0,60.0,60.0,89.25408935549999,121.6580352783,117.5200195312,50.2870025635,14.4686985016,20.4500007629,0,2,25,1,371,4205
124,1530633611487,200487, RC,0,39.9586186,-88.445067899,0,0.0,0.0,0.0,0.0,0.0,0.4959779978,0.0,0.0,0.0,0.0,0.0,0.0,0.0,1500,1715,0.0,0.0,40.048377333299996,-88.2331133333,0.0,0.0,0.0,0.0,0.0,0.0,0.0,0.0,0.0,0.0,0.0,0,0.0,0.43032395840000004,0.5019558668,0.4900001585,90.0,60.0,60.0,89.63606262209998,120.57579040530001,117.77465820309999,50.2870025635,14.441340446500002,14.130001068099999,0,2,25,1,347,4207
125,1530633611538,200538, RC,0,39.9586186,-88.445067899,0,0.0,0.0,0.0,0.0,0.0,0.5032433867,0.0,0.0,0.0,0.0,0.0,0.0,0.0,1500,1715,0.0,0.0,40.048377333299996,-88.2331133333,0.0,0.0,0.0,0.0,0.0,0.0,0.0,0.0,0.0,0.0,0.0,0,0.0,0.43032395840000004,0.5238440037,0.4826427698,90.0,60.0,60.0,90.8456420898,119.3662033081,118.2839584351,50.2870025635,14.441340446500002,14.130001068099999,0,2,25,1,366,4208
126,1530633611589,200589, RC,0,39.9586186,-88.445067899,0,0.0,0.0,0.0,0.0,0.0,0.5113365054,0.0,0.0,0.0,0.0,0.0,0.0,0.0,1500,1715,0.0,0.0,40.048377333299996,-88.2331133333,0.0,0.0,0.0,0.0,0.0,0.0,0.0,0.0,0.0,0.0,0.0,0,0.0,0.43032395840000004,0.5291780829,0.4934948981,90.0,60.0,60.0,90.9729614258,118.6659317017,120.0664901733,50.2870025635,14.441340446500002,14.130001068099999,0,2,25,1,468,4210
127,1530633611639,200639, RC,0,39.9586186,-88.445067899,0,0.0,0.0,0.0,0.0,0.0,0.508577466,0.0,0.0,0.0,0.0,0.0,0.0,0.0,1500,1715,0.0,0.0,40.048377333299996,-88.2331133333,0.0,0.0,0.0,0.0,0.0,0.0,0.0,0.0,0.0,0.0,0.0,0,0.0,0.43032395840000004,0.5284423828,0.48484998939999996,90.0,60.0,60.0,91.1639480591,119.2388916016,120.38480377200001,50.2870025635,14.441340446500002,14.130001068099999,0,2,25,1,462,4212
128,1530633611690,200690, RC,0,39.9586186,-88.445067899,0,0.0,0.0,0.0,0.0,0.0,0.5102329254,0.0,0.0,0.0,0.0,0.0,0.0,0.0,1500,1721,0.0,0.0,40.048377333299996,-88.2331133333,0.0,0.0,0.0,0.0,0.0,0.0,0.0,0.0,0.0,0.0,0.0,0,0.0,0.44283199310000004,0.5236600637,0.4968057275,90.0,60.0,60.0,92.30986785889999,118.9205703735,120.76677703860001,50.2870025635,14.441340446500002,14.130001068099999,0,2,25,1,461,4213
129,1530633611740,200740, RC,0,39.9586186,-88.445067899,0,0.0,0.0,0.0,0.0,0.0,0.5037952065,0.0,0.0,0.0,0.0,0.0,0.0,0.0,1500,1721,0.0,0.0,40.048377333299996,-88.2331133333,0.0,0.0,0.0,0.0,0.0,0.0,0.0,0.0,0.0,0.0,0.0,0,0.0,0.44283199310000004,0.5324888825,0.4751015007,90.0,60.0,60.0,92.3735275269,120.00283050540001,120.76677703860001,50.2870025635,14.441340446500002,14.130001068099999,0,2,25,1,431,4215
130,1530633611791,200791, RC,0,39.9586186,-88.445067899,0,0.0,0.0,0.0,0.0,0.0,0.5284423232,0.0,0.0,0.0,0.0,0.0,0.0,0.0,1500,1721,0.0,0.0,40.048377333299996,-88.2331133333,0.0,0.0,0.0,0.0,0.0,0.0,0.0,0.0,0.0,0.0,0.0,0,0.0,0.44283199310000004,0.5556645393,0.5012201071,90.0,60.0,60.0,90.40000915530001,120.00283050540001,120.9577560425,50.2870025635,14.441340446500002,14.130001068099999,0,2,25,1,443,4216
131,1530633611842,200842, RC,0,39.9586186,-88.445067899,0,0.0,0.0,0.0,0.0,0.0,0.5331326722999999,0.0,0.0,0.0,0.0,0.0,0.0,0.0,1500,1721,0.0,0.0,40.048377333299996,-88.2331133333,0.0,0.0,0.0,0.0,0.0,0.0,0.0,0.0,0.0,0.0,0.0,0,0.0,0.44283199310000004,0.5589753985,0.5072899461,90.0,60.0,60.0,89.0631027222,119.87550354,121.0850753784,50.2870025635,14.441340446500002,14.130001068099999,0,2,25,1,489,4218
132,1530633611892,200892, RC,0,39.9586186,-88.445067899,0,0.0,0.0,0.0,0.0,0.0,0.5369032621000001,0.0,0.0,0.0,0.0,0.0,0.0,0.0,1500,1727,0.0,0.0,40.048377333299996,-88.2331133333,0.0,0.0,0.0,0.0,0.0,0.0,0.0,0.0,0.0,0.0,0.0,0,0.0,0.4549610615,0.5519858599,0.521820724,90.0,60.0,60.0,90.01803588870001,119.3662033081,121.4033889771,50.2870025635,14.441340446500002,14.130001068099999,0,2,25,1,469,4219
133,1530633611943,200943, RC,0,39.9586186,-88.445067899,0,0.0,0.0,0.0,0.0,0.0,0.5378229618,0.0,0.0,0.0,0.0,0.0,0.0,0.0,1500,1727,0.0,0.0,40.048377333299996,-88.2331133333,0.0,0.0,0.0,0.0,0.0,0.0,0.0,0.0,0.0,0.0,0.0,0,0.0,0.4549610615,0.5479393601,0.5277066231,90.0,60.0,60.0,89.7633895874,119.5571899414,121.4033889771,50.2870025635,14.441340446500002,14.130001068099999,0,2,25,1,487,4221
134,1530633611993,200993, RC,0,39.9586186,-88.445067899,0,0.0,0.0,0.0,0.0,0.0,0.5381908417,0.0,0.0,0.0,0.0,0.0,0.0,0.0,1500,1727,0.0,0.0,40.048377333299996,-88.2331133333,0.0,0.0,0.0,0.0,0.0,0.0,0.0,0.0,0.0,0.0,0.0,0,0.0,0.4549610615,0.5415017009,0.5348800421000001,90.0,60.0,60.0,90.6546554565,120.76677703860001,121.2760620117,50.2870025635,14.441340446500002,14.130001068099999,0,2,25,1,424,4223
135,1530633612044,201044, RC,0,39.9586186,-88.445067899,0,0.0,0.0,0.0,0.0,0.0,0.5235681534000001,0.0,0.0,0.0,0.0,0.0,0.0,0.0,1500,1727,0.0,0.0,40.048377333299996,-88.2331133333,0.0,0.0,0.0,0.0,0.0,0.0,0.0,0.0,0.0,0.0,0.0,0,0.0,0.4549610615,0.5249476433,0.5221886039,90.0,60.0,60.0,91.9279022217,121.7853622437,120.00283050540001,50.2870025635,14.441340446500002,14.130001068099999,0,2,25,1,461,4224
136,1530633612095,201095, RC,0,39.9586186,-88.445067899,0,0.0,0.0,0.0,0.0,0.0,0.5380988717,0.0,0.0,0.0,0.0,0.0,0.0,0.0,1500,1727,0.0,0.0,40.048377333299996,-88.2331133333,0.0,0.0,0.0,0.0,0.0,0.0,0.0,0.0,0.0,0.0,0.0,0,0.0,0.4549610615,0.5266029835,0.5495947599000001,90.0,60.0,60.0,91.4186019897,121.2760620117,119.3025436401,50.2870025635,14.441340446500002,14.130001068099999,0,2,25,1,461,4226
137,1530633612145,201145, RC,0,39.9586186,-88.445067899,0,0.0,0.0,0.0,0.0,0.0,0.5370872617,0.0,0.0,0.0,0.0,0.0,0.0,0.0,1500,1727,0.0,0.0,40.048377333299996,-88.2331133333,0.0,0.0,0.0,0.0,0.0,0.0,0.0,0.0,0.0,0.0,0.0,0,0.0,0.4549610615,0.520717144,0.5534573793,90.0,60.0,60.0,90.20902252200001,120.32112884520001,119.2388916016,50.2870025635,14.441340446500002,14.130001068099999,0,2,25,1,384,4227
138,1530633612196,201196, RC,0,39.9586186,-88.445067899,0,0.0,0.0,0.0,0.0,0.0,0.5351558924,0.0,0.0,0.0,0.0,0.0,0.0,0.0,1500,1727,0.0,0.0,40.048377333299996,-88.2331133333,0.0,0.0,0.0,0.0,0.0,0.0,0.0,0.0,0.0,0.0,0.0,0,0.0,0.4549610615,0.5267869234,0.5435249209,90.0,60.0,60.0,90.6546554565,118.9842300415,120.0664901733,50.2870025635,14.441340446500002,14.130001068099999,0,2,25,1,400,4229
139,1530633612246,201246, RC,0,39.9586186,-88.445067899,0,0.0,0.0,0.0,0.0,0.0,0.5287182331,0.0,0.0,0.0,0.0,0.0,0.0,0.0,1500,1727,0.0,0.0,40.048377333299996,-88.2331133333,0.0,0.0,0.0,0.0,0.0,0.0,0.0,0.0,0.0,0.0,0.0,0,0.0,0.4549610615,0.5221886039,0.5352479218999999,90.0,60.0,60.0,90.4636688232,118.53860473629999,120.8940887451,50.2870025635,14.441340446500002,14.130001068099999,0,2,25,1,508,4231
140,1530633612297,201297, RC,0,39.9586186,-88.445067899,0,0.0,0.0,0.0,0.0,0.0,0.521912694,0.0,0.0,0.0,0.0,0.0,0.0,0.0,1500,1727,0.0,0.0,40.0483783333,-88.2331201667,0.0,0.0,0.0,0.0,0.0,0.0,0.0,0.0,0.0,0.0,0.0,0,0.0,0.4549610615,0.5106007457,0.5332246423,90.0,60.0,60.0,89.0631027222,119.1752166748,121.1487426758,50.2870025635,14.441340446500002,14.130001068099999,0,2,25,1,480,4232
141,1530633612347,201347, RC,0,39.9586186,-88.445067899,0,0.0,0.0,0.0,0.0,0.0,0.5213608742,0.0,0.0,0.0,0.0,0.0,0.0,0.0,1500,1500,0.0,0.0,40.0483783333,-88.2331201667,0.0,0.0,0.0,0.0,0.0,0.0,0.0,0.0,0.0,0.0,0.0,0,0.0,0.0,0.5231083035,0.5196135044,90.0,60.0,60.0,88.36282348629999,119.4935302734,120.7031021118,50.2870025635,14.441340446500002,14.130001068099999,0,2,25,1,478,4234
142,1530633612398,201398, RC,0,39.9586186,-88.445067899,0,0.0,0.0,0.0,0.0,0.0,0.4704111814,0.0,0.0,0.0,0.0,0.0,0.0,0.0,1500,1500,0.0,0.0,40.0483783333,-88.2331201667,0.0,0.0,0.0,0.0,0.0,0.0,0.0,0.0,0.0,0.0,0.0,0,0.0,0.0,0.4892643988,0.4515579343,90.0,60.0,60.0,90.2726821899,120.7031021118,119.3025436401,50.2870025635,14.441340446500002,14.130001068099999,0,2,25,1,437,4235
143,1530633612449,201449, RC,0,39.9586186,-88.445067899,0,0.0,0.0,0.0,0.0,0.0,0.3613383174,0.0,0.0,0.0,0.0,0.0,0.0,0.0,1500,1500,0.0,0.0,40.0483783333,-88.2331201667,0.0,0.0,0.0,0.0,0.0,0.0,0.0,0.0,0.0,0.0,0.0,0,0.0,0.0,0.377984345,0.3446923196,90.0,60.0,60.0,90.145362854,121.467048645,117.6473312378,50.2870025635,14.441340446500002,14.130001068099999,0,2,25,1,418,4237
144,1530633612499,201499, RC,0,39.9586186,-88.445067899,0,0.0,0.0,0.0,0.0,0.0,0.3055143654,0.0,0.0,0.0,0.0,0.0,0.0,0.0,1500,1500,0.0,0.0,40.0483783333,-88.2331201667,0.0,0.0,0.0,0.0,0.0,0.0,0.0,0.0,0.0,0.0,0.0,0,0.0,0.0,0.31912547350000003,0.2919032574,90.0,60.0,60.0,89.3814163208,120.00283050540001,118.4749450684,50.2870025635,14.441230773900001,2.8999998569,0,2,25,1,451,4239
145,1530633612550,201550, RC,0,39.9586186,-88.445067899,0,0.0,0.0,0.0,0.0,0.0,0.2346997857,0.0,0.0,0.0,0.0,0.0,0.0,0.0,1500,1500,0.0,0.0,40.0483783333,-88.2331201667,0.0,0.0,0.0,0.0,0.0,0.0,0.0,0.0,0.0,0.0,0.0,0,0.0,0.0,0.2431607395,0.22623881699999998,90.0,60.0,60.0,89.7633895874,118.6659317017,119.4935302734,50.2870025635,14.441230773900001,2.8999998569,0,2,25,1,403,4240
146,1530633612600,201600, RC,0,39.9586186,-88.445067899,0,0.0,0.0,0.0,0.0,0.0,0.19736117120000002,0.0,0.0,0.0,0.0,0.0,0.0,0.0,1500,1500,0.0,0.0,40.0483783333,-88.2331201667,0.0,0.0,0.0,0.0,0.0,0.0,0.0,0.0,0.0,0.0,0.0,0,0.0,0.0,0.20379886030000002,0.1909234822,90.0,60.0,60.0,90.145362854,119.1115570068,119.81184387209998,50.2870025635,14.441230773900001,2.8999998569,0,2,25,1,489,4242
147,1530633612651,201651, RC,0,39.9586186,-88.445067899,0,0.0,0.0,0.0,0.0,0.0,0.1492624432,0.0,0.0,0.0,0.0,0.0,0.0,0.0,1500,1500,0.0,0.0,40.0483783333,-88.2331201667,0.0,0.0,0.0,0.0,0.0,0.0,0.0,0.0,0.0,0.0,0.0,0,0.0,0.0,0.1534009576,0.1451239288,90.0,60.0,60.0,90.40000915530001,120.76677703860001,119.3662033081,50.2870025635,14.441230773900001,2.8999998569,0,2,25,1,476,4243
148,1530633612701,201701, RC,0,39.9586186,-88.445067899,0,0.0,0.0,0.0,0.0,0.0,0.1231438071,0.0,0.0,0.0,0.0,0.0,0.0,0.0,1500,1500,0.0,0.0,40.0483783333,-88.2331201667,0.0,0.0,0.0,0.0,0.0,0.0,0.0,0.0,0.0,0.0,0.0,0,0.0,0.0,0.1270983964,0.1191892251,90.0,60.0,60.0,90.4636688232,121.0214157104,118.9842300415,50.2870025635,14.441230773900001,2.8999998569,0,2,25,1,435,4245
149,1530633612752,201752, RC,0,39.9586186,-88.445067899,0,0.0,0.0,0.0,0.0,0.0,0.0930705965,0.0,0.0,0.0,0.0,0.0,0.0,0.0,1500,1500,0.0,0.0,40.0483783333,-88.2331201667,0.0,0.0,0.0,0.0,0.0,0.0,0.0,0.0,0.0,0.0,0.0,0,0.0,0.0,0.0956456736,0.0904955268,90.0,60.0,60.0,90.40000915530001,120.57579040530001,118.9205703735,50.2870025635,14.441230773900001,2.8999998569,0,2,25,1,415,4246
150,1530633612803,201803, RC,0,39.9586186,-88.445067899,0,0.0,0.0,0.0,0.0,0.0,0.0767004788,0.0,0.0,0.0,0.0,0.0,0.0,0.0,1500,1500,0.0,0.0,40.0483783333,-88.2331201667,0.0,0.0,0.0,0.0,0.0,0.0,0.0,0.0,0.0,0.0,0.0,0,0.0,0.0,0.07909161599999999,0.0743093342,90.0,60.0,60.0,90.3363494873,120.51211547850001,119.0479049683,50.2870025635,14.441230773900001,2.8999998569,0,2,25,1,435,4248
151,1530633612853,201853, RC,0,39.9586186,-88.445067899,0,0.0,0.0,0.0,0.0,0.0,0.057295441600000004,0.0,0.0,0.0,0.0,0.0,0.0,0.0,1500,1500,0.0,0.0,40.0483783333,-88.2331201667,0.0,0.0,0.0,0.0,0.0,0.0,0.0,0.0,0.0,0.0,0.0,0,0.0,0.0,0.0590428114,0.05554806809999999,90.0,60.0,60.0,90.2726821899,120.4484634399,119.2388916016,50.2870025635,14.441230773900001,2.8999998569,0,2,25,1,414,4250
152,1530633612904,201904, RC,0,39.9586186,-88.445067899,0,0.0,0.0,0.0,0.0,0.0,0.047454968099999995,0.0,0.0,0.0,0.0,0.0,0.0,0.0,1500,1500,0.0,0.0,40.0483783333,-88.2331201667,0.0,0.0,0.0,0.0,0.0,0.0,0.0,0.0,0.0,0.0,0.0,0,0.0,0.0,0.0489264429,0.0459834971,90.0,60.0,60.0,90.2726821899,120.4484634399,120.32112884520001,50.2870025635,14.441230773900001,2.8999998569,0,2,25,1,394,4251
153,1530633612954,201954, RC,0,39.9586186,-88.445067899,0,0.0,0.0,0.0,0.0,0.0,0.0356831923,0.0,0.0,0.0,0.0,0.0,0.0,0.0,1500,1500,0.0,0.0,40.0483783333,-88.2331201667,0.0,0.0,0.0,0.0,0.0,0.0,0.0,0.0,0.0,0.0,0.0,0,0.0,0.0,0.0367867984,0.03457959,90.0,60.0,60.0,90.2726821899,120.4484634399,120.32112884520001,50.2870025635,14.441230773900001,2.8999998569,0,2,25,1,426,4253
154,1530633613005,202005, RC,0,39.9586186,-88.445067899,0,0.0,0.0,0.0,0.0,0.0,0.0295214057,0.0,0.0,0.0,0.0,0.0,0.0,0.0,1500,1500,0.0,0.0,40.0483783333,-88.2331201667,0.0,0.0,0.0,0.0,0.0,0.0,0.0,0.0,0.0,0.0,0.0,0,0.0,0.0,0.0275900979,0.0259346925,90.0,60.0,60.0,90.2726821899,120.4484634399,120.32112884520001,50.2870025635,14.441230773900001,2.8999998569,0,2,25,1,431,4254
155,1530633613055,202055, RC,0,39.9586186,-88.445067899,0,0.0,0.0,0.0,0.0,0.0,0.0221640468,0.0,0.0,0.0,0.0,0.0,0.0,0.0,1500,1500,0.0,0.0,40.0483783333,-88.2331201667,0.0,0.0,0.0,0.0,0.0,0.0,0.0,0.0,0.0,0.0,0.0,0,0.0,0.0,0.0228078142,0.0215202775,90.0,60.0,60.0,90.3363494873,120.4484634399,120.32112884520001,50.2870025635,14.441230773900001,2.8999998569,0,2,25,1,394,4256
