,(0)linux time (ms),    (1)uptime  (ms),      (2)drive mode,(3)mpc step counter,(4)mpc origin latitude  (deg),(5)mpc origin longitude  (deg),(6)closest trajectory point index to robot,(7)mpc error x (W;E)  (m),(8)mpc error y (W;E)  (m),(9)abs mpc error (m),(10)input [x] for mhe (m),(11)input [y] for mhe (m),(12)input [speed] for mhe (m/s),(13)input [vyaw] for mhe (rad/s),(14)mhe output x  (m),(15)mhe output y  (m),(16)mhe output speed  (m/s),(17)mhe output yaw  (rad),(18)mpc reference heading (rad),(19)mpc turn rate command (rad/s),(20)turn rate command as PWM,(21)throttle command as PWM,(22)primary gps latitude (deg),(23)primary gps longitude (deg),(24)secondary gps latitude  (deg),(25)secondary gps longitude (deg),(26)accelerometer x (m/s^2),(27)accelerometer y (m/s^2),(28)accelerometer z (m/s^2),(29)gyro yaw rate (rad/s),(30)gyro pitch rate   (rad/s),(31)gyro roll rate (rad/s),      (32)yaw (rad),  (33)pitch   (rad),     (34)roll (rad),(35)sonar1 measurement (m),(36)ultrasonic sensor measurement (m),(37)primary gps time (s),(38)normalized turn rate command,(39)normalized throttle command,(40)speed calculation from encoder left (m/s),(41)speed calculation from encoder right (m/s),(42)front gimbal target angle (degrees from straight down),(43)left gimbal target angle  (degrees from straight down),(44)right gimbal target angle  (degrees from straight down),(45)front gimbal measured angle  (degrees from straight down),(46)left gimbal measured angle    (degrees from straight down),(47)right gimbal measured angle  (degrees from straight down),(48)internal temperature (C),(49)battery voltage (V),(50)primary gps type,(51)secondary gps type,    (52)MPC R value, (53)MPC Q[0] value,Unnamed: 54,weed_num,start
0,1530631949517,3862517, RC,0,39.9586186,-88.445067899,0,0.0,0.0,0.0,0.0,0.0,0.0,0.0,0.0,0.0,0.0,0.0,0.0,0.0,1500,1500,0.0,0.0,40.048357,-88.2331566667,0.0,0.0,0.0,0.0,0.0,0.0,0.0,0.0,0.0,0.0,0.0,0,0.0,0.0,0.0,0.0,90.0,90.0,90.0,89.63606262209998,89.9543762207,89.82704925540001,46.5220031738,14.8144302368,1.9199999571000002,0,2,25,1,224,13
1,1530631949568,3862568, RC,0,39.9586186,-88.445067899,0,0.0,0.0,0.0,0.0,0.0,0.0,0.0,0.0,0.0,0.0,0.0,0.0,0.0,1500,1500,0.0,0.0,40.048357,-88.2331566667,0.0,0.0,0.0,0.0,0.0,0.0,0.0,0.0,0.0,0.0,0.0,0,0.0,0.0,0.0,0.0,90.0,90.0,90.0,89.5724029541,89.9543762207,89.82704925540001,46.5220031738,14.8144302368,1.9199999571000002,0,2,25,1,221,15
2,1530631949618,3862618, RC,0,39.9586186,-88.445067899,0,0.0,0.0,0.0,0.0,0.0,0.0,0.0,0.0,0.0,0.0,0.0,0.0,0.0,1500,1500,0.0,0.0,40.048357,-88.2331566667,0.0,0.0,0.0,0.0,0.0,0.0,0.0,0.0,0.0,0.0,0.0,0,0.0,0.0,0.0,0.0,90.0,100.0,90.0,89.5724029541,89.9543762207,89.82704925540001,46.5220031738,14.8146362305,2.5199999809,0,2,25,1,211,17
3,1530631949668,3862668, RC,0,39.9586186,-88.445067899,0,0.0,0.0,0.0,0.0,0.0,0.0,0.0,0.0,0.0,0.0,0.0,0.0,0.0,1500,1500,0.0,0.0,40.048357,-88.2331566667,0.0,0.0,0.0,0.0,0.0,0.0,0.0,0.0,0.0,0.0,0.0,0,0.0,0.0,0.0,0.0,90.0,100.0,90.0,89.5724029541,85.052406311,89.7633895874,46.5220031738,14.8146362305,2.5199999809,0,2,25,1,210,19
4,1530631949719,3862719, RC,0,39.9586186,-88.445067899,0,0.0,0.0,0.0,0.0,0.0,0.0,0.0,0.0,0.0,0.0,0.0,0.0,0.0,1500,1500,0.0,0.0,40.048357,-88.2331566667,0.0,0.0,0.0,0.0,0.0,0.0,0.0,0.0,0.0,0.0,0.0,0,0.0,0.0,0.0,0.0,90.0,96.0,90.0,89.5724029541,78.3678970337,89.7633895874,46.5220031738,14.8146362305,2.5199999809,0,2,25,1,227,21
5,1530631949769,3862769, RC,0,39.9586186,-88.445067899,0,0.0,0.0,0.0,0.0,0.0,0.0,0.0,0.0,0.0,0.0,0.0,0.0,0.0,1500,1500,0.0,0.0,40.048357,-88.2331566667,0.0,0.0,0.0,0.0,0.0,0.0,0.0,0.0,0.0,0.0,0.0,0,0.0,0.0,0.0,0.0,90.0,96.0,90.0,89.5724029541,81.0416946411,89.7633895874,46.5220031738,14.8146362305,2.5199999809,0,2,25,1,227,23
6,1530631949819,3862819, RC,0,39.9586186,-88.445067899,0,0.0,0.0,0.0,0.0,0.0,0.0,0.0,0.0,0.0,0.0,0.0,0.0,0.0,1500,1500,0.0,0.0,40.0483541667,-88.2331565,0.0,0.0,0.0,0.0,0.0,0.0,0.0,0.0,0.0,0.0,0.0,0,0.0,0.0,0.0,0.0,90.0,94.0,90.0,89.5724029541,85.179725647,89.6997299194,46.5220031738,14.8146362305,2.5199999809,0,2,25,1,221,25
7,1530631949870,3862870, RC,0,39.9586186,-88.445067899,0,0.0,0.0,0.0,0.0,0.0,0.0,0.0,0.0,0.0,0.0,0.0,0.0,0.0,1500,1500,0.0,0.0,40.0483541667,-88.2331565,0.0,0.0,0.0,0.0,0.0,0.0,0.0,0.0,0.0,0.0,0.0,0,0.0,0.0,0.0,0.0,90.0,94.0,90.0,89.5724029541,84.9250793457,89.6997299194,46.5220031738,14.8146362305,2.5199999809,0,2,25,1,225,28
8,1530631949920,3862920, RC,0,39.9586186,-88.445067899,0,0.0,0.0,0.0,0.0,0.0,0.0,0.0,0.0,0.0,0.0,0.0,0.0,0.0,1500,1500,0.0,0.0,40.0483541667,-88.2331565,0.0,0.0,0.0,0.0,0.0,0.0,0.0,0.0,0.0,0.0,0.0,0,0.0,0.0,0.0,0.0,90.0,93.0,90.0,89.5724029541,84.8614196777,89.6997299194,46.5220031738,14.8146362305,2.5199999809,0,2,25,1,232,30
9,1530631949970,3862970, RC,0,39.9586186,-88.445067899,0,0.0,0.0,0.0,0.0,0.0,0.0,0.0,0.0,0.0,0.0,0.0,0.0,0.0,1500,1500,0.0,0.0,40.0483541667,-88.2331565,0.0,0.0,0.0,0.0,0.0,0.0,0.0,0.0,0.0,0.0,0.0,0,0.0,0.0,0.0,0.0,90.0,93.0,90.0,89.5724029541,85.8163452148,89.6997299194,46.5220031738,14.8146362305,2.5199999809,0,2,25,1,218,32
10,1530631950021,3863021, RC,0,39.9586186,-88.445067899,0,0.0,0.0,0.0,0.0,0.0,0.0,0.0,0.0,0.0,0.0,0.0,0.0,0.0,1500,1500,0.0,0.0,40.0483541667,-88.2331565,0.0,0.0,0.0,0.0,0.0,0.0,0.0,0.0,0.0,0.0,0.0,0,0.0,0.0,0.0,0.0,90.0,93.0,90.0,89.5724029541,86.89859771729999,89.6997299194,46.5220031738,14.8146362305,2.5199999809,0,2,25,1,229,34
11,1530631950071,3863071, RC,0,39.9586186,-88.445067899,0,0.0,0.0,0.0,0.0,0.0,0.0,0.0,0.0,0.0,0.0,0.0,0.0,0.0,1500,1500,0.0,0.0,40.0483541667,-88.2331565,0.0,0.0,0.0,0.0,0.0,0.0,0.0,0.0,0.0,0.0,0.0,0,0.0,0.0,0.0,0.0,90.0,93.0,90.0,89.5724029541,86.89859771729999,89.63606262209998,46.5220031738,14.8146362305,2.5199999809,0,2,25,1,234,36
12,1530631950121,3863121, RC,0,39.9586186,-88.445067899,0,0.0,0.0,0.0,0.0,0.0,0.0,0.0,0.0,0.0,0.0,0.0,0.0,0.0,1500,1500,0.0,0.0,40.0483541667,-88.2331565,0.0,0.0,0.0,0.0,0.0,0.0,0.0,0.0,0.0,0.0,0.0,0,0.0,0.0,0.0,0.0,90.0,91.0,90.0,89.5724029541,86.89859771729999,89.63606262209998,46.5220031738,14.8146362305,2.5199999809,0,2,25,1,213,38
13,1530631950172,3863172, RC,0,39.9586186,-88.445067899,0,0.0,0.0,0.0,0.0,0.0,0.0,0.0,0.0,0.0,0.0,0.0,0.0,0.0,1500,1500,0.0,0.0,40.0483541667,-88.2331565,0.0,0.0,0.0,0.0,0.0,0.0,0.0,0.0,0.0,0.0,0.0,0,0.0,0.0,0.0,0.0,90.0,91.0,90.0,89.5724029541,87.4078979492,89.63606262209998,46.5220031738,14.8146362305,2.5199999809,0,2,25,1,216,40
14,1530631950222,3863222, RC,0,39.9586186,-88.445067899,0,0.0,0.0,0.0,0.0,0.0,0.0,0.0,0.0,0.0,0.0,0.0,0.0,0.0,1500,1500,0.0,0.0,40.0483541667,-88.2331565,0.0,0.0,0.0,0.0,0.0,0.0,0.0,0.0,0.0,0.0,0.0,0,0.0,0.0,0.0,0.0,90.0,87.0,90.0,89.5724029541,88.8084564209,89.63606262209998,46.5220031738,14.8146362305,2.5199999809,0,2,25,1,220,42
15,1530631950272,3863272, RC,0,39.9586186,-88.445067899,0,0.0,0.0,0.0,0.0,0.0,0.0,0.0,0.0,0.0,0.0,0.0,0.0,0.0,1500,1500,0.0,0.0,40.0483541667,-88.2331565,0.0,0.0,0.0,0.0,0.0,0.0,0.0,0.0,0.0,0.0,0.0,0,0.0,0.0,0.0,0.0,90.0,87.0,90.0,89.5724029541,90.4636688232,89.63606262209998,46.5220031738,14.8146362305,2.5199999809,0,2,25,1,212,45
16,1530631950323,3863323, RC,0,39.9586186,-88.445067899,0,0.0,0.0,0.0,0.0,0.0,0.0,0.0,0.0,0.0,0.0,0.0,0.0,0.0,1500,1500,0.0,0.0,40.0483541667,-88.2331565,0.0,0.0,0.0,0.0,0.0,0.0,0.0,0.0,0.0,0.0,0.0,0,0.0,0.0,0.0,0.0,90.0,87.0,90.0,89.5724029541,92.9464874268,89.63606262209998,46.5220031738,14.8146362305,2.5199999809,0,2,25,1,221,47
17,1530631950373,3863373, RC,0,39.9586186,-88.445067899,0,0.0,0.0,0.0,0.0,0.0,0.0,0.0,0.0,0.0,0.0,0.0,0.0,0.0,1500,1500,0.0,0.0,40.0483541667,-88.2331565,0.0,0.0,0.0,0.0,0.0,0.0,0.0,0.0,0.0,0.0,0.0,0,0.0,0.0,0.0,0.0,90.0,87.0,90.0,89.5724029541,92.69184112549999,89.63606262209998,46.5220031738,14.8146362305,2.5199999809,0,2,25,1,221,49
18,1530631950423,3863423, RC,0,39.9586186,-88.445067899,0,0.0,0.0,0.0,0.0,0.0,0.0,0.0,0.0,0.0,0.0,0.0,0.0,0.0,1500,1500,0.0,0.0,40.0483541667,-88.2331565,0.0,0.0,0.0,0.0,0.0,0.0,0.0,0.0,0.0,0.0,0.0,0,0.0,0.0,0.0,0.0,90.0,85.0,90.0,89.5724029541,92.7555007935,89.63606262209998,46.5220031738,14.8146362305,2.5199999809,0,2,25,1,230,51
19,1530631950474,3863474, RC,0,39.9586186,-88.445067899,0,0.0,0.0,0.0,0.0,0.0,0.0,0.0,0.0,0.0,0.0,0.0,0.0,0.0,1500,1500,0.0,0.0,40.0483541667,-88.2331565,0.0,0.0,0.0,0.0,0.0,0.0,0.0,0.0,0.0,0.0,0.0,0,0.0,0.0,0.0,0.0,90.0,85.0,90.0,89.5724029541,93.77409362790002,89.63606262209998,46.5220031738,14.8146362305,2.5199999809,0,2,25,1,233,53
20,1530631950524,3863524, RC,0,39.9586186,-88.445067899,0,0.0,0.0,0.0,0.0,0.0,0.0,0.0,0.0,0.0,0.0,0.0,0.0,0.0,1500,1500,0.0,0.0,40.0483541667,-88.2331565,0.0,0.0,0.0,0.0,0.0,0.0,0.0,0.0,0.0,0.0,0.0,0,0.0,0.0,0.0,0.0,90.0,84.0,90.0,89.5724029541,94.15606689450001,89.63606262209998,46.5220031738,14.8146362305,2.5199999809,0,2,25,1,217,55
21,1530631950574,3863574, RC,0,39.9586186,-88.445067899,0,0.0,0.0,0.0,0.0,0.0,0.0,0.0,0.0,0.0,0.0,0.0,0.0,0.0,1500,1500,0.0,0.0,40.0483541667,-88.2331565,0.0,0.0,0.0,0.0,0.0,0.0,0.0,0.0,0.0,0.0,0.0,0,0.0,0.0,0.0,0.0,90.0,84.0,90.0,89.5724029541,94.729019165,89.63606262209998,46.5220031738,14.8146362305,2.5199999809,0,2,25,1,218,57
22,1530631950625,3863625, RC,0,39.9586186,-88.445067899,0,0.0,0.0,0.0,0.0,0.0,0.0,0.0,0.0,0.0,0.0,0.0,0.0,0.0,1500,1500,0.0,0.0,40.0483541667,-88.2331565,0.0,0.0,0.0,0.0,0.0,0.0,0.0,0.0,0.0,0.0,0.0,0,0.0,0.0,0.0,0.0,90.0,84.0,90.0,89.5724029541,95.3019790649,89.63606262209998,46.5220031738,14.8149662018,3.1199998856,0,2,25,1,220,60
23,1530631950675,3863675, RC,0,39.9586186,-88.445067899,0,0.0,0.0,0.0,0.0,0.0,0.0,0.0,0.0,0.0,0.0,0.0,0.0,0.0,1500,1500,0.0,0.0,40.0483541667,-88.2331565,0.0,0.0,0.0,0.0,0.0,0.0,0.0,0.0,0.0,0.0,0.0,0,0.0,0.0,0.0,0.0,90.0,84.0,90.0,89.5724029541,95.36563873290001,89.63606262209998,46.5220031738,14.8149662018,3.1199998856,0,2,25,1,218,62
24,1530631950725,3863725, RC,0,39.9586186,-88.445067899,0,0.0,0.0,0.0,0.0,0.0,0.0,0.0,0.0,0.0,0.0,0.0,0.0,0.0,1500,1500,0.0,0.0,40.0483541667,-88.2331565,0.0,0.0,0.0,0.0,0.0,0.0,0.0,0.0,0.0,0.0,0.0,0,0.0,0.0,0.0,0.0,90.0,84.0,90.0,89.5724029541,95.36563873290001,89.63606262209998,46.5220031738,14.8149662018,3.1199998856,0,2,25,1,225,64
25,1530631950776,3863776, RC,0,39.9586186,-88.445067899,0,0.0,0.0,0.0,0.0,0.0,0.0,0.0,0.0,0.0,0.0,0.0,0.0,0.0,1500,1500,0.0,0.0,40.0483541667,-88.2331565,0.0,0.0,0.0,0.0,0.0,0.0,0.0,0.0,0.0,0.0,0.0,0,0.0,0.0,0.0,0.0,90.0,84.0,90.0,89.5724029541,95.42930603030001,89.63606262209998,46.5220031738,14.8149662018,3.1199998856,0,2,25,1,227,66
26,1530631950826,3863826, RC,0,39.9586186,-88.445067899,0,0.0,0.0,0.0,0.0,0.0,0.0,0.0,0.0,0.0,0.0,0.0,0.0,0.0,1500,1500,0.0,0.0,40.0483576667,-88.2331575,0.0,0.0,0.0,0.0,0.0,0.0,0.0,0.0,0.0,0.0,0.0,0,0.0,0.0,0.0,0.0,90.0,79.0,90.0,89.5724029541,95.42930603030001,89.63606262209998,46.5220031738,14.8149662018,3.1199998856,0,2,25,1,223,68
27,1530631950876,3863876, RC,0,39.9586186,-88.445067899,0,0.0,0.0,0.0,0.0,0.0,0.0,0.0,0.0,0.0,0.0,0.0,0.0,0.0,1500,1500,0.0,0.0,40.0483576667,-88.2331575,0.0,0.0,0.0,0.0,0.0,0.0,0.0,0.0,0.0,0.0,0.0,0,0.0,0.0,0.0,0.0,90.0,79.0,90.0,89.5724029541,96.44789123540001,89.63606262209998,46.5220031738,14.8149662018,3.1199998856,0,2,25,1,221,70
28,1530631950927,3863927, RC,0,39.9586186,-88.445067899,0,0.0,0.0,0.0,0.0,0.0,0.0,0.0,0.0,0.0,0.0,0.0,0.0,0.0,1500,1500,0.0,0.0,40.0483576667,-88.2331575,0.0,0.0,0.0,0.0,0.0,0.0,0.0,0.0,0.0,0.0,0.0,0,0.0,0.0,0.0,0.0,90.0,77.0,90.0,89.5724029541,101.0952224731,89.63606262209998,46.5220031738,14.8149662018,3.1199998856,0,2,25,1,238,72
29,1530631950977,3863977, RC,0,39.9586186,-88.445067899,0,0.0,0.0,0.0,0.0,0.0,0.0,0.0,0.0,0.0,0.0,0.0,0.0,0.0,1500,1500,0.0,0.0,40.0483576667,-88.2331575,0.0,0.0,0.0,0.0,0.0,0.0,0.0,0.0,0.0,0.0,0.0,0,0.0,0.0,0.0,0.0,90.0,77.0,90.0,89.5724029541,101.4135284424,89.63606262209998,46.5220031738,14.8149662018,3.1199998856,0,2,25,1,235,74
30,1530631951062,3864062, RC,0,39.9586186,-88.445067899,0,0.0,0.0,0.0,0.0,0.0,0.0,0.0,0.0,0.0,0.0,0.0,0.0,0.0,1500,1500,0.0,0.0,40.0483576667,-88.2331575,0.0,0.0,0.0,0.0,0.0,0.0,0.0,0.0,0.0,0.0,0.0,0,0.0,0.0,0.0,0.0,90.0,77.0,90.0,89.5724029541,103.323387146,89.63606262209998,47.5979995728,14.8149662018,3.1199998856,0,2,25,1,221,78
31,1530631951112,3864112, RC,0,39.9586186,-88.445067899,0,0.0,0.0,0.0,0.0,0.0,0.0,0.0,0.0,0.0,0.0,0.0,0.0,0.0,1500,1500,0.0,0.0,40.0483576667,-88.2331575,0.0,0.0,0.0,0.0,0.0,0.0,0.0,0.0,0.0,0.0,0.0,0,0.0,0.0,0.0,0.0,90.0,75.0,90.0,89.5724029541,103.387046814,89.63606262209998,47.5979995728,14.8149662018,3.1199998856,0,2,25,1,233,80
32,1530631951163,3864163, RC,0,39.9586186,-88.445067899,0,0.0,0.0,0.0,0.0,0.0,0.0,0.0,0.0,0.0,0.0,0.0,0.0,0.0,1500,1500,0.0,0.0,40.0483576667,-88.2331575,0.0,0.0,0.0,0.0,0.0,0.0,0.0,0.0,0.0,0.0,0.0,0,0.0,0.0,0.0,0.0,90.0,75.0,90.0,89.5724029541,103.5143737793,89.63606262209998,47.5979995728,14.8149662018,3.1199998856,0,2,25,1,214,82
33,1530631951213,3864213, RC,0,39.9586186,-88.445067899,0,0.0,0.0,0.0,0.0,0.0,0.0,0.0,0.0,0.0,0.0,0.0,0.0,0.0,1500,1500,0.0,0.0,40.0483576667,-88.2331575,0.0,0.0,0.0,0.0,0.0,0.0,0.0,0.0,0.0,0.0,0.0,0,0.0,0.0,0.0,0.0,90.0,75.0,90.0,89.5724029541,104.91493988040001,89.63606262209998,47.5979995728,14.8149662018,3.1199998856,0,2,25,1,225,84
34,1530631951263,3864263, RC,0,39.9586186,-88.445067899,0,0.0,0.0,0.0,0.0,0.0,0.0,0.0,0.0,0.0,0.0,0.0,0.0,0.0,1500,1500,0.0,0.0,40.0483576667,-88.2331575,0.0,0.0,0.0,0.0,0.0,0.0,0.0,0.0,0.0,0.0,0.0,0,0.0,0.0,0.0,0.0,90.0,75.0,90.0,89.5724029541,105.10591888430001,89.63606262209998,47.5979995728,14.8149662018,3.1199998856,0,2,25,1,230,86
35,1530631951314,3864314, RC,0,39.9586186,-88.445067899,0,0.0,0.0,0.0,0.0,0.0,0.0,0.0,0.0,0.0,0.0,0.0,0.0,0.0,1500,1500,0.0,0.0,40.0483576667,-88.2331575,0.0,0.0,0.0,0.0,0.0,0.0,0.0,0.0,0.0,0.0,0.0,0,0.0,0.0,0.0,0.0,90.0,73.0,90.0,89.5724029541,105.1695861816,89.63606262209998,47.5979995728,14.8149662018,3.1199998856,0,2,25,1,231,89
36,1530631951364,3864364, RC,0,39.9586186,-88.445067899,0,0.0,0.0,0.0,0.0,0.0,0.0,0.0,0.0,0.0,0.0,0.0,0.0,0.0,1500,1500,0.0,0.0,40.0483576667,-88.2331575,0.0,0.0,0.0,0.0,0.0,0.0,0.0,0.0,0.0,0.0,0.0,0,0.0,0.0,0.0,0.0,90.0,73.0,90.0,89.5724029541,105.8698654175,89.63606262209998,47.5979995728,14.8149662018,3.1199998856,0,2,25,1,242,91
37,1530631951414,3864414, RC,0,39.9586186,-88.445067899,0,0.0,0.0,0.0,0.0,0.0,0.0,0.0,0.0,0.0,0.0,0.0,0.0,0.0,1500,1500,0.0,0.0,40.0483576667,-88.2331575,0.0,0.0,0.0,0.0,0.0,0.0,0.0,0.0,0.0,0.0,0.0,0,0.0,0.0,0.0,0.0,90.0,73.0,90.0,89.5724029541,106.888458252,89.63606262209998,47.5979995728,14.8149662018,3.1199998856,0,2,25,1,232,93
38,1530631951465,3864465, RC,0,39.9586186,-88.445067899,0,0.0,0.0,0.0,0.0,0.0,0.0,0.0,0.0,0.0,0.0,0.0,0.0,0.0,1500,1500,0.0,0.0,40.0483576667,-88.2331575,0.0,0.0,0.0,0.0,0.0,0.0,0.0,0.0,0.0,0.0,0.0,0,0.0,0.0,0.0,0.0,90.0,73.0,90.0,89.5724029541,106.888458252,89.63606262209998,47.5979995728,14.8149662018,3.1199998856,0,2,25,1,225,95
39,1530631951515,3864515, RC,0,39.9586186,-88.445067899,0,0.0,0.0,0.0,0.0,0.0,0.0,0.0,0.0,0.0,0.0,0.0,0.0,0.0,1500,1500,0.0,0.0,40.0483576667,-88.2331575,0.0,0.0,0.0,0.0,0.0,0.0,0.0,0.0,0.0,0.0,0.0,0,0.0,0.0,0.0,0.0,90.0,73.0,90.0,89.5724029541,106.9521255493,89.63606262209998,47.5979995728,14.8149662018,3.1199998856,0,2,25,1,237,97
40,1530631951565,3864565, RC,0,39.9586186,-88.445067899,0,0.0,0.0,0.0,0.0,0.0,0.0,0.0,0.0,0.0,0.0,0.0,0.0,0.0,1500,1500,0.0,0.0,40.0483576667,-88.2331575,0.0,0.0,0.0,0.0,0.0,0.0,0.0,0.0,0.0,0.0,0.0,0,0.0,0.0,0.0,0.0,90.0,73.0,90.0,89.5724029541,106.9521255493,89.63606262209998,47.5979995728,14.8149662018,3.1199998856,0,2,25,1,220,99
41,1530631951616,3864616, RC,0,39.9586186,-88.445067899,0,0.0,0.0,0.0,0.0,0.0,0.0,0.0,0.0,0.0,0.0,0.0,0.0,0.0,1500,1500,0.0,0.0,40.0483576667,-88.2331575,0.0,0.0,0.0,0.0,0.0,0.0,0.0,0.0,0.0,0.0,0.0,0,0.0,0.0,0.0,0.0,90.0,72.0,90.0,89.5724029541,106.9521255493,89.63606262209998,47.5979995728,14.8149662018,3.1199998856,0,2,25,1,237,101
42,1530631951666,3864666, RC,0,39.9586186,-88.445067899,0,0.0,0.0,0.0,0.0,0.0,0.0,0.0,0.0,0.0,0.0,0.0,0.0,0.0,1500,1500,0.0,0.0,40.0483576667,-88.2331575,0.0,0.0,0.0,0.0,0.0,0.0,0.0,0.0,0.0,0.0,0.0,0,0.0,0.0,0.0,0.0,90.0,72.0,90.0,89.5724029541,106.9521255493,89.63606262209998,47.5979995728,14.809938430799999,2.5199999809,0,2,25,1,236,103
43,1530631951716,3864716, RC,0,39.9586186,-88.445067899,0,0.0,0.0,0.0,0.0,0.0,0.0,0.0,0.0,0.0,0.0,0.0,0.0,0.0,1500,1500,0.0,0.0,40.0483576667,-88.2331575,0.0,0.0,0.0,0.0,0.0,0.0,0.0,0.0,0.0,0.0,0.0,0,0.0,0.0,0.0,0.0,90.0,72.0,90.0,89.5724029541,107.01578521729999,89.63606262209998,47.5979995728,14.809938430799999,2.5199999809,0,2,25,1,218,105
44,1530631951767,3864767, RC,0,39.9586186,-88.445067899,0,0.0,0.0,0.0,0.0,0.0,0.0,0.0,0.0,0.0,0.0,0.0,0.0,0.0,1500,1500,0.0,0.0,40.0483576667,-88.2331575,0.0,0.0,0.0,0.0,0.0,0.0,0.0,0.0,0.0,0.0,0.0,0,0.0,0.0,0.0,0.0,90.0,72.0,90.0,89.5724029541,107.8433837891,89.63606262209998,47.5979995728,14.809938430799999,2.5199999809,0,2,25,1,227,108
45,1530631951817,3864817, RC,0,39.9586186,-88.445067899,0,0.0,0.0,0.0,0.0,0.0,0.0,0.0,0.0,0.0,0.0,0.0,0.0,0.0,1500,1500,0.0,0.0,40.0483558333,-88.2331575,0.0,0.0,0.0,0.0,0.0,0.0,0.0,0.0,0.0,0.0,0.0,0,0.0,0.0,0.0,0.0,90.0,69.0,90.0,89.5724029541,107.97071838379999,89.63606262209998,47.5979995728,14.809938430799999,2.5199999809,0,2,25,1,220,110
46,1530631951867,3864867, RC,0,39.9586186,-88.445067899,0,0.0,0.0,0.0,0.0,0.0,0.0,0.0,0.0,0.0,0.0,0.0,0.0,0.0,1500,1500,0.0,0.0,40.0483558333,-88.2331575,0.0,0.0,0.0,0.0,0.0,0.0,0.0,0.0,0.0,0.0,0.0,0,0.0,0.0,0.0,0.0,90.0,69.0,90.0,89.5724029541,108.28902435299999,89.63606262209998,47.5979995728,14.809938430799999,2.5199999809,0,2,25,1,224,112
47,1530631951918,3864918, RC,0,39.9586186,-88.445067899,0,0.0,0.0,0.0,0.0,0.0,0.0,0.0,0.0,0.0,0.0,0.0,0.0,0.0,1500,1500,0.0,0.0,40.0483558333,-88.2331575,0.0,0.0,0.0,0.0,0.0,0.0,0.0,0.0,0.0,0.0,0.0,0,0.0,0.0,0.0,0.0,90.0,69.0,90.0,89.5724029541,111.3448028564,89.63606262209998,47.5979995728,14.809938430799999,2.5199999809,0,2,25,1,231,114
48,1530631951968,3864968, RC,0,39.9586186,-88.445067899,0,0.0,0.0,0.0,0.0,0.0,0.0,0.0,0.0,0.0,0.0,0.0,0.0,0.0,1500,1500,0.0,0.0,40.0483558333,-88.2331575,0.0,0.0,0.0,0.0,0.0,0.0,0.0,0.0,0.0,0.0,0.0,0,0.0,0.0,0.0,0.0,90.0,69.0,90.0,89.5724029541,111.4721221924,89.63606262209998,47.5979995728,14.809938430799999,2.5199999809,0,2,25,1,215,116
49,1530631952018,3865018, RC,0,39.9586186,-88.445067899,0,0.0,0.0,0.0,0.0,0.0,0.0,0.0,0.0,0.0,0.0,0.0,0.0,0.0,1500,1500,0.0,0.0,40.0483558333,-88.2331575,0.0,0.0,0.0,0.0,0.0,0.0,0.0,0.0,0.0,0.0,0.0,0,0.0,0.0,0.0,0.0,90.0,69.0,90.0,89.5724029541,111.3448028564,89.63606262209998,47.5979995728,14.809938430799999,2.5199999809,0,2,25,1,228,118
50,1530631952069,3865069, RC,0,39.9586186,-88.445067899,0,0.0,0.0,0.0,0.0,0.0,0.0,0.0,0.0,0.0,0.0,0.0,0.0,0.0,1500,1500,0.0,0.0,40.0483558333,-88.2331575,0.0,0.0,0.0,0.0,0.0,0.0,0.0,0.0,0.0,0.0,0.0,0,0.0,0.0,0.0,0.0,90.0,69.0,90.0,89.5724029541,111.408454895,89.63606262209998,47.5979995728,14.809938430799999,2.5199999809,0,2,25,1,228,120
51,1530631952119,3865119, RC,0,39.9586186,-88.445067899,0,0.0,0.0,0.0,0.0,0.0,0.0,0.0,0.0,0.0,0.0,0.0,0.0,0.0,1500,1500,0.0,0.0,40.0483558333,-88.2331575,0.0,0.0,0.0,0.0,0.0,0.0,0.0,0.0,0.0,0.0,0.0,0,0.0,0.0,0.0,0.0,90.0,69.0,90.0,89.5724029541,111.408454895,89.63606262209998,47.5979995728,14.809938430799999,2.5199999809,0,2,25,1,223,123
52,1530631952169,3865169, RC,0,39.9586186,-88.445067899,0,0.0,0.0,0.0,0.0,0.0,0.0,0.0,0.0,0.0,0.0,0.0,0.0,0.0,1500,1500,0.0,0.0,40.0483558333,-88.2331575,0.0,0.0,0.0,0.0,0.0,0.0,0.0,0.0,0.0,0.0,0.0,0,0.0,0.0,0.0,0.0,90.0,69.0,90.0,89.5724029541,111.408454895,89.63606262209998,47.5979995728,14.809938430799999,2.5199999809,0,2,25,1,234,126
53,1530631952220,3865220, RC,0,39.9586186,-88.445067899,0,0.0,0.0,0.0,0.0,0.0,0.0,0.0,0.0,0.0,0.0,0.0,0.0,0.0,1500,1500,0.0,0.0,40.0483558333,-88.2331575,0.0,0.0,0.0,0.0,0.0,0.0,0.0,0.0,0.0,0.0,0.0,0,0.0,0.0,0.0,0.0,90.0,69.0,90.0,89.5724029541,111.408454895,89.63606262209998,47.5979995728,14.809938430799999,2.5199999809,0,2,25,1,235,130
54,1530631952270,3865270, RC,0,39.9586186,-88.445067899,0,0.0,0.0,0.0,0.0,0.0,0.0,0.0,0.0,0.0,0.0,0.0,0.0,0.0,1500,1500,0.0,0.0,40.0483558333,-88.2331575,0.0,0.0,0.0,0.0,0.0,0.0,0.0,0.0,0.0,0.0,0.0,0,0.0,0.0,0.0,0.0,90.0,69.0,90.0,89.5724029541,111.408454895,89.63606262209998,47.5979995728,14.809938430799999,2.5199999809,0,2,25,1,226,133
55,1530631952320,3865320, RC,0,39.9586186,-88.445067899,0,0.0,0.0,0.0,0.0,0.0,0.0,0.0,0.0,0.0,0.0,0.0,0.0,0.0,1500,1500,0.0,0.0,40.0483558333,-88.2331575,0.0,0.0,0.0,0.0,0.0,0.0,0.0,0.0,0.0,0.0,0.0,0,0.0,0.0,0.0,0.0,90.0,69.0,90.0,89.5724029541,111.4721221924,89.63606262209998,47.5979995728,14.809938430799999,2.5199999809,0,2,25,1,229,135
56,1530631952371,3865371, RC,0,39.9586186,-88.445067899,0,0.0,0.0,0.0,0.0,0.0,0.0,0.0,0.0,0.0,0.0,0.0,0.0,0.0,1500,1500,0.0,0.0,40.0483558333,-88.2331575,0.0,0.0,0.0,0.0,0.0,0.0,0.0,0.0,0.0,0.0,0.0,0,0.0,0.0,0.0,0.0,90.0,69.0,90.0,89.5724029541,111.4721221924,89.63606262209998,47.5979995728,14.809938430799999,2.5199999809,0,2,25,1,235,138
57,1530631952421,3865421, RC,0,39.9586186,-88.445067899,0,0.0,0.0,0.0,0.0,0.0,0.0,0.0,0.0,0.0,0.0,0.0,0.0,0.0,1500,1500,0.0,0.0,40.0483558333,-88.2331575,0.0,0.0,0.0,0.0,0.0,0.0,0.0,0.0,0.0,0.0,0.0,0,0.0,0.0,0.0,0.0,90.0,67.0,90.0,89.5724029541,111.4721221924,89.63606262209998,47.5979995728,14.809938430799999,2.5199999809,0,2,25,1,219,140
58,1530631952471,3865471, RC,0,39.9586186,-88.445067899,0,0.0,0.0,0.0,0.0,0.0,0.0,0.0,0.0,0.0,0.0,0.0,0.0,0.0,1500,1500,0.0,0.0,40.0483558333,-88.2331575,0.0,0.0,0.0,0.0,0.0,0.0,0.0,0.0,0.0,0.0,0.0,0,0.0,0.0,0.0,0.0,90.0,67.0,90.0,89.5724029541,111.5994415283,89.63606262209998,47.5979995728,14.809938430799999,2.5199999809,0,2,25,1,224,142
59,1530631952522,3865522, RC,0,39.9586186,-88.445067899,0,0.0,0.0,0.0,0.0,0.0,0.0,0.0,0.0,0.0,0.0,0.0,0.0,0.0,1500,1500,0.0,0.0,40.0483558333,-88.2331575,0.0,0.0,0.0,0.0,0.0,0.0,0.0,0.0,0.0,0.0,0.0,0,0.0,0.0,0.0,0.0,90.0,66.0,90.0,89.5724029541,111.6631088257,89.63606262209998,47.5979995728,14.809938430799999,2.5199999809,0,2,25,1,230,145
60,1530631952572,3865572, RC,0,39.9586186,-88.445067899,0,0.0,0.0,0.0,0.0,0.0,0.0,0.0,0.0,0.0,0.0,0.0,0.0,0.0,1500,1500,0.0,0.0,40.0483558333,-88.2331575,0.0,0.0,0.0,0.0,0.0,0.0,0.0,0.0,0.0,0.0,0.0,0,0.0,0.0,0.0,0.0,90.0,66.0,90.0,89.5724029541,111.7904281616,89.63606262209998,47.5979995728,14.809938430799999,2.5199999809,0,2,25,1,217,148
61,1530631952622,3865622, RC,0,39.9586186,-88.445067899,0,0.0,0.0,0.0,0.0,0.0,0.0,0.0,0.0,0.0,0.0,0.0,0.0,0.0,1500,1500,0.0,0.0,40.0483558333,-88.2331575,0.0,0.0,0.0,0.0,0.0,0.0,0.0,0.0,0.0,0.0,0.0,0,0.0,0.0,0.0,0.0,90.0,66.0,90.0,89.5724029541,114.97353363040001,89.63606262209998,47.5979995728,14.810228347799999,2.8999998569,0,2,25,1,213,150
62,1530631952673,3865673, RC,0,39.9586186,-88.445067899,0,0.0,0.0,0.0,0.0,0.0,0.0,0.0,0.0,0.0,0.0,0.0,0.0,0.0,1500,1500,0.0,0.0,40.0483558333,-88.2331575,0.0,0.0,0.0,0.0,0.0,0.0,0.0,0.0,0.0,0.0,0.0,0,0.0,0.0,0.0,0.0,90.0,66.0,90.0,89.5724029541,114.40057373049999,89.63606262209998,47.5979995728,14.810228347799999,2.8999998569,0,2,25,1,243,153
63,1530631952723,3865723, RC,0,39.9586186,-88.445067899,0,0.0,0.0,0.0,0.0,0.0,0.0,0.0,0.0,0.0,0.0,0.0,0.0,0.0,1500,1500,0.0,0.0,40.0483558333,-88.2331575,0.0,0.0,0.0,0.0,0.0,0.0,0.0,0.0,0.0,0.0,0.0,0,0.0,0.0,0.0,0.0,90.0,66.0,90.0,89.5724029541,113.89128112790002,89.63606262209998,47.5979995728,14.810228347799999,2.8999998569,0,2,25,1,224,155
64,1530631952773,3865773, RC,0,39.9586186,-88.445067899,0,0.0,0.0,0.0,0.0,0.0,0.0,0.0,0.0,0.0,0.0,0.0,0.0,0.0,1500,1500,0.0,0.0,40.0483558333,-88.2331575,0.0,0.0,0.0,0.0,0.0,0.0,0.0,0.0,0.0,0.0,0.0,0,0.0,0.0,0.0,0.0,90.0,66.0,90.0,89.5724029541,113.8276138306,89.63606262209998,47.5979995728,14.810228347799999,2.8999998569,0,2,25,1,220,158
65,1530631952824,3865824, RC,0,39.9586186,-88.445067899,0,0.0,0.0,0.0,0.0,0.0,0.0,0.0,0.0,0.0,0.0,0.0,0.0,0.0,1500,1500,0.0,0.0,40.0483563333,-88.2331578333,0.0,0.0,0.0,0.0,0.0,0.0,0.0,0.0,0.0,0.0,0.0,0,0.0,0.0,0.0,0.0,90.0,66.0,90.0,89.5724029541,113.8276138306,89.63606262209998,47.5979995728,14.810228347799999,2.8999998569,0,2,25,1,224,160
66,1530631952874,3865874, RC,0,39.9586186,-88.445067899,0,0.0,0.0,0.0,0.0,0.0,0.0,0.0,0.0,0.0,0.0,0.0,0.0,0.0,1500,1500,0.0,0.0,40.0483563333,-88.2331578333,0.0,0.0,0.0,0.0,0.0,0.0,0.0,0.0,0.0,0.0,0.0,0,0.0,0.0,0.0,0.0,90.0,66.0,90.0,89.5724029541,113.8276138306,89.63606262209998,47.5979995728,14.810228347799999,2.8999998569,0,2,25,1,235,163
67,1530631952924,3865924, RC,0,39.9586186,-88.445067899,0,0.0,0.0,0.0,0.0,0.0,0.0,0.0,0.0,0.0,0.0,0.0,0.0,0.0,1500,1500,0.0,0.0,40.0483563333,-88.2331578333,0.0,0.0,0.0,0.0,0.0,0.0,0.0,0.0,0.0,0.0,0.0,0,0.0,0.0,0.0,0.0,90.0,66.0,90.0,89.5724029541,113.8276138306,89.63606262209998,47.5979995728,14.810228347799999,2.8999998569,0,2,25,1,236,165
68,1530631952975,3865975, RC,0,39.9586186,-88.445067899,0,0.0,0.0,0.0,0.0,0.0,0.0,0.0,0.0,0.0,0.0,0.0,0.0,0.0,1500,1500,0.0,0.0,40.0483563333,-88.2331578333,0.0,0.0,0.0,0.0,0.0,0.0,0.0,0.0,0.0,0.0,0.0,0,0.0,0.0,0.0,0.0,90.0,66.0,90.0,89.5724029541,113.8276138306,89.63606262209998,47.5979995728,14.810228347799999,2.8999998569,0,2,25,1,223,168
69,1530631953025,3866025, RC,0,39.9586186,-88.445067899,0,0.0,0.0,0.0,0.0,0.0,0.0,0.0,0.0,0.0,0.0,0.0,0.0,0.0,1500,1500,0.0,0.0,40.0483563333,-88.2331578333,0.0,0.0,0.0,0.0,0.0,0.0,0.0,0.0,0.0,0.0,0.0,0,0.0,0.0,0.0,0.0,90.0,66.0,90.0,89.5724029541,113.8276138306,89.63606262209998,47.5979995728,14.810228347799999,2.8999998569,0,2,25,1,217,170
70,1530631953075,3866075, RC,0,39.9586186,-88.445067899,0,0.0,0.0,0.0,0.0,0.0,0.0,0.0,0.0,0.0,0.0,0.0,0.0,0.0,1500,1500,0.0,0.0,40.0483563333,-88.2331578333,0.0,0.0,0.0,0.0,0.0,0.0,0.0,0.0,0.0,0.0,0.0,0,0.0,0.0,0.0,0.0,90.0,66.0,90.0,89.5724029541,113.8276138306,89.63606262209998,47.5979995728,14.810228347799999,2.8999998569,0,2,25,1,221,173
71,1530631953126,3866126, RC,0,39.9586186,-88.445067899,0,0.0,0.0,0.0,0.0,0.0,0.0,0.0,0.0,0.0,0.0,0.0,0.0,0.0,1500,1500,0.0,0.0,40.0483563333,-88.2331578333,0.0,0.0,0.0,0.0,0.0,0.0,0.0,0.0,0.0,0.0,0.0,0,0.0,0.0,0.0,0.0,90.0,64.0,90.0,89.5724029541,113.89128112790002,89.63606262209998,47.5979995728,14.810228347799999,2.8999998569,0,2,25,1,235,175
72,1530631953176,3866176, RC,0,39.9586186,-88.445067899,0,0.0,0.0,0.0,0.0,0.0,0.0,0.0,0.0,0.0,0.0,0.0,0.0,0.0,1500,1500,0.0,0.0,40.0483563333,-88.2331578333,0.0,0.0,0.0,0.0,0.0,0.0,0.0,0.0,0.0,0.0,0.0,0,0.0,0.0,0.0,0.0,90.0,64.0,90.0,89.5724029541,114.27325439450001,89.63606262209998,47.5979995728,14.810228347799999,2.8999998569,0,2,25,1,230,178
73,1530631953226,3866226, RC,0,39.9586186,-88.445067899,0,0.0,0.0,0.0,0.0,0.0,0.0,0.0,0.0,0.0,0.0,0.0,0.0,0.0,1500,1500,0.0,0.0,40.0483563333,-88.2331578333,0.0,0.0,0.0,0.0,0.0,0.0,0.0,0.0,0.0,0.0,0.0,0,0.0,0.0,0.0,0.0,90.0,64.0,90.0,89.5724029541,115.4828338623,89.63606262209998,47.5979995728,14.810228347799999,2.8999998569,0,2,25,1,236,180
74,1530631953277,3866277, RC,0,39.9586186,-88.445067899,0,0.0,0.0,0.0,0.0,0.0,0.0,0.0,0.0,0.0,0.0,0.0,0.0,0.0,1500,1500,0.0,0.0,40.0483563333,-88.2331578333,0.0,0.0,0.0,0.0,0.0,0.0,0.0,0.0,0.0,0.0,0.0,0,0.0,0.0,0.0,0.0,90.0,64.0,90.0,89.5724029541,115.67381286620001,89.63606262209998,47.5979995728,14.810228347799999,2.8999998569,0,2,25,1,220,183
75,1530631953327,3866327, RC,0,39.9586186,-88.445067899,0,0.0,0.0,0.0,0.0,0.0,0.0,0.0,0.0,0.0,0.0,0.0,0.0,0.0,1500,1500,0.0,0.0,40.0483563333,-88.2331578333,0.0,0.0,0.0,0.0,0.0,0.0,0.0,0.0,0.0,0.0,0.0,0,0.0,0.0,0.0,0.0,90.0,63.0,90.0,89.5724029541,115.67381286620001,89.63606262209998,47.5979995728,14.810228347799999,2.8999998569,0,2,25,1,229,185
76,1530631953377,3866377, RC,0,39.9586186,-88.445067899,0,0.0,0.0,0.0,0.0,0.0,0.0,0.0,0.0,0.0,0.0,0.0,0.0,0.0,1500,1500,0.0,0.0,40.0483563333,-88.2331578333,0.0,0.0,0.0,0.0,0.0,0.0,0.0,0.0,0.0,0.0,0.0,0,0.0,0.0,0.0,0.0,90.0,63.0,90.0,89.5724029541,115.67381286620001,89.63606262209998,47.5979995728,14.810228347799999,2.8999998569,0,2,25,1,235,186
77,1530631953428,3866428, RC,0,39.9586186,-88.445067899,0,0.0,0.0,0.0,0.0,0.0,0.0,0.0,0.0,0.0,0.0,0.0,0.0,0.0,1500,1500,0.0,0.0,40.0483563333,-88.2331578333,0.0,0.0,0.0,0.0,0.0,0.0,0.0,0.0,0.0,0.0,0.0,0,0.0,0.0,0.0,0.0,90.0,63.0,90.0,89.82704925540001,116.3740844727,89.63606262209998,47.5979995728,14.810228347799999,2.8999998569,0,2,25,1,240,188
78,1530631953478,3866478, RC,0,39.9586186,-88.445067899,0,0.0,0.0,0.0,0.0,0.0,0.0,0.0,0.0,0.0,0.0,0.0,0.0,0.0,1500,1500,0.0,0.0,40.0483563333,-88.2331578333,0.0,0.0,0.0,0.0,0.0,0.0,0.0,0.0,0.0,0.0,0.0,0,0.0,0.0,0.0,0.0,90.0,63.0,90.0,89.82704925540001,116.62874603270001,89.63606262209998,47.5979995728,14.810228347799999,2.8999998569,0,2,25,1,235,190
79,1530631953528,3866528, RC,0,39.9586186,-88.445067899,0,0.0,0.0,0.0,0.0,0.0,0.0,0.0,0.0,0.0,0.0,0.0,0.0,0.0,1500,1500,0.0,0.0,40.0483563333,-88.2331578333,0.0,0.0,0.0,0.0,0.0,0.0,0.0,0.0,0.0,0.0,0.0,0,0.0,0.0,0.0,0.0,90.0,63.0,90.0,89.82704925540001,116.6924057007,89.63606262209998,47.5979995728,14.810228347799999,2.8999998569,0,2,25,1,241,192
80,1530631953579,3866579, RC,0,39.9586186,-88.445067899,0,0.0,0.0,0.0,0.0,0.0,0.0,0.0,0.0,0.0,0.0,0.0,0.0,0.0,1500,1500,0.0,0.0,40.0483563333,-88.2331578333,0.0,0.0,0.0,0.0,0.0,0.0,0.0,0.0,0.0,0.0,0.0,0,0.0,0.0,0.0,0.0,90.0,63.0,90.0,89.82704925540001,116.6924057007,89.63606262209998,47.5979995728,14.810228347799999,2.8999998569,0,2,25,1,233,194
81,1530631953629,3866629, RC,0,39.9586186,-88.445067899,0,0.0,0.0,0.0,0.0,0.0,0.0,0.0,0.0,0.0,0.0,0.0,0.0,0.0,1500,1500,0.0,0.0,40.0483563333,-88.2331578333,0.0,0.0,0.0,0.0,0.0,0.0,0.0,0.0,0.0,0.0,0.0,0,0.0,0.0,0.0,0.0,90.0,63.0,90.0,89.82704925540001,116.6924057007,89.63606262209998,47.5979995728,14.8054180145,2.7899999619,0,2,25,1,215,196
82,1530631953679,3866679, RC,0,39.9586186,-88.445067899,0,0.0,0.0,0.0,0.0,0.0,0.0,0.0,0.0,0.0,0.0,0.0,0.0,0.0,1500,1500,0.0,0.0,40.0483563333,-88.2331578333,0.0,0.0,0.0,0.0,0.0,0.0,0.0,0.0,0.0,0.0,0.0,0,0.0,0.0,0.0,0.0,90.0,63.0,90.0,89.82704925540001,116.6924057007,89.63606262209998,47.5979995728,14.8054180145,2.7899999619,0,2,25,1,222,198
83,1530631953730,3866730, RC,0,39.9586186,-88.445067899,0,0.0,0.0,0.0,0.0,0.0,0.0,0.0,0.0,0.0,0.0,0.0,0.0,0.0,1500,1500,0.0,0.0,40.0483563333,-88.2331578333,0.0,0.0,0.0,0.0,0.0,0.0,0.0,0.0,0.0,0.0,0.0,0,0.0,0.0,0.0,0.0,90.0,63.0,90.0,89.82704925540001,116.6924057007,89.63606262209998,47.5979995728,14.8054180145,2.7899999619,0,2,25,1,238,200
84,1530631953780,3866780, RC,0,39.9586186,-88.445067899,0,0.0,0.0,0.0,0.0,0.0,0.0,0.0,0.0,0.0,0.0,0.0,0.0,0.0,1500,1500,0.0,0.0,40.0483563333,-88.2331578333,0.0,0.0,0.0,0.0,0.0,0.0,0.0,0.0,0.0,0.0,0.0,0,0.0,0.0,0.0,0.0,90.0,63.0,90.0,89.82704925540001,116.6924057007,89.63606262209998,47.5979995728,14.8054180145,2.7899999619,0,2,25,1,236,202
85,1530631953830,3866830, RC,0,39.9586186,-88.445067899,0,0.0,0.0,0.0,0.0,0.0,0.0,0.0,0.0,0.0,0.0,0.0,0.0,0.0,1500,1500,0.0,0.0,40.0483556667,-88.233158,0.0,0.0,0.0,0.0,0.0,0.0,0.0,0.0,0.0,0.0,0.0,0,0.0,0.0,0.0,0.0,90.0,60.0,90.0,89.82704925540001,116.6924057007,89.63606262209998,47.5979995728,14.8054180145,2.7899999619,0,2,25,1,232,204
86,1530631953881,3866881, RC,0,39.9586186,-88.445067899,0,0.0,0.0,0.0,0.0,0.0,0.0,0.0,0.0,0.0,0.0,0.0,0.0,0.0,1500,1500,0.0,0.0,40.0483556667,-88.233158,0.0,0.0,0.0,0.0,0.0,0.0,0.0,0.0,0.0,0.0,0.0,0,0.0,0.0,0.0,0.0,90.0,60.0,90.0,89.82704925540001,116.88338470459999,89.63606262209998,47.5979995728,14.8054180145,2.7899999619,0,2,25,1,239,206
87,1530631953931,3866931, RC,0,39.9586186,-88.445067899,0,0.0,0.0,0.0,0.0,0.0,0.0,0.0,0.0,0.0,0.0,0.0,0.0,0.0,1500,1500,0.0,0.0,40.0483556667,-88.233158,0.0,0.0,0.0,0.0,0.0,0.0,0.0,0.0,0.0,0.0,0.0,0,0.0,0.0,0.0,0.0,90.0,60.0,90.0,89.82704925540001,120.83042907709999,89.63606262209998,47.5979995728,14.8054180145,2.7899999619,0,2,25,1,227,208
88,1530631953981,3866981, RC,0,39.9586186,-88.445067899,0,0.0,0.0,0.0,0.0,0.0,0.0,0.0,0.0,0.0,0.0,0.0,0.0,0.0,1500,1500,0.0,0.0,40.0483556667,-88.233158,0.0,0.0,0.0,0.0,0.0,0.0,0.0,0.0,0.0,0.0,0.0,0,0.0,0.0,0.0,0.0,90.0,60.0,90.0,89.82704925540001,120.8940887451,89.63606262209998,47.5979995728,14.8054180145,2.7899999619,0,2,25,1,234,210
89,1530631954032,3867032, RC,0,39.9586186,-88.445067899,0,0.0,0.0,0.0,0.0,0.0,0.0,0.0,0.0,0.0,0.0,0.0,0.0,0.0,1500,1500,0.0,0.0,40.0483556667,-88.233158,0.0,0.0,0.0,0.0,0.0,0.0,0.0,0.0,0.0,0.0,0.0,0,0.0,0.0,0.0,0.0,90.0,60.0,90.0,89.82704925540001,119.4935302734,89.63606262209998,47.5979995728,14.8054180145,2.7899999619,0,2,25,1,230,211
90,1530631954082,3867082, RC,0,39.9586186,-88.445067899,0,0.0,0.0,0.0,0.0,0.0,0.0,0.0,0.0,0.0,0.0,0.0,0.0,0.0,1500,1500,0.0,0.0,40.0483556667,-88.233158,0.0,0.0,0.0,0.0,0.0,0.0,0.0,0.0,0.0,0.0,0.0,0,0.0,0.0,0.0,0.0,90.0,60.0,90.0,89.82704925540001,119.4935302734,89.63606262209998,47.5979995728,14.8054180145,2.7899999619,0,2,25,1,235,213
91,1530631954133,3867133, RC,0,39.9586186,-88.445067899,0,0.0,0.0,0.0,0.0,0.0,0.0,0.0,0.0,0.0,0.0,0.0,0.0,0.0,1500,1500,0.0,0.0,40.0483556667,-88.233158,0.0,0.0,0.0,0.0,0.0,0.0,0.0,0.0,0.0,0.0,0.0,0,0.0,0.0,0.0,0.0,90.0,60.0,90.0,89.82704925540001,119.6845169067,89.63606262209998,47.5979995728,14.8054180145,2.7899999619,0,2,25,1,226,215
92,1530631954184,3867184, RC,0,39.9586186,-88.445067899,0,0.0,0.0,0.0,0.0,0.0,0.0,0.0,0.0,0.0,0.0,0.0,0.0,0.0,1500,1500,0.0,0.0,40.0483556667,-88.233158,0.0,0.0,0.0,0.0,0.0,0.0,0.0,0.0,0.0,0.0,0.0,0,0.0,0.0,0.0,0.0,90.0,60.0,90.0,89.82704925540001,119.6845169067,89.63606262209998,47.5979995728,14.8054180145,2.7899999619,0,2,25,1,232,217
93,1530631954234,3867234, RC,0,39.9586186,-88.445067899,0,0.0,0.0,0.0,0.0,0.0,0.0,0.0,0.0,0.0,0.0,0.0,0.0,0.0,1500,1500,0.0,0.0,40.0483556667,-88.233158,0.0,0.0,0.0,0.0,0.0,0.0,0.0,0.0,0.0,0.0,0.0,0,0.0,0.0,0.0,0.0,90.0,60.0,90.0,89.82704925540001,119.6845169067,89.63606262209998,47.5979995728,14.8054180145,2.7899999619,0,2,25,1,242,219
94,1530631954285,3867285, RC,0,39.9586186,-88.445067899,0,0.0,0.0,0.0,0.0,0.0,0.0,0.0,0.0,0.0,0.0,0.0,0.0,0.0,1500,1500,0.0,0.0,40.0483556667,-88.233158,0.0,0.0,0.0,0.0,0.0,0.0,0.0,0.0,0.0,0.0,0.0,0,0.0,0.0,0.0,0.0,90.0,60.0,90.0,89.82704925540001,119.6845169067,89.63606262209998,47.5979995728,14.8054180145,2.7899999619,0,2,25,1,229,221
95,1530631954335,3867335, RC,0,39.9586186,-88.445067899,0,0.0,0.0,0.0,0.0,0.0,0.0,0.0,0.0,0.0,0.0,0.0,0.0,0.0,1500,1500,0.0,0.0,40.0483556667,-88.233158,0.0,0.0,0.0,0.0,0.0,0.0,0.0,0.0,0.0,0.0,0.0,0,0.0,0.0,0.0,0.0,90.0,60.0,90.0,89.82704925540001,119.6845169067,89.63606262209998,47.5979995728,14.8054180145,2.7899999619,0,2,25,1,237,223
96,1530631954386,3867386, RC,0,39.9586186,-88.445067899,0,0.0,0.0,0.0,0.0,0.0,0.0,0.0,0.0,0.0,0.0,0.0,0.0,0.0,1500,1500,0.0,0.0,40.0483556667,-88.233158,0.0,0.0,0.0,0.0,0.0,0.0,0.0,0.0,0.0,0.0,0.0,0,0.0,0.0,0.0,0.0,90.0,60.0,90.0,89.82704925540001,119.6845169067,89.63606262209998,47.5979995728,14.8054180145,2.7899999619,0,2,25,1,227,225
97,1530631954437,3867437, RC,0,39.9586186,-88.445067899,0,0.0,0.0,0.0,0.0,0.0,0.0,0.0,0.0,0.0,0.0,0.0,0.0,0.0,1500,1500,0.0,0.0,40.0483556667,-88.233158,0.0,0.0,0.0,0.0,0.0,0.0,0.0,0.0,0.0,0.0,0.0,0,0.0,0.0,0.0,0.0,90.0,60.0,90.0,89.82704925540001,119.6845169067,89.63606262209998,47.5979995728,14.8054180145,2.7899999619,0,2,25,1,231,227
98,1530631954487,3867487, RC,0,39.9586186,-88.445067899,0,0.0,0.0,0.0,0.0,0.0,0.0,0.0,0.0,0.0,0.0,0.0,0.0,0.0,1500,1500,0.0,0.0,40.0483556667,-88.233158,0.0,0.0,0.0,0.0,0.0,0.0,0.0,0.0,0.0,0.0,0.0,0,0.0,0.0,0.0,0.0,90.0,60.0,90.0,89.82704925540001,119.6845169067,89.63606262209998,47.5979995728,14.8054180145,2.7899999619,0,2,25,1,243,229
99,1530631954538,3867538, RC,0,39.9586186,-88.445067899,0,0.0,0.0,0.0,0.0,0.0,0.0,0.0,0.0,0.0,0.0,0.0,0.0,0.0,1500,1500,0.0,0.0,40.0483556667,-88.233158,0.0,0.0,0.0,0.0,0.0,0.0,0.0,0.0,0.0,0.0,0.0,0,0.0,0.0,0.0,0.0,90.0,60.0,90.0,89.82704925540001,119.6845169067,89.63606262209998,47.5979995728,14.8054180145,2.7899999619,0,2,25,1,230,231
100,1530631954589,3867589, RC,0,39.9586186,-88.445067899,0,0.0,0.0,0.0,0.0,0.0,0.0,0.0,0.0,0.0,0.0,0.0,0.0,0.0,1500,1500,0.0,0.0,40.0483556667,-88.233158,0.0,0.0,0.0,0.0,0.0,0.0,0.0,0.0,0.0,0.0,0.0,0,0.0,0.0,0.0,0.0,90.0,60.0,90.0,89.82704925540001,119.6845169067,89.63606262209998,47.5979995728,14.8054180145,2.7899999619,0,2,25,1,240,233
101,1530631954639,3867639, RC,0,39.9586186,-88.445067899,0,0.0,0.0,0.0,0.0,0.0,0.0,0.0,0.0,0.0,0.0,0.0,0.0,0.0,1500,1500,0.0,0.0,40.0483556667,-88.233158,0.0,0.0,0.0,0.0,0.0,0.0,0.0,0.0,0.0,0.0,0.0,0,0.0,0.0,0.0,0.0,90.0,60.0,90.0,89.82704925540001,119.6845169067,89.63606262209998,47.5979995728,14.8056917191,2.6799998283,0,2,25,1,232,235
102,1530631954690,3867690, RC,0,39.9586186,-88.445067899,0,0.0,0.0,0.0,0.0,0.0,0.0,0.0,0.0,0.0,0.0,0.0,0.0,0.0,1500,1500,0.0,0.0,40.0483556667,-88.233158,0.0,0.0,0.0,0.0,0.0,0.0,0.0,0.0,0.0,0.0,0.0,0,0.0,0.0,0.0,0.0,90.0,60.0,90.0,89.82704925540001,119.6845169067,89.63606262209998,47.5979995728,14.8056917191,2.6799998283,0,2,25,1,233,237
103,1530631954741,3867741, RC,0,39.9586186,-88.445067899,0,0.0,0.0,0.0,0.0,0.0,0.0,0.0,0.0,0.0,0.0,0.0,0.0,0.0,1500,1500,0.0,0.0,40.0483556667,-88.233158,0.0,0.0,0.0,0.0,0.0,0.0,0.0,0.0,0.0,0.0,0.0,0,0.0,0.0,0.0,0.0,90.0,60.0,88.0,89.82704925540001,119.6845169067,89.63606262209998,47.5979995728,14.8056917191,2.6799998283,0,2,25,1,227,239
104,1530631954791,3867791, RC,0,39.9586186,-88.445067899,0,0.0,0.0,0.0,0.0,0.0,0.0,0.0,0.0,0.0,0.0,0.0,0.0,0.0,1500,1500,0.0,0.0,40.0483556667,-88.233158,0.0,0.0,0.0,0.0,0.0,0.0,0.0,0.0,0.0,0.0,0.0,0,0.0,0.0,0.0,0.0,90.0,60.0,88.0,89.82704925540001,119.6845169067,89.63606262209998,47.5979995728,14.8056917191,2.6799998283,0,2,25,1,221,240
105,1530631954842,3867842, RC,0,39.9586186,-88.445067899,0,0.0,0.0,0.0,0.0,0.0,0.0,0.0,0.0,0.0,0.0,0.0,0.0,0.0,1500,1500,0.0,0.0,40.0483571667,-88.233157,0.0,0.0,0.0,0.0,0.0,0.0,0.0,0.0,0.0,0.0,0.0,0,0.0,0.0,0.0,0.0,90.0,60.0,76.0,89.82704925540001,119.6845169067,89.63606262209998,47.5979995728,14.8056917191,2.6799998283,0,2,25,1,225,242
106,1530631954893,3867893, RC,0,39.9586186,-88.445067899,0,0.0,0.0,0.0,0.0,0.0,0.0,0.0,0.0,0.0,0.0,0.0,0.0,0.0,1500,1500,0.0,0.0,40.0483571667,-88.233157,0.0,0.0,0.0,0.0,0.0,0.0,0.0,0.0,0.0,0.0,0.0,0,0.0,0.0,0.0,0.0,90.0,60.0,76.0,89.82704925540001,119.6845169067,95.23831939700001,47.5979995728,14.8056917191,2.6799998283,0,2,25,1,228,244
107,1530631954943,3867943, RC,0,39.9586186,-88.445067899,0,0.0,0.0,0.0,0.0,0.0,0.0,0.0,0.0,0.0,0.0,0.0,0.0,0.0,1500,1500,0.0,0.0,40.0483571667,-88.233157,0.0,0.0,0.0,0.0,0.0,0.0,0.0,0.0,0.0,0.0,0.0,0,0.0,0.0,0.0,0.0,90.0,60.0,66.0,89.82704925540001,119.6845169067,104.787612915,47.5979995728,14.8056917191,2.6799998283,0,2,25,1,185,246
108,1530631954994,3867994, RC,0,39.9586186,-88.445067899,0,0.0,0.0,0.0,0.0,0.0,0.0,0.0,0.0,0.0,0.0,0.0,0.0,0.0,1500,1500,0.0,0.0,40.0483571667,-88.233157,0.0,0.0,0.0,0.0,0.0,0.0,0.0,0.0,0.0,0.0,0.0,0,0.0,0.0,0.0,0.0,90.0,60.0,66.0,89.82704925540001,119.6845169067,106.6338119507,47.5979995728,14.8056917191,2.6799998283,0,2,25,1,121,248
109,1530631955044,3868044, RC,0,39.9586186,-88.445067899,0,0.0,0.0,0.0,0.0,0.0,0.0,0.0,0.0,0.0,0.0,0.0,0.0,0.0,1500,1500,0.0,0.0,40.0483571667,-88.233157,0.0,0.0,0.0,0.0,0.0,0.0,0.0,0.0,0.0,0.0,0.0,0,0.0,0.0,0.0,0.0,90.0,60.0,60.0,89.82704925540001,119.6845169067,114.4642410278,47.5979995728,14.8056917191,2.6799998283,0,2,25,1,140,250
110,1530631955095,3868095, RC,0,39.9586186,-88.445067899,0,0.0,0.0,0.0,0.0,0.0,0.0,0.0,0.0,0.0,0.0,0.0,0.0,0.0,1500,1500,0.0,0.0,40.0483571667,-88.233157,0.0,0.0,0.0,0.0,0.0,0.0,0.0,0.0,0.0,0.0,0.0,0,0.0,0.0,0.0,0.0,90.0,60.0,60.0,89.82704925540001,120.00283050540001,116.1194458008,47.5979995728,14.8056917191,2.6799998283,0,2,25,1,133,252
111,1530631955146,3868146, RC,0,39.9586186,-88.445067899,0,0.0,0.0,0.0,0.0,0.0,0.0,0.0,0.0,0.0,0.0,0.0,0.0,0.0,1500,1500,0.0,0.0,40.0483571667,-88.233157,0.0,0.0,0.0,0.0,0.0,0.0,0.0,0.0,0.0,0.0,0.0,0,0.0,0.0,0.0,0.0,90.0,60.0,60.0,89.82704925540001,120.00283050540001,119.0479049683,47.5979995728,14.8056917191,2.6799998283,0,2,25,1,85,254
112,1530631955196,3868196, RC,0,39.9586186,-88.445067899,0,0.0,0.0,0.0,0.0,0.0,0.0,0.0,0.0,0.0,0.0,0.0,0.0,0.0,1500,1500,0.0,0.0,40.0483571667,-88.233157,0.0,0.0,0.0,0.0,0.0,0.0,0.0,0.0,0.0,0.0,0.0,0,0.0,0.0,0.0,0.0,90.0,60.0,60.0,89.82704925540001,120.00283050540001,119.3025436401,47.5979995728,14.8056917191,2.6799998283,0,2,25,1,111,256
113,1530631955247,3868247, RC,0,39.9586186,-88.445067899,0,0.0,0.0,0.0,0.0,0.0,0.0,0.0,0.0,0.0,0.0,0.0,0.0,0.0,1500,1500,0.0,0.0,40.0483571667,-88.233157,0.0,0.0,0.0,0.0,0.0,0.0,0.0,0.0,0.0,0.0,0.0,0,0.0,0.0,0.0,0.0,90.0,60.0,57.0,89.82704925540001,120.00283050540001,119.3025436401,47.5979995728,14.8056917191,2.6799998283,0,2,25,1,116,258
114,1530631955298,3868298, RC,0,39.9586186,-88.445067899,0,0.0,0.0,0.0,0.0,0.0,0.0,0.0,0.0,0.0,0.0,0.0,0.0,0.0,1500,1500,0.0,0.0,40.0483571667,-88.233157,0.0,0.0,0.0,0.0,0.0,0.0,0.0,0.0,0.0,0.0,0.0,0,0.0,0.0,0.0,0.0,90.0,60.0,57.0,89.82704925540001,120.00283050540001,120.8940887451,47.5979995728,14.8056917191,2.6799998283,0,2,25,1,114,260
115,1530631955348,3868348, RC,0,39.9586186,-88.445067899,0,0.0,0.0,0.0,0.0,0.0,0.0,0.0,0.0,0.0,0.0,0.0,0.0,0.0,1500,1500,0.0,0.0,40.0483571667,-88.233157,0.0,0.0,0.0,0.0,0.0,0.0,0.0,0.0,0.0,0.0,0.0,0,0.0,0.0,0.0,0.0,90.0,60.0,57.0,89.82704925540001,120.00283050540001,123.2495880127,47.5979995728,14.8056917191,2.6799998283,0,2,25,1,89,262
116,1530631955399,3868399, RC,0,39.9586186,-88.445067899,0,0.0,0.0,0.0,0.0,0.0,0.0,0.0,0.0,0.0,0.0,0.0,0.0,0.0,1500,1500,0.0,0.0,40.0483571667,-88.233157,0.0,0.0,0.0,0.0,0.0,0.0,0.0,0.0,0.0,0.0,0.0,0,0.0,0.0,0.0,0.0,90.0,60.0,57.0,89.82704925540001,120.00283050540001,123.75888824459999,47.5979995728,14.8056917191,2.6799998283,0,2,25,1,89,264
117,1530631955450,3868450, RC,0,39.9586186,-88.445067899,0,0.0,0.0,0.0,0.0,0.0,0.0,0.0,0.0,0.0,0.0,0.0,0.0,0.0,1500,1500,0.0,0.0,40.0483571667,-88.233157,0.0,0.0,0.0,0.0,0.0,0.0,0.0,0.0,0.0,0.0,0.0,0,0.0,0.0,0.0,0.0,90.0,60.0,57.0,89.82704925540001,120.00283050540001,123.6952209473,47.5979995728,14.8056917191,2.6799998283,0,2,25,1,104,266
118,1530631955500,3868500, RC,0,39.9586186,-88.445067899,0,0.0,0.0,0.0,0.0,0.0,0.0,0.0,0.0,0.0,0.0,0.0,0.0,0.0,1500,1500,0.0,0.0,40.0483571667,-88.233157,0.0,0.0,0.0,0.0,0.0,0.0,0.0,0.0,0.0,0.0,0.0,0,0.0,0.0,0.0,0.0,90.0,60.0,57.0,89.82704925540001,120.00283050540001,123.6952209473,47.5979995728,14.8056917191,2.6799998283,0,2,25,1,87,268
119,1530631955551,3868551, RC,0,39.9586186,-88.445067899,0,0.0,0.0,0.0,0.0,0.0,0.0,0.0,0.0,0.0,0.0,0.0,0.0,0.0,1500,1500,0.0,0.0,40.0483571667,-88.233157,0.0,0.0,0.0,0.0,0.0,0.0,0.0,0.0,0.0,0.0,0.0,0,0.0,0.0,0.0,0.0,90.0,60.0,57.0,89.82704925540001,120.00283050540001,123.6952209473,47.5979995728,14.8056917191,2.6799998283,0,2,25,1,93,269
120,1530631955601,3868601, RC,0,39.9586186,-88.445067899,0,0.0,0.0,0.0,0.0,0.0,0.0,0.0,0.0,0.0,0.0,0.0,0.0,0.0,1500,1500,0.0,0.0,40.0483571667,-88.233157,0.0,0.0,0.0,0.0,0.0,0.0,0.0,0.0,0.0,0.0,0.0,0,0.0,0.0,0.0,0.0,90.0,60.0,57.0,89.82704925540001,120.00283050540001,123.6952209473,47.5979995728,14.8056917191,2.6799998283,0,2,25,1,83,271
121,1530631955652,3868652, RC,0,39.9586186,-88.445067899,0,0.0,0.0,0.0,0.0,0.0,0.0,0.0,0.0,0.0,0.0,0.0,0.0,0.0,1500,1500,0.0,0.0,40.0483571667,-88.233157,0.0,0.0,0.0,0.0,0.0,0.0,0.0,0.0,0.0,0.0,0.0,0,0.0,0.0,0.0,0.0,90.0,60.0,57.0,89.82704925540001,120.00283050540001,123.6952209473,47.5979995728,14.8059663773,2.5799999237,0,2,25,1,84,273
122,1530631955703,3868703, RC,0,39.9586186,-88.445067899,0,0.0,0.0,0.0,0.0,0.0,0.0,0.0,0.0,0.0,0.0,0.0,0.0,0.0,1500,1500,0.0,0.0,40.0483571667,-88.233157,0.0,0.0,0.0,0.0,0.0,0.0,0.0,0.0,0.0,0.0,0.0,0,0.0,0.0,0.0,0.0,90.0,60.0,57.0,89.82704925540001,120.00283050540001,123.6315612793,47.5979995728,14.8059663773,2.5799999237,0,2,25,1,96,275
123,1530631955753,3868753, RC,0,39.9586186,-88.445067899,0,0.0,0.0,0.0,0.0,0.0,0.0,0.0,0.0,0.0,0.0,0.0,0.0,0.0,1500,1500,0.0,0.0,40.0483571667,-88.233157,0.0,0.0,0.0,0.0,0.0,0.0,0.0,0.0,0.0,0.0,0.0,0,0.0,0.0,0.0,0.0,90.0,60.0,57.0,89.82704925540001,120.00283050540001,123.6315612793,47.5979995728,14.8059663773,2.5799999237,0,2,25,1,103,277
124,1530631955804,3868804, RC,0,39.9586186,-88.445067899,0,0.0,0.0,0.0,0.0,0.0,0.0,0.0,0.0,0.0,0.0,0.0,0.0,0.0,1500,1500,0.0,0.0,40.0483571667,-88.233157,0.0,0.0,0.0,0.0,0.0,0.0,0.0,0.0,0.0,0.0,0.0,0,0.0,0.0,0.0,0.0,90.0,60.0,57.0,89.82704925540001,120.00283050540001,123.6315612793,47.5979995728,14.8059663773,2.5799999237,0,2,25,1,93,279
125,1530631955855,3868855, RC,0,39.9586186,-88.445067899,0,0.0,0.0,0.0,0.0,0.0,0.0,0.0,0.0,0.0,0.0,0.0,0.0,0.0,1500,1500,0.0,0.0,40.0483565,-88.233157,0.0,0.0,0.0,0.0,0.0,0.0,0.0,0.0,0.0,0.0,0.0,0,0.0,0.0,0.0,0.0,90.0,60.0,57.0,89.82704925540001,120.00283050540001,123.6315612793,47.5979995728,14.8059663773,2.5799999237,0,2,25,1,97,281
126,1530631955906,3868906, RC,0,39.9586186,-88.445067899,0,0.0,0.0,0.0,0.0,0.0,0.0,0.0,0.0,0.0,0.0,0.0,0.0,0.0,1500,1500,0.0,0.0,40.0483565,-88.233157,0.0,0.0,0.0,0.0,0.0,0.0,0.0,0.0,0.0,0.0,0.0,0,0.0,0.0,0.0,0.0,90.0,60.0,57.0,89.82704925540001,120.00283050540001,123.6315612793,47.5979995728,14.8059663773,2.5799999237,0,2,25,1,90,283
127,1530631955957,3868957, RC,0,39.9586186,-88.445067899,0,0.0,0.0,0.0,0.0,0.0,0.0,0.0,0.0,0.0,0.0,0.0,0.0,0.0,1500,1500,0.0,0.0,40.0483565,-88.233157,0.0,0.0,0.0,0.0,0.0,0.0,0.0,0.0,0.0,0.0,0.0,0,0.0,0.0,0.0,0.0,90.0,60.0,58.0,89.82704925540001,120.00283050540001,123.6315612793,47.5979995728,14.8059663773,2.5799999237,0,2,25,1,101,285
128,1530631956007,3869007, RC,0,39.9586186,-88.445067899,0,0.0,0.0,0.0,0.0,0.0,0.0,0.0,0.0,0.0,0.0,0.0,0.0,0.0,1500,1500,0.0,0.0,40.0483565,-88.233157,0.0,0.0,0.0,0.0,0.0,0.0,0.0,0.0,0.0,0.0,0.0,0,0.0,0.0,0.0,0.0,90.0,60.0,58.0,89.82704925540001,120.00283050540001,123.1222610474,47.5979995728,14.8059663773,2.5799999237,0,2,25,1,95,286
129,1530631956058,3869058, RC,0,39.9586186,-88.445067899,0,0.0,0.0,0.0,0.0,0.0,0.0,0.0,0.0,0.0,0.0,0.0,0.0,0.0,1500,1500,0.0,0.0,40.0483565,-88.233157,0.0,0.0,0.0,0.0,0.0,0.0,0.0,0.0,0.0,0.0,0.0,0,0.0,0.0,0.0,0.0,90.0,60.0,58.0,89.82704925540001,120.00283050540001,122.3583145142,47.5979995728,14.8059663773,2.5799999237,0,2,25,1,87,288
130,1530631956109,3869109, RC,0,39.9586186,-88.445067899,0,0.0,0.0,0.0,0.0,0.0,0.0,0.0,0.0,0.0,0.0,0.0,0.0,0.0,1500,1500,0.0,0.0,40.0483565,-88.233157,0.0,0.0,0.0,0.0,0.0,0.0,0.0,0.0,0.0,0.0,0.0,0,0.0,0.0,0.0,0.0,90.0,60.0,58.0,89.82704925540001,120.00283050540001,122.10367584229999,47.5979995728,14.8059663773,2.5799999237,0,2,25,1,92,290
131,1530631956159,3869159, RC,0,39.9586186,-88.445067899,0,0.0,0.0,0.0,0.0,0.0,0.0,0.0,0.0,0.0,0.0,0.0,0.0,0.0,1500,1500,0.0,0.0,40.0483565,-88.233157,0.0,0.0,0.0,0.0,0.0,0.0,0.0,0.0,0.0,0.0,0.0,0,0.0,0.0,0.0,0.0,90.0,60.0,58.0,89.82704925540001,120.00283050540001,121.976348877,47.5979995728,14.8059663773,2.5799999237,0,2,25,1,121,292
132,1530631956210,3869210, RC,0,39.9586186,-88.445067899,0,0.0,0.0,0.0,0.0,0.0,0.0,0.0,0.0,0.0,0.0,0.0,0.0,0.0,1500,1500,0.0,0.0,40.0483565,-88.233157,0.0,0.0,0.0,0.0,0.0,0.0,0.0,0.0,0.0,0.0,0.0,0,0.0,0.0,0.0,0.0,90.0,60.0,58.0,89.82704925540001,120.00283050540001,121.976348877,47.5979995728,14.8059663773,2.5799999237,0,2,25,1,109,294
133,1530631956310,3869310, RC,0,39.9586186,-88.445067899,0,0.0,0.0,0.0,0.0,0.0,0.0,0.0,0.0,0.0,0.0,0.0,0.0,0.0,1500,1500,0.0,0.0,40.0483565,-88.233157,0.0,0.0,0.0,0.0,0.0,0.0,0.0,0.0,0.0,0.0,0.0,0,0.0,0.0,0.0,0.0,90.0,60.0,58.0,89.82704925540001,120.00283050540001,121.976348877,47.5979995728,14.8059663773,2.5799999237,0,2,25,1,104,298
134,1530631956361,3869361, RC,0,39.9586186,-88.445067899,0,0.0,0.0,0.0,0.0,0.0,0.0,0.0,0.0,0.0,0.0,0.0,0.0,0.0,1500,1500,0.0,0.0,40.0483565,-88.233157,0.0,0.0,0.0,0.0,0.0,0.0,0.0,0.0,0.0,0.0,0.0,0,0.0,0.0,0.0,0.0,90.0,60.0,58.0,89.82704925540001,120.00283050540001,121.976348877,47.059997558599996,14.8059663773,2.5799999237,0,2,25,1,113,299
135,1530631956411,3869411, RC,0,39.9586186,-88.445067899,0,0.0,0.0,0.0,0.0,0.0,0.0,0.0,0.0,0.0,0.0,0.0,0.0,0.0,1500,1500,0.0,0.0,40.0483565,-88.233157,0.0,0.0,0.0,0.0,0.0,0.0,0.0,0.0,0.0,0.0,0.0,0,0.0,0.0,0.0,0.0,90.0,60.0,58.0,89.82704925540001,120.00283050540001,121.976348877,47.059997558599996,14.8059663773,2.5799999237,0,2,25,1,116,301
136,1530631956461,3869461, RC,0,39.9586186,-88.445067899,0,0.0,0.0,0.0,0.0,0.0,0.0,0.0,0.0,0.0,0.0,0.0,0.0,0.0,1500,1500,0.0,0.0,40.0483565,-88.233157,0.0,0.0,0.0,0.0,0.0,0.0,0.0,0.0,0.0,0.0,0.0,0,0.0,0.0,0.0,0.0,90.0,60.0,60.0,89.82704925540001,120.00283050540001,121.976348877,47.059997558599996,14.8059663773,2.5799999237,0,2,25,1,118,303
137,1530631956512,3869512, RC,0,39.9586186,-88.445067899,0,0.0,0.0,0.0,0.0,0.0,0.0,0.0,0.0,0.0,0.0,0.0,0.0,0.0,1500,1500,0.0,0.0,40.0483565,-88.233157,0.0,0.0,0.0,0.0,0.0,0.0,0.0,0.0,0.0,0.0,0.0,0,0.0,0.0,0.0,0.0,90.0,60.0,60.0,89.82704925540001,120.00283050540001,121.2124023438,47.059997558599996,14.8059663773,2.5799999237,0,2,25,1,115,305
138,1530631956562,3869562, RC,0,39.9586186,-88.445067899,0,0.0,0.0,0.0,0.0,0.0,0.0,0.0,0.0,0.0,0.0,0.0,0.0,0.0,1500,1500,0.0,0.0,40.0483565,-88.233157,0.0,0.0,0.0,0.0,0.0,0.0,0.0,0.0,0.0,0.0,0.0,0,0.0,0.0,0.0,0.0,90.0,60.0,60.0,89.82704925540001,120.00283050540001,119.1752166748,47.059997558599996,14.8059663773,2.5799999237,0,2,25,1,91,307
139,1530631956612,3869612, RC,0,39.9586186,-88.445067899,0,0.0,0.0,0.0,0.0,0.0,0.0,0.0,0.0,0.0,0.0,0.0,0.0,0.0,1500,1500,0.0,0.0,40.0483565,-88.233157,0.0,0.0,0.0,0.0,0.0,0.0,0.0,0.0,0.0,0.0,0.0,0,0.0,0.0,0.0,0.0,90.0,60.0,60.0,89.82704925540001,120.00283050540001,119.1115570068,47.059997558599996,14.8059663773,2.5799999237,0,2,25,1,104,309
140,1530631956663,3869663, RC,0,39.9586186,-88.445067899,0,0.0,0.0,0.0,0.0,0.0,0.0,0.0,0.0,0.0,0.0,0.0,0.0,0.0,1500,1500,0.0,0.0,40.0483565,-88.233157,0.0,0.0,0.0,0.0,0.0,0.0,0.0,0.0,0.0,0.0,0.0,0,0.0,0.0,0.0,0.0,90.0,60.0,60.0,89.82704925540001,120.00283050540001,119.1115570068,47.059997558599996,14.8061857224,2.5699999332,0,2,25,1,118,311
141,1530631956713,3869713, RC,0,39.9586186,-88.445067899,0,0.0,0.0,0.0,0.0,0.0,0.0,0.0,0.0,0.0,0.0,0.0,0.0,0.0,1500,1500,0.0,0.0,40.0483565,-88.233157,0.0,0.0,0.0,0.0,0.0,0.0,0.0,0.0,0.0,0.0,0.0,0,0.0,0.0,0.0,0.0,90.0,60.0,60.0,89.82704925540001,120.00283050540001,119.1115570068,47.059997558599996,14.8061857224,2.5699999332,0,2,25,1,129,312
142,1530631956763,3869763, RC,0,39.9586186,-88.445067899,0,0.0,0.0,0.0,0.0,0.0,0.0,0.0,0.0,0.0,0.0,0.0,0.0,0.0,1500,1500,0.0,0.0,40.0483565,-88.233157,0.0,0.0,0.0,0.0,0.0,0.0,0.0,0.0,0.0,0.0,0.0,0,0.0,0.0,0.0,0.0,90.0,60.0,60.0,89.82704925540001,120.00283050540001,119.1115570068,47.059997558599996,14.8061857224,2.5699999332,0,2,25,1,132,314
143,1530631956814,3869814, RC,0,39.9586186,-88.445067899,0,0.0,0.0,0.0,0.0,0.0,0.0,0.0,0.0,0.0,0.0,0.0,0.0,0.0,1500,1500,0.0,0.0,40.048356,-88.2331573333,0.0,0.0,0.0,0.0,0.0,0.0,0.0,0.0,0.0,0.0,0.0,0,0.0,0.0,0.0,0.0,90.0,60.0,60.0,89.82704925540001,120.00283050540001,119.1115570068,47.059997558599996,14.8061857224,2.5699999332,0,2,25,1,117,316
144,1530631956864,3869864, RC,0,39.9586186,-88.445067899,0,0.0,0.0,0.0,0.0,0.0,0.0,0.0,0.0,0.0,0.0,0.0,0.0,0.0,1500,1500,0.0,0.0,40.048356,-88.2331573333,0.0,0.0,0.0,0.0,0.0,0.0,0.0,0.0,0.0,0.0,0.0,0,0.0,0.0,0.0,0.0,90.0,60.0,60.0,89.82704925540001,120.00283050540001,119.1115570068,47.059997558599996,14.8061857224,2.5699999332,0,2,25,1,123,318
145,1530631956914,3869914, RC,0,39.9586186,-88.445067899,0,0.0,0.0,0.0,0.0,0.0,0.0,0.0,0.0,0.0,0.0,0.0,0.0,0.0,1500,1500,0.0,0.0,40.048356,-88.2331573333,0.0,0.0,0.0,0.0,0.0,0.0,0.0,0.0,0.0,0.0,0.0,0,0.0,0.0,0.0,0.0,90.0,60.0,60.0,89.82704925540001,120.00283050540001,119.1115570068,47.059997558599996,14.8061857224,2.5699999332,0,2,25,1,121,320
146,1530631956965,3869965, RC,0,39.9586186,-88.445067899,0,0.0,0.0,0.0,0.0,0.0,0.0,0.0,0.0,0.0,0.0,0.0,0.0,0.0,1500,1500,0.0,0.0,40.048356,-88.2331573333,0.0,0.0,0.0,0.0,0.0,0.0,0.0,0.0,0.0,0.0,0.0,0,0.0,0.0,0.0,0.0,90.0,60.0,60.0,89.82704925540001,120.00283050540001,119.1115570068,47.059997558599996,14.8061857224,2.5699999332,0,2,25,1,118,322
147,1530631957015,3870015, RC,0,39.9586186,-88.445067899,0,0.0,0.0,0.0,0.0,0.0,0.0,0.0,0.0,0.0,0.0,0.0,0.0,0.0,1500,1500,0.0,0.0,40.048356,-88.2331573333,0.0,0.0,0.0,0.0,0.0,0.0,0.0,0.0,0.0,0.0,0.0,0,0.0,0.0,0.0,0.0,90.0,60.0,60.0,89.82704925540001,120.00283050540001,119.1115570068,47.059997558599996,14.8061857224,2.5699999332,0,2,25,1,115,323
148,1530631957065,3870065, RC,0,39.9586186,-88.445067899,0,0.0,0.0,0.0,0.0,0.0,0.0,0.0,0.0,0.0,0.0,0.0,0.0,0.0,1500,1500,0.0,0.0,40.048356,-88.2331573333,0.0,0.0,0.0,0.0,0.0,0.0,0.0,0.0,0.0,0.0,0.0,0,0.0,0.0,0.0,0.0,90.0,60.0,60.0,89.82704925540001,120.00283050540001,119.1115570068,47.059997558599996,14.8061857224,2.5699999332,0,2,25,1,116,325
149,1530631957116,3870116, RC,0,39.9586186,-88.445067899,0,0.0,0.0,0.0,0.0,0.0,0.0,0.0,0.0,0.0,0.0,0.0,0.0,0.0,1500,1500,0.0,0.0,40.048356,-88.2331573333,0.0,0.0,0.0,0.0,0.0,0.0,0.0,0.0,0.0,0.0,0.0,0,0.0,0.0,0.0,0.0,90.0,60.0,60.0,89.82704925540001,120.00283050540001,119.1115570068,47.059997558599996,14.8061857224,2.5699999332,0,2,25,1,130,327
150,1530631957166,3870166, RC,0,39.9586186,-88.445067899,0,0.0,0.0,0.0,0.0,0.0,0.0,0.0,0.0,0.0,0.0,0.0,0.0,0.0,1500,1500,0.0,0.0,40.048356,-88.2331573333,0.0,0.0,0.0,0.0,0.0,0.0,0.0,0.0,0.0,0.0,0.0,0,0.0,0.0,0.0,0.0,90.0,60.0,60.0,89.82704925540001,120.00283050540001,119.1115570068,47.059997558599996,14.8061857224,2.5699999332,0,2,25,1,125,329
151,1530631957217,3870217, RC,0,39.9586186,-88.445067899,0,0.0,0.0,0.0,0.0,0.0,0.0,0.0,0.0,0.0,0.0,0.0,0.0,0.0,1500,1500,0.0,0.0,40.048356,-88.2331573333,0.0,0.0,0.0,0.0,0.0,0.0,0.0,0.0,0.0,0.0,0.0,0,0.0,0.0,0.0,0.0,90.0,60.0,60.0,89.82704925540001,120.00283050540001,119.1115570068,47.059997558599996,14.8061857224,2.5699999332,0,2,25,1,119,331
152,1530631957267,3870267, RC,0,39.9586186,-88.445067899,0,0.0,0.0,0.0,0.0,0.0,0.0,0.0,0.0,0.0,0.0,0.0,0.0,0.0,1500,1500,0.0,0.0,40.048356,-88.2331573333,0.0,0.0,0.0,0.0,0.0,0.0,0.0,0.0,0.0,0.0,0.0,0,0.0,0.0,0.0,0.0,90.0,60.0,60.0,89.82704925540001,120.00283050540001,119.1115570068,47.059997558599996,14.8061857224,2.5699999332,0,2,25,1,120,333
153,1530631957317,3870317, RC,0,39.9586186,-88.445067899,0,0.0,0.0,0.0,0.0,0.0,0.0,0.0,0.0,0.0,0.0,0.0,0.0,0.0,1500,1500,0.0,0.0,40.048356,-88.2331573333,0.0,0.0,0.0,0.0,0.0,0.0,0.0,0.0,0.0,0.0,0.0,0,0.0,0.0,0.0,0.0,90.0,60.0,60.0,89.82704925540001,120.00283050540001,119.1115570068,47.059997558599996,14.8061857224,2.5699999332,0,2,25,1,120,334
154,1530631957368,3870368, RC,0,39.9586186,-88.445067899,0,0.0,0.0,0.0,0.0,0.0,0.0,0.0,0.0,0.0,0.0,0.0,0.0,0.0,1500,1500,0.0,0.0,40.048356,-88.2331573333,0.0,0.0,0.0,0.0,0.0,0.0,0.0,0.0,0.0,0.0,0.0,0,0.0,0.0,0.0,0.0,90.0,60.0,60.0,89.82704925540001,120.00283050540001,119.1115570068,47.059997558599996,14.8061857224,2.5699999332,0,2,25,1,106,336
155,1530631957418,3870418, RC,0,39.9586186,-88.445067899,0,0.0,0.0,0.0,0.0,0.0,0.0,0.0,0.0,0.0,0.0,0.0,0.0,0.0,1500,1500,0.0,0.0,40.048356,-88.2331573333,0.0,0.0,0.0,0.0,0.0,0.0,0.0,0.0,0.0,0.0,0.0,0,0.0,0.0,0.0,0.0,90.0,60.0,60.0,89.82704925540001,120.00283050540001,119.1752166748,47.059997558599996,14.8061857224,2.5699999332,0,2,25,1,120,338
156,1530631957469,3870469, RC,0,39.9586186,-88.445067899,0,0.0,0.0,0.0,0.0,0.0,0.0016554058999999999,0.0,0.0,0.0,0.0,0.0,0.0,0.0,1500,1546,0.0,0.0,40.048356,-88.2331573333,0.0,0.0,0.0,0.0,0.0,0.0,0.0,0.0,0.0,0.0,0.0,0,0.0,0.0932400227,0.0014714720000000001,0.0018393398,90.0,60.0,60.0,89.82704925540001,119.939163208,119.1752166748,47.059997558599996,14.8061857224,2.5699999332,0,2,25,1,120,340
157,1530631957519,3870519, RC,0,39.9586186,-88.445067899,0,0.0,0.0,0.0,0.0,0.0,0.023451585299999998,0.0,0.0,0.0,0.0,0.0,0.0,0.0,1500,1546,0.0,0.0,40.048356,-88.2331573333,0.0,0.0,0.0,0.0,0.0,0.0,0.0,0.0,0.0,0.0,0.0,0,0.0,0.0932400227,0.025198957,0.0217042118,90.0,60.0,60.0,89.8907089233,119.6845169067,119.1752166748,47.059997558599996,14.8061857224,2.5699999332,0,2,25,1,126,342
158,1530631957569,3870569, RC,0,39.9586186,-88.445067899,0,0.0,0.0,0.0,0.0,0.0,0.052789054800000006,0.0,0.0,0.0,0.0,0.0,0.0,0.0,1500,1603,0.0,0.0,40.048356,-88.2331573333,0.0,0.0,0.0,0.0,0.0,0.0,0.0,0.0,0.0,0.0,0.0,0,0.0,0.2079969645,0.0513175838,0.054260525899999995,90.0,60.0,60.0,90.2726821899,119.87550354,118.9842300415,47.059997558599996,14.8061857224,2.5699999332,0,2,25,1,131,344
159,1530631957620,3870620, RC,0,39.9586186,-88.445067899,0,0.0,0.0,0.0,0.0,0.0,0.08166669309999999,0.0,0.0,0.0,0.0,0.0,0.0,0.0,1500,1622,0.0,0.0,40.048356,-88.2331573333,0.0,0.0,0.0,0.0,0.0,0.0,0.0,0.0,0.0,0.0,0.0,0,0.0,0.2451510429,0.0770683438,0.0862650424,90.0,60.0,60.0,90.8456420898,120.32112884520001,118.6659317017,47.059997558599996,14.8061857224,2.5699999332,0,2,25,1,126,345
160,1530631957670,3870670, RC,0,39.9586186,-88.445067899,0,0.0,0.0,0.0,0.0,0.0,0.1326164156,0.0,0.0,0.0,0.0,0.0,0.0,0.0,1500,1622,0.0,0.0,40.048356,-88.2331573333,0.0,0.0,0.0,0.0,0.0,0.0,0.0,0.0,0.0,0.0,0.0,0,0.0,0.2451510429,0.1322485507,0.1329842806,90.0,60.0,60.0,91.3549346924,120.7031021118,118.411277771,47.059997558599996,14.784383773800002,33.9300003052,0,2,25,1,134,347
161,1530631957720,3870720, RC,0,39.9586186,-88.445067899,0,0.0,0.0,0.0,0.0,0.0,0.1614020765,0.0,0.0,0.0,0.0,0.0,0.0,0.0,1500,1628,0.0,0.0,40.048356,-88.2331573333,0.0,0.0,0.0,0.0,0.0,0.0,0.0,0.0,0.0,0.0,0.0,0,0.0,0.2567529678,0.1657245308,0.1570796221,90.0,60.0,60.0,91.3549346924,120.19381713870001,118.53860473629999,47.059997558599996,14.784383773800002,33.9300003052,0,2,25,1,113,349
162,1530631957771,3870771, RC,0,39.9586186,-88.445067899,0,0.0,0.0,0.0,0.0,0.0,0.2047185302,0.0,0.0,0.0,0.0,0.0,0.0,0.0,1500,1628,0.0,0.0,40.048356,-88.2331573333,0.0,0.0,0.0,0.0,0.0,0.0,0.0,0.0,0.0,0.0,0.0,0,0.0,0.2567529678,0.2019595206,0.2074775398,90.0,60.0,60.0,91.4186019897,119.7481765747,119.2388916016,47.059997558599996,14.784383773800002,33.9300003052,0,2,25,1,91,351
163,1530631957821,3870821, RC,0,39.9586186,-88.445067899,0,0.0,0.0,0.0,0.0,0.0,0.22623881699999998,0.0,0.0,0.0,0.0,0.0,0.0,0.0,1500,1641,0.0,0.0,40.0483538333,-88.2331591667,0.0,0.0,0.0,0.0,0.0,0.0,0.0,0.0,0.0,0.0,0.0,0,0.0,0.2821030617,0.2181457132,0.2343319058,90.0,60.0,60.0,90.9093093872,119.4935302734,121.2124023438,47.059997558599996,14.784383773800002,33.9300003052,0,2,25,1,91,353
164,1530631957871,3870871, RC,0,39.9586186,-88.445067899,0,0.0,0.0,0.0,0.0,0.0,0.2628416717,0.0,0.0,0.0,0.0,0.0,0.0,0.0,1500,1641,0.0,0.0,40.0483538333,-88.2331591667,0.0,0.0,0.0,0.0,0.0,0.0,0.0,0.0,0.0,0.0,0.0,0,0.0,0.2821030617,0.2519895732,0.2736937702,90.0,60.0,60.0,89.44507598879999,119.87550354,120.9577560425,47.059997558599996,14.784383773800002,33.9300003052,0,2,25,1,72,355
165,1530631957922,3870922, RC,0,39.9586186,-88.445067899,0,0.0,0.0,0.0,0.0,0.0,0.2637613416,0.0,0.0,0.0,0.0,0.0,0.0,0.0,1500,1647,0.0,0.0,40.0483538333,-88.2331591667,0.0,0.0,0.0,0.0,0.0,0.0,0.0,0.0,0.0,0.0,0.0,0,0.0,0.29444503780000003,0.2495984286,0.2779242396,90.0,60.0,60.0,88.6174697876,120.38480377200001,120.32112884520001,47.059997558599996,14.784383773800002,33.9300003052,0,2,25,1,82,357
166,1530631957972,3870972, RC,0,39.9586186,-88.445067899,0,0.0,0.0,0.0,0.0,0.0,0.280683279,0.0,0.0,0.0,0.0,0.0,0.0,0.0,1500,1647,0.0,0.0,40.0483538333,-88.2331591667,0.0,0.0,0.0,0.0,0.0,0.0,0.0,0.0,0.0,0.0,0.0,0,0.0,0.29444503780000003,0.2678078711,0.29355865719999996,90.0,60.0,60.0,88.9994430542,121.0214157104,119.6845169067,47.059997558599996,14.784383773800002,33.9300003052,0,2,25,1,71,359
167,1530631958022,3871022, RC,0,39.9586186,-88.445067899,0,0.0,0.0,0.0,0.0,0.0,0.2976052165,0.0,0.0,0.0,0.0,0.0,0.0,0.0,1500,1647,0.0,0.0,40.0483538333,-88.2331591667,0.0,0.0,0.0,0.0,0.0,0.0,0.0,0.0,0.0,0.0,0.0,0,0.0,0.29444503780000003,0.2887763679,0.3064340353,90.0,60.0,60.0,89.3177566528,120.7031021118,119.0479049683,47.059997558599996,14.784383773800002,33.9300003052,0,2,25,1,84,361
168,1530631958073,3871073, RC,0,39.9586186,-88.445067899,0,0.0,0.0,0.0,0.0,0.0,0.3054223955,0.0,0.0,0.0,0.0,0.0,0.0,0.0,1500,1647,0.0,0.0,40.0483538333,-88.2331591667,0.0,0.0,0.0,0.0,0.0,0.0,0.0,0.0,0.0,0.0,0.0,0,0.0,0.29444503780000003,0.3060661554,0.3047786355,90.0,60.0,60.0,89.7633895874,119.939163208,118.4749450684,47.059997558599996,14.784383773800002,33.9300003052,0,2,25,1,65,363
