,(0)linux time (ms),    (1)uptime  (ms),      (2)drive mode,(3)mpc step counter,(4)mpc origin latitude  (deg),(5)mpc origin longitude  (deg),(6)closest trajectory point index to robot,(7)mpc error x (W;E)  (m),(8)mpc error y (W;E)  (m),(9)abs mpc error (m),(10)input [x] for mhe (m),(11)input [y] for mhe (m),(12)input [speed] for mhe (m/s),(13)input [vyaw] for mhe (rad/s),(14)mhe output x  (m),(15)mhe output y  (m),(16)mhe output speed  (m/s),(17)mhe output yaw  (rad),(18)mpc reference heading (rad),(19)mpc turn rate command (rad/s),(20)turn rate command as PWM,(21)throttle command as PWM,(22)primary gps latitude (deg),(23)primary gps longitude (deg),(24)secondary gps latitude  (deg),(25)secondary gps longitude (deg),(26)accelerometer x (m/s^2),(27)accelerometer y (m/s^2),(28)accelerometer z (m/s^2),(29)gyro yaw rate (rad/s),(30)gyro pitch rate   (rad/s),(31)gyro roll rate (rad/s),      (32)yaw (rad),  (33)pitch   (rad),     (34)roll (rad),(35)sonar1 measurement (m),(36)ultrasonic sensor measurement (m),(37)primary gps time (s),(38)normalized turn rate command,(39)normalized throttle command,(40)speed calculation from encoder left (m/s),(41)speed calculation from encoder right (m/s),(42)front gimbal target angle (degrees from straight down),(43)left gimbal target angle  (degrees from straight down),(44)right gimbal target angle  (degrees from straight down),(45)front gimbal measured angle  (degrees from straight down),(46)left gimbal measured angle    (degrees from straight down),(47)right gimbal measured angle  (degrees from straight down),(48)internal temperature (C),(49)battery voltage (V),(50)primary gps type,(51)secondary gps type,    (52)MPC R value, (53)MPC Q[0] value,Unnamed: 54,weed_num,start
0,1530631457774,3370774, RC,0,39.9586186,-88.445067899,0,0.0,0.0,0.0,0.0,0.0,0.0,0.0,0.0,0.0,0.0,0.0,0.0,0.0,1500,1500,0.0,0.0,40.0483486667,-88.232729,0.0,0.0,0.0,0.0,0.0,0.0,0.0,0.0,0.0,0.0,0.0,0,0.0,0.0,0.0,0.0,90.0,90.0,90.0,89.5724029541,89.5724029541,89.44507598879999,44.3690032959,14.9238786697,2.4099998474,0,2,25,1,136,15
1,1530631457824,3370824, RC,0,39.9586186,-88.445067899,0,0.0,0.0,0.0,0.0,0.0,0.0,0.0,0.0,0.0,0.0,0.0,0.0,0.0,1500,1500,0.0,0.0,40.0483505,-88.232727,0.0,0.0,0.0,0.0,0.0,0.0,0.0,0.0,0.0,0.0,0.0,0,0.0,0.0,0.0,0.0,90.0,90.0,90.0,89.5724029541,89.44507598879999,89.44507598879999,44.3690032959,14.9238786697,2.4099998474,0,2,25,1,140,17
2,1530631457875,3370875, RC,0,39.9586186,-88.445067899,0,0.0,0.0,0.0,0.0,0.0,0.0,0.0,0.0,0.0,0.0,0.0,0.0,0.0,1500,1500,0.0,0.0,40.0483505,-88.232727,0.0,0.0,0.0,0.0,0.0,0.0,0.0,0.0,0.0,0.0,0.0,0,0.0,0.0,0.0,0.0,90.0,90.0,90.0,89.5724029541,89.3814163208,89.44507598879999,44.3690032959,14.9238786697,2.4099998474,0,2,25,1,137,20
3,1530631457925,3370925, RC,0,39.9586186,-88.445067899,0,0.0,0.0,0.0,0.0,0.0,0.0,0.0,0.0,0.0,0.0,0.0,0.0,0.0,1500,1500,0.0,0.0,40.0483505,-88.232727,0.0,0.0,0.0,0.0,0.0,0.0,0.0,0.0,0.0,0.0,0.0,0,0.0,0.0,0.0,0.0,90.0,90.0,90.0,89.5724029541,89.3177566528,89.44507598879999,44.3690032959,14.9238786697,2.4099998474,0,2,25,1,154,22
4,1530631457975,3370975, RC,0,39.9586186,-88.445067899,0,0.0,0.0,0.0,0.0,0.0,0.0,0.0,0.0,0.0,0.0,0.0,0.0,0.0,1500,1500,0.0,0.0,40.0483505,-88.232727,0.0,0.0,0.0,0.0,0.0,0.0,0.0,0.0,0.0,0.0,0.0,0,0.0,0.0,0.0,0.0,90.0,90.0,90.0,89.5724029541,89.25408935549999,89.44507598879999,44.3690032959,14.9238786697,2.4099998474,0,2,25,1,157,25
5,1530631458026,3371026, RC,0,39.9586186,-88.445067899,0,0.0,0.0,0.0,0.0,0.0,0.0,0.0,0.0,0.0,0.0,0.0,0.0,0.0,1500,1500,0.0,0.0,40.0483505,-88.232727,0.0,0.0,0.0,0.0,0.0,0.0,0.0,0.0,0.0,0.0,0.0,0,0.0,0.0,0.0,0.0,90.0,90.0,90.0,89.5724029541,89.1904296875,89.44507598879999,44.3690032959,14.9238786697,2.4099998474,0,2,25,1,154,27
6,1530631458076,3371076, RC,0,39.9586186,-88.445067899,0,0.0,0.0,0.0,0.0,0.0,0.0,0.0,0.0,0.0,0.0,0.0,0.0,0.0,1500,1500,0.0,0.0,40.0483505,-88.232727,0.0,0.0,0.0,0.0,0.0,0.0,0.0,0.0,0.0,0.0,0.0,0,0.0,0.0,0.0,0.0,90.0,90.0,90.0,89.5724029541,89.1904296875,89.44507598879999,44.3690032959,14.9238786697,2.4099998474,0,2,25,1,156,30
7,1530631458126,3371126, RC,0,39.9586186,-88.445067899,0,0.0,0.0,0.0,0.0,0.0,0.0,0.0,0.0,0.0,0.0,0.0,0.0,0.0,1500,1500,0.0,0.0,40.0483505,-88.232727,0.0,0.0,0.0,0.0,0.0,0.0,0.0,0.0,0.0,0.0,0.0,0,0.0,0.0,0.0,0.0,90.0,90.0,90.0,89.5724029541,89.12677001950001,89.44507598879999,44.3690032959,14.9238786697,2.4099998474,0,2,25,1,165,32
8,1530631458177,3371177, RC,0,39.9586186,-88.445067899,0,0.0,0.0,0.0,0.0,0.0,0.0,0.0,0.0,0.0,0.0,0.0,0.0,0.0,1500,1500,0.0,0.0,40.0483505,-88.232727,0.0,0.0,0.0,0.0,0.0,0.0,0.0,0.0,0.0,0.0,0.0,0,0.0,0.0,0.0,0.0,90.0,90.0,90.0,89.5724029541,89.0631027222,89.44507598879999,44.3690032959,14.9238786697,2.4099998474,0,2,25,1,152,35
9,1530631458227,3371227, RC,0,39.9586186,-88.445067899,0,0.0,0.0,0.0,0.0,0.0,0.0,0.0,0.0,0.0,0.0,0.0,0.0,0.0,1500,1500,0.0,0.0,40.0483505,-88.232727,0.0,0.0,0.0,0.0,0.0,0.0,0.0,0.0,0.0,0.0,0.0,0,0.0,0.0,0.0,0.0,90.0,90.0,90.0,89.5724029541,89.0631027222,89.44507598879999,44.9079971313,14.9238786697,2.4099998474,0,2,25,1,152,37
10,1530631458278,3371278, RC,0,39.9586186,-88.445067899,0,0.0,0.0,0.0,0.0,0.0,0.0,0.0,0.0,0.0,0.0,0.0,0.0,0.0,1500,1500,0.0,0.0,40.0483505,-88.232727,0.0,0.0,0.0,0.0,0.0,0.0,0.0,0.0,0.0,0.0,0.0,0,0.0,0.0,0.0,0.0,90.0,90.0,90.0,89.5724029541,89.0631027222,89.44507598879999,44.9079971313,14.9238786697,2.4099998474,0,2,25,1,167,40
11,1530631458328,3371328, RC,0,39.9586186,-88.445067899,0,0.0,0.0,0.0,0.0,0.0,0.0,0.0,0.0,0.0,0.0,0.0,0.0,0.0,1500,1500,0.0,0.0,40.0483505,-88.232727,0.0,0.0,0.0,0.0,0.0,0.0,0.0,0.0,0.0,0.0,0.0,0,0.0,0.0,0.0,0.0,90.0,90.0,90.0,89.5724029541,89.3177566528,89.44507598879999,44.9079971313,14.9238786697,2.4099998474,0,2,25,1,157,42
12,1530631458379,3371379, RC,0,39.9586186,-88.445067899,0,0.0,0.0,0.0,0.0,0.0,0.0,0.0,0.0,0.0,0.0,0.0,0.0,0.0,1500,1500,0.0,0.0,40.0483505,-88.232727,0.0,0.0,0.0,0.0,0.0,0.0,0.0,0.0,0.0,0.0,0.0,0,0.0,0.0,0.0,0.0,90.0,90.0,90.0,89.5724029541,89.3177566528,89.44507598879999,44.9079971313,14.9238786697,2.4099998474,0,2,25,1,159,45
13,1530631458429,3371429, RC,0,39.9586186,-88.445067899,0,0.0,0.0,0.0,0.0,0.0,0.0,0.0,0.0,0.0,0.0,0.0,0.0,0.0,1500,1500,0.0,0.0,40.0483505,-88.232727,0.0,0.0,0.0,0.0,0.0,0.0,0.0,0.0,0.0,0.0,0.0,0,0.0,0.0,0.0,0.0,90.0,90.0,90.0,89.5724029541,89.3177566528,89.44507598879999,44.9079971313,14.9238786697,2.4099998474,0,2,25,1,159,47
14,1530631458479,3371479, RC,0,39.9586186,-88.445067899,0,0.0,0.0,0.0,0.0,0.0,0.0,0.0,0.0,0.0,0.0,0.0,0.0,0.0,1500,1500,0.0,0.0,40.0483505,-88.232727,0.0,0.0,0.0,0.0,0.0,0.0,0.0,0.0,0.0,0.0,0.0,0,0.0,0.0,0.0,0.0,90.0,90.0,90.0,89.5724029541,89.25408935549999,89.44507598879999,44.9079971313,14.9192781448,2.8499999045999997,0,2,25,1,168,50
15,1530631458530,3371530, RC,0,39.9586186,-88.445067899,0,0.0,0.0,0.0,0.0,0.0,0.0,0.0,0.0,0.0,0.0,0.0,0.0,0.0,1500,1500,0.0,0.0,40.0483505,-88.232727,0.0,0.0,0.0,0.0,0.0,0.0,0.0,0.0,0.0,0.0,0.0,0,0.0,0.0,0.0,0.0,90.0,90.0,90.0,89.5724029541,89.25408935549999,89.44507598879999,44.9079971313,14.9192781448,2.8499999045999997,0,2,25,1,174,52
16,1530631458580,3371580, RC,0,39.9586186,-88.445067899,0,0.0,0.0,0.0,0.0,0.0,0.0,0.0,0.0,0.0,0.0,0.0,0.0,0.0,1500,1500,0.0,0.0,40.0483505,-88.232727,0.0,0.0,0.0,0.0,0.0,0.0,0.0,0.0,0.0,0.0,0.0,0,0.0,0.0,0.0,0.0,90.0,90.0,90.0,89.5724029541,89.25408935549999,89.44507598879999,44.9079971313,14.9192781448,2.8499999045999997,0,2,25,1,194,55
17,1530631458630,3371630, RC,0,39.9586186,-88.445067899,0,0.0,0.0,0.0,0.0,0.0,0.0,0.0,0.0,0.0,0.0,0.0,0.0,0.0,1500,1500,0.0,0.0,40.0483505,-88.232727,0.0,0.0,0.0,0.0,0.0,0.0,0.0,0.0,0.0,0.0,0.0,0,0.0,0.0,0.0,0.0,90.0,90.0,90.0,89.5724029541,89.1904296875,89.44507598879999,44.9079971313,14.9192781448,2.8499999045999997,0,2,25,1,191,57
18,1530631458681,3371681, RC,0,39.9586186,-88.445067899,0,0.0,0.0,0.0,0.0,0.0,0.0,0.0,0.0,0.0,0.0,0.0,0.0,0.0,1500,1500,0.0,0.0,40.0483505,-88.232727,0.0,0.0,0.0,0.0,0.0,0.0,0.0,0.0,0.0,0.0,0.0,0,0.0,0.0,0.0,0.0,90.0,90.0,90.0,89.5724029541,89.3177566528,89.44507598879999,44.9079971313,14.9192781448,2.8499999045999997,0,2,25,1,177,60
19,1530631458731,3371731, RC,0,39.9586186,-88.445067899,0,0.0,0.0,0.0,0.0,0.0,0.0,0.0,0.0,0.0,0.0,0.0,0.0,0.0,1500,1500,0.0,0.0,40.0483505,-88.232727,0.0,0.0,0.0,0.0,0.0,0.0,0.0,0.0,0.0,0.0,0.0,0,0.0,0.0,0.0,0.0,90.0,90.0,90.0,89.5724029541,89.44507598879999,89.44507598879999,44.9079971313,14.9192781448,2.8499999045999997,0,2,25,1,190,62
20,1530631458782,3371782, RC,0,39.9586186,-88.445067899,0,0.0,0.0,0.0,0.0,0.0,0.0,0.0,0.0,0.0,0.0,0.0,0.0,0.0,1500,1500,0.0,0.0,40.0483498333,-88.2327218333,0.0,0.0,0.0,0.0,0.0,0.0,0.0,0.0,0.0,0.0,0.0,0,0.0,0.0,0.0,0.0,90.0,90.0,73.0,89.5724029541,89.44507598879999,89.44507598879999,44.9079971313,14.9192781448,2.8499999045999997,0,2,25,1,175,65
21,1530631458832,3371832, RC,0,39.9586186,-88.445067899,0,0.0,0.0,0.0,0.0,0.0,0.0,0.0,0.0,0.0,0.0,0.0,0.0,0.0,1500,1500,0.0,0.0,40.0483498333,-88.2327218333,0.0,0.0,0.0,0.0,0.0,0.0,0.0,0.0,0.0,0.0,0.0,0,0.0,0.0,0.0,0.0,90.0,90.0,73.0,89.5724029541,89.3814163208,100.5222625732,44.9079971313,14.9192781448,2.8499999045999997,0,2,25,1,119,67
22,1530631458882,3371882, RC,0,39.9586186,-88.445067899,0,0.0,0.0,0.0,0.0,0.0,0.0,0.0,0.0,0.0,0.0,0.0,0.0,0.0,1500,1500,0.0,0.0,40.0483498333,-88.2327218333,0.0,0.0,0.0,0.0,0.0,0.0,0.0,0.0,0.0,0.0,0.0,0,0.0,0.0,0.0,0.0,90.0,90.0,69.0,89.5724029541,89.3814163208,111.3448028564,44.9079971313,14.9192781448,2.8499999045999997,0,2,25,1,102,70
23,1530631458933,3371933, RC,0,39.9586186,-88.445067899,0,0.0,0.0,0.0,0.0,0.0,0.0,0.0,0.0,0.0,0.0,0.0,0.0,0.0,1500,1500,0.0,0.0,40.0483498333,-88.2327218333,0.0,0.0,0.0,0.0,0.0,0.0,0.0,0.0,0.0,0.0,0.0,0,0.0,0.0,0.0,0.0,90.0,90.0,69.0,89.5724029541,89.3814163208,112.93634796139999,44.9079971313,14.9192781448,2.8499999045999997,0,2,25,1,99,72
24,1530631458983,3371983, RC,0,39.9586186,-88.445067899,0,0.0,0.0,0.0,0.0,0.0,0.0,0.0,0.0,0.0,0.0,0.0,0.0,0.0,1500,1500,0.0,0.0,40.0483498333,-88.2327218333,0.0,0.0,0.0,0.0,0.0,0.0,0.0,0.0,0.0,0.0,0.0,0,0.0,0.0,0.0,0.0,90.0,90.0,67.0,89.5724029541,89.3814163208,111.4721221924,44.9079971313,14.9192781448,2.8499999045999997,0,2,25,1,102,75
25,1530631459033,3372033, RC,0,39.9586186,-88.445067899,0,0.0,0.0,0.0,0.0,0.0,0.0,0.0,0.0,0.0,0.0,0.0,0.0,0.0,1500,1500,0.0,0.0,40.0483498333,-88.2327218333,0.0,0.0,0.0,0.0,0.0,0.0,0.0,0.0,0.0,0.0,0.0,0,0.0,0.0,0.0,0.0,90.0,90.0,67.0,89.5724029541,89.3177566528,111.0901489258,44.9079971313,14.9192781448,2.8499999045999997,0,2,25,1,93,77
26,1530631459084,3372084, RC,0,39.9586186,-88.445067899,0,0.0,0.0,0.0,0.0,0.0,0.0,0.0,0.0,0.0,0.0,0.0,0.0,0.0,1500,1500,0.0,0.0,40.0483498333,-88.2327218333,0.0,0.0,0.0,0.0,0.0,0.0,0.0,0.0,0.0,0.0,0.0,0,0.0,0.0,0.0,0.0,90.0,90.0,66.0,89.5724029541,89.3177566528,111.1538162231,44.9079971313,14.9192781448,2.8499999045999997,0,2,25,1,93,80
27,1530631459135,3372135, RC,0,39.9586186,-88.445067899,0,0.0,0.0,0.0,0.0,0.0,0.0,0.0,0.0,0.0,0.0,0.0,0.0,0.0,1500,1500,0.0,0.0,40.0483498333,-88.2327218333,0.0,0.0,0.0,0.0,0.0,0.0,0.0,0.0,0.0,0.0,0.0,0,0.0,0.0,0.0,0.0,90.0,90.0,66.0,89.5724029541,89.3177566528,111.4721221924,44.9079971313,14.9192781448,2.8499999045999997,0,2,25,1,92,82
28,1530631459185,3372185, RC,0,39.9586186,-88.445067899,0,0.0,0.0,0.0,0.0,0.0,0.0,0.0,0.0,0.0,0.0,0.0,0.0,0.0,1500,1500,0.0,0.0,40.0483498333,-88.2327218333,0.0,0.0,0.0,0.0,0.0,0.0,0.0,0.0,0.0,0.0,0.0,0,0.0,0.0,0.0,0.0,90.0,90.0,64.0,89.5724029541,89.3177566528,114.0186004639,44.9079971313,14.9192781448,2.8499999045999997,0,2,25,1,79,85
29,1530631459236,3372236, RC,0,39.9586186,-88.445067899,0,0.0,0.0,0.0,0.0,0.0,0.0,0.0,0.0,0.0,0.0,0.0,0.0,0.0,1500,1500,0.0,0.0,40.0483498333,-88.2327218333,0.0,0.0,0.0,0.0,0.0,0.0,0.0,0.0,0.0,0.0,0.0,0,0.0,0.0,0.0,0.0,90.0,90.0,64.0,89.5724029541,89.3177566528,114.40057373049999,44.9079971313,14.9192781448,2.8499999045999997,0,2,25,1,70,87
30,1530631459286,3372286, RC,0,39.9586186,-88.445067899,0,0.0,0.0,0.0,0.0,0.0,0.0,0.0,0.0,0.0,0.0,0.0,0.0,0.0,1500,1500,0.0,0.0,40.0483498333,-88.2327218333,0.0,0.0,0.0,0.0,0.0,0.0,0.0,0.0,0.0,0.0,0.0,0,0.0,0.0,0.0,0.0,90.0,90.0,63.0,89.5724029541,89.3177566528,115.9284591675,44.9079971313,14.9192781448,2.8499999045999997,0,2,25,1,65,90
31,1530631459337,3372337, RC,0,39.9586186,-88.445067899,0,0.0,0.0,0.0,0.0,0.0,0.0,0.0,0.0,0.0,0.0,0.0,0.0,0.0,1500,1500,0.0,0.0,40.0483498333,-88.2327218333,0.0,0.0,0.0,0.0,0.0,0.0,0.0,0.0,0.0,0.0,0.0,0,0.0,0.0,0.0,0.0,90.0,90.0,60.0,89.5724029541,89.25408935549999,117.2017059326,44.9079971313,14.9192781448,2.8499999045999997,0,2,25,1,65,92
32,1530631459388,3372388, RC,0,39.9586186,-88.445067899,0,0.0,0.0,0.0,0.0,0.0,0.0,0.0,0.0,0.0,0.0,0.0,0.0,0.0,1500,1500,0.0,0.0,40.0483498333,-88.2327218333,0.0,0.0,0.0,0.0,0.0,0.0,0.0,0.0,0.0,0.0,0.0,0,0.0,0.0,0.0,0.0,90.0,90.0,60.0,89.5724029541,89.25408935549999,117.2017059326,44.9079971313,14.9192781448,2.8499999045999997,0,2,25,1,64,95
33,1530631459439,3372439, RC,0,39.9586186,-88.445067899,0,0.0,0.0,0.0,0.0,0.0,0.0,0.0,0.0,0.0,0.0,0.0,0.0,0.0,1500,1500,0.0,0.0,40.0483498333,-88.2327218333,0.0,0.0,0.0,0.0,0.0,0.0,0.0,0.0,0.0,0.0,0.0,0,0.0,0.0,0.0,0.0,90.0,90.0,57.0,89.5724029541,89.25408935549999,117.39268493649999,44.9079971313,14.9192781448,2.8499999045999997,0,2,25,1,70,97
34,1530631459489,3372489, RC,0,39.9586186,-88.445067899,0,0.0,0.0,0.0,0.0,0.0,0.0,0.0,0.0,0.0,0.0,0.0,0.0,0.0,1500,1500,0.0,0.0,40.0483498333,-88.2327218333,0.0,0.0,0.0,0.0,0.0,0.0,0.0,0.0,0.0,0.0,0.0,0,0.0,0.0,0.0,0.0,90.0,90.0,57.0,89.5724029541,89.25408935549999,118.9842300415,44.9079971313,14.9148130417,3.1700000763,0,2,25,1,63,100
35,1530631459540,3372540, RC,0,39.9586186,-88.445067899,0,0.0,0.0,0.0,0.0,0.0,0.0,0.0,0.0,0.0,0.0,0.0,0.0,0.0,1500,1500,0.0,0.0,40.0483498333,-88.2327218333,0.0,0.0,0.0,0.0,0.0,0.0,0.0,0.0,0.0,0.0,0.0,0,0.0,0.0,0.0,0.0,90.0,90.0,54.0,89.5724029541,89.25408935549999,121.7853622437,44.9079971313,14.9148130417,3.1700000763,0,2,25,1,56,102
36,1530631459591,3372591, RC,0,39.9586186,-88.445067899,0,0.0,0.0,0.0,0.0,0.0,0.0,0.0,0.0,0.0,0.0,0.0,0.0,0.0,1500,1500,0.0,0.0,40.0483498333,-88.2327218333,0.0,0.0,0.0,0.0,0.0,0.0,0.0,0.0,0.0,0.0,0.0,0,0.0,0.0,0.0,0.0,90.0,90.0,54.0,89.5724029541,89.25408935549999,122.8676147461,44.9079971313,14.9148130417,3.1700000763,0,2,25,1,56,105
37,1530631459641,3372641, RC,0,39.9586186,-88.445067899,0,0.0,0.0,0.0,0.0,0.0,0.0,0.0,0.0,0.0,0.0,0.0,0.0,0.0,1500,1500,0.0,0.0,40.0483498333,-88.2327218333,0.0,0.0,0.0,0.0,0.0,0.0,0.0,0.0,0.0,0.0,0.0,0,0.0,0.0,0.0,0.0,90.0,90.0,51.0,89.5724029541,89.25408935549999,125.60507202149999,44.9079971313,14.9148130417,3.1700000763,0,2,25,1,49,108
38,1530631459692,3372692, RC,0,39.9586186,-88.445067899,0,0.0,0.0,0.0,0.0,0.0,0.0,0.0,0.0,0.0,0.0,0.0,0.0,0.0,1500,1500,0.0,0.0,40.0483498333,-88.2327218333,0.0,0.0,0.0,0.0,0.0,0.0,0.0,0.0,0.0,0.0,0.0,0,0.0,0.0,0.0,0.0,90.0,90.0,51.0,89.5724029541,89.25408935549999,126.3053588867,44.9079971313,14.9148130417,3.1700000763,0,2,25,1,47,110
39,1530631459743,3372743, RC,0,39.9586186,-88.445067899,0,0.0,0.0,0.0,0.0,0.0,0.0,0.0,0.0,0.0,0.0,0.0,0.0,0.0,1500,1500,0.0,0.0,40.0483498333,-88.2327218333,0.0,0.0,0.0,0.0,0.0,0.0,0.0,0.0,0.0,0.0,0.0,0,0.0,0.0,0.0,0.0,90.0,90.0,51.0,89.5724029541,89.25408935549999,126.3053588867,44.9079971313,14.9148130417,3.1700000763,0,2,25,1,53,112
40,1530631459794,3372794, RC,0,39.9586186,-88.445067899,0,0.0,0.0,0.0,0.0,0.0,0.0,0.0,0.0,0.0,0.0,0.0,0.0,0.0,1500,1500,0.0,0.0,40.048353,-88.2327236667,0.0,0.0,0.0,0.0,0.0,0.0,0.0,0.0,0.0,0.0,0.0,0,0.0,0.0,0.0,0.0,90.0,90.0,51.0,89.5724029541,89.25408935549999,127.89691925049999,44.9079971313,14.9148130417,3.1700000763,0,2,25,1,42,115
41,1530631459844,3372844, RC,0,39.9586186,-88.445067899,0,0.0,0.0,0.0,0.0,0.0,0.0,0.0,0.0,0.0,0.0,0.0,0.0,0.0,1500,1500,0.0,0.0,40.048353,-88.2327236667,0.0,0.0,0.0,0.0,0.0,0.0,0.0,0.0,0.0,0.0,0.0,0,0.0,0.0,0.0,0.0,90.0,90.0,51.0,89.5724029541,89.25408935549999,129.7431030273,44.9079971313,14.9148130417,3.1700000763,0,2,25,1,39,118
42,1530631459895,3372895, RC,0,39.9586186,-88.445067899,0,0.0,0.0,0.0,0.0,0.0,0.0,0.0,0.0,0.0,0.0,0.0,0.0,0.0,1500,1500,0.0,0.0,40.048353,-88.2327236667,0.0,0.0,0.0,0.0,0.0,0.0,0.0,0.0,0.0,0.0,0.0,0,0.0,0.0,0.0,0.0,90.0,90.0,51.0,89.5724029541,89.25408935549999,129.7431030273,44.9079971313,14.9148130417,3.1700000763,0,2,25,1,39,120
43,1530631459946,3372946, RC,0,39.9586186,-88.445067899,0,0.0,0.0,0.0,0.0,0.0,0.0,0.0,0.0,0.0,0.0,0.0,0.0,0.0,1500,1500,0.0,0.0,40.048353,-88.2327236667,0.0,0.0,0.0,0.0,0.0,0.0,0.0,0.0,0.0,0.0,0.0,0,0.0,0.0,0.0,0.0,90.0,90.0,49.0,89.5724029541,89.25408935549999,129.7431030273,44.9079971313,14.9148130417,3.1700000763,0,2,25,1,40,123
44,1530631459996,3372996, RC,0,39.9586186,-88.445067899,0,0.0,0.0,0.0,0.0,0.0,0.0,0.0,0.0,0.0,0.0,0.0,0.0,0.0,1500,1500,0.0,0.0,40.048353,-88.2327236667,0.0,0.0,0.0,0.0,0.0,0.0,0.0,0.0,0.0,0.0,0.0,0,0.0,0.0,0.0,0.0,90.0,90.0,49.0,89.5724029541,89.25408935549999,129.7431030273,44.9079971313,14.9148130417,3.1700000763,0,2,25,1,43,125
45,1530631460047,3373047, RC,0,39.9586186,-88.445067899,0,0.0,0.0,0.0,0.0,0.0,0.0,0.0,0.0,0.0,0.0,0.0,0.0,0.0,1500,1500,0.0,0.0,40.048353,-88.2327236667,0.0,0.0,0.0,0.0,0.0,0.0,0.0,0.0,0.0,0.0,0.0,0,0.0,0.0,0.0,0.0,90.0,90.0,49.0,89.5724029541,89.25408935549999,129.7431030273,44.9079971313,14.9148130417,3.1700000763,0,2,25,1,45,128
46,1530631460098,3373098, RC,0,39.9586186,-88.445067899,0,0.0,0.0,0.0,0.0,0.0,0.0,0.0,0.0,0.0,0.0,0.0,0.0,0.0,1500,1500,0.0,0.0,40.048353,-88.2327236667,0.0,0.0,0.0,0.0,0.0,0.0,0.0,0.0,0.0,0.0,0.0,0,0.0,0.0,0.0,0.0,90.0,90.0,49.0,89.5724029541,89.25408935549999,129.7431030273,44.9079971313,14.9148130417,3.1700000763,0,2,25,1,46,130
47,1530631460149,3373149, RC,0,39.9586186,-88.445067899,0,0.0,0.0,0.0,0.0,0.0,0.0,0.0,0.0,0.0,0.0,0.0,0.0,0.0,1500,1500,0.0,0.0,40.048353,-88.2327236667,0.0,0.0,0.0,0.0,0.0,0.0,0.0,0.0,0.0,0.0,0.0,0,0.0,0.0,0.0,0.0,90.0,90.0,49.0,89.5724029541,89.25408935549999,129.7431030273,44.9079971313,14.9148130417,3.1700000763,0,2,25,1,43,133
48,1530631460199,3373199, RC,0,39.9586186,-88.445067899,0,0.0,0.0,0.0,0.0,0.0,0.0,0.0,0.0,0.0,0.0,0.0,0.0,0.0,1500,1500,0.0,0.0,40.048353,-88.2327236667,0.0,0.0,0.0,0.0,0.0,0.0,0.0,0.0,0.0,0.0,0.0,0,0.0,0.0,0.0,0.0,90.0,90.0,49.0,89.5724029541,89.25408935549999,129.7431030273,44.9079971313,14.9148130417,3.1700000763,0,2,25,1,40,135
49,1530631460250,3373250, RC,0,39.9586186,-88.445067899,0,0.0,0.0,0.0,0.0,0.0,0.0,0.0,0.0,0.0,0.0,0.0,0.0,0.0,1500,1500,0.0,0.0,40.048353,-88.2327236667,0.0,0.0,0.0,0.0,0.0,0.0,0.0,0.0,0.0,0.0,0.0,0,0.0,0.0,0.0,0.0,90.0,90.0,48.0,89.5724029541,89.25408935549999,129.7431030273,44.9079971313,14.9148130417,3.1700000763,0,2,25,1,46,138
50,1530631460301,3373301, RC,0,39.9586186,-88.445067899,0,0.0,0.0,0.0,0.0,0.0,0.0,0.0,0.0,0.0,0.0,0.0,0.0,0.0,1500,1500,0.0,0.0,40.048353,-88.2327236667,0.0,0.0,0.0,0.0,0.0,0.0,0.0,0.0,0.0,0.0,0.0,0,0.0,0.0,0.0,0.0,90.0,90.0,48.0,89.5724029541,89.25408935549999,129.7431030273,44.9079971313,14.9148130417,3.1700000763,0,2,25,1,42,140
51,1530631460352,3373352, RC,0,39.9586186,-88.445067899,0,0.0,0.0,0.0,0.0,0.0,0.0,0.0,0.0,0.0,0.0,0.0,0.0,0.0,1500,1500,0.0,0.0,40.048353,-88.2327236667,0.0,0.0,0.0,0.0,0.0,0.0,0.0,0.0,0.0,0.0,0.0,0,0.0,0.0,0.0,0.0,90.0,90.0,48.0,89.5724029541,89.25408935549999,130.12507629389998,44.9079971313,14.9148130417,3.1700000763,0,2,25,1,41,143
52,1530631460402,3373402, RC,0,39.9586186,-88.445067899,0,0.0,0.0,0.0,0.0,0.0,0.0,0.0,0.0,0.0,0.0,0.0,0.0,0.0,1500,1500,0.0,0.0,40.048353,-88.2327236667,0.0,0.0,0.0,0.0,0.0,0.0,0.0,0.0,0.0,0.0,0.0,0,0.0,0.0,0.0,0.0,90.0,90.0,48.0,89.5724029541,89.25408935549999,130.8253631592,44.9079971313,14.9148130417,3.1700000763,0,2,25,1,35,145
53,1530631460453,3373453, RC,0,39.9586186,-88.445067899,0,0.0,0.0,0.0,0.0,0.0,0.0,0.0,0.0,0.0,0.0,0.0,0.0,0.0,1500,1500,0.0,0.0,40.048353,-88.2327236667,0.0,0.0,0.0,0.0,0.0,0.0,0.0,0.0,0.0,0.0,0.0,0,0.0,0.0,0.0,0.0,90.0,90.0,48.0,89.5724029541,89.25408935549999,130.8253631592,44.9079971313,14.9148130417,3.1700000763,0,2,25,1,33,148
54,1530631460504,3373504, RC,0,39.9586186,-88.445067899,0,0.0,0.0,0.0,0.0,0.0,0.0,0.0,0.0,0.0,0.0,0.0,0.0,0.0,1500,1500,0.0,0.0,40.048353,-88.2327236667,0.0,0.0,0.0,0.0,0.0,0.0,0.0,0.0,0.0,0.0,0.0,0,0.0,0.0,0.0,0.0,90.0,90.0,48.0,89.5724029541,89.25408935549999,130.8253631592,44.9079971313,14.915201187100001,3.2400000094999997,0,2,25,1,35,150
55,1530631460554,3373554, RC,0,39.9586186,-88.445067899,0,0.0,0.0,0.0,0.0,0.0,0.0,0.0,0.0,0.0,0.0,0.0,0.0,0.0,1500,1500,0.0,0.0,40.048353,-88.2327236667,0.0,0.0,0.0,0.0,0.0,0.0,0.0,0.0,0.0,0.0,0.0,0,0.0,0.0,0.0,0.0,90.0,90.0,48.0,89.5724029541,89.25408935549999,130.8253631592,44.9079971313,14.915201187100001,3.2400000094999997,0,2,25,1,33,153
56,1530631460605,3373605, RC,0,39.9586186,-88.445067899,0,0.0,0.0,0.0,0.0,0.0,0.0,0.0,0.0,0.0,0.0,0.0,0.0,0.0,1500,1500,0.0,0.0,40.048353,-88.2327236667,0.0,0.0,0.0,0.0,0.0,0.0,0.0,0.0,0.0,0.0,0.0,0,0.0,0.0,0.0,0.0,90.0,90.0,48.0,89.5724029541,89.25408935549999,130.8253631592,44.9079971313,14.915201187100001,3.2400000094999997,0,2,25,1,33,155
57,1530631460656,3373656, RC,0,39.9586186,-88.445067899,0,0.0,0.0,0.0,0.0,0.0,0.0,0.0,0.0,0.0,0.0,0.0,0.0,0.0,1500,1500,0.0,0.0,40.048353,-88.2327236667,0.0,0.0,0.0,0.0,0.0,0.0,0.0,0.0,0.0,0.0,0.0,0,0.0,0.0,0.0,0.0,90.0,90.0,48.0,89.5724029541,89.25408935549999,130.8253631592,44.9079971313,14.915201187100001,3.2400000094999997,0,2,25,1,35,158
58,1530631460707,3373707, RC,0,39.9586186,-88.445067899,0,0.0,0.0,0.0,0.0,0.0,0.0,0.0,0.0,0.0,0.0,0.0,0.0,0.0,1500,1500,0.0,0.0,40.048353,-88.2327236667,0.0,0.0,0.0,0.0,0.0,0.0,0.0,0.0,0.0,0.0,0.0,0,0.0,0.0,0.0,0.0,90.0,90.0,48.0,89.5724029541,89.25408935549999,131.2073364258,44.9079971313,14.915201187100001,3.2400000094999997,0,2,25,1,34,160
59,1530631460757,3373757, RC,0,39.9586186,-88.445067899,0,0.0,0.0,0.0,0.0,0.0,0.0,0.0,0.0,0.0,0.0,0.0,0.0,0.0,1500,1500,0.0,0.0,40.048353,-88.2327236667,0.0,0.0,0.0,0.0,0.0,0.0,0.0,0.0,0.0,0.0,0.0,0,0.0,0.0,0.0,0.0,90.0,90.0,48.0,89.5724029541,89.25408935549999,131.2073364258,44.9079971313,14.915201187100001,3.2400000094999997,0,2,25,1,32,163
60,1530631460808,3373808, RC,0,39.9586186,-88.445067899,0,0.0,0.0,0.0,0.0,0.0,0.0,0.0,0.0,0.0,0.0,0.0,0.0,0.0,1500,1500,0.0,0.0,40.048350166700004,-88.2327236667,0.0,0.0,0.0,0.0,0.0,0.0,0.0,0.0,0.0,0.0,0.0,0,0.0,0.0,0.0,0.0,90.0,90.0,48.0,89.5724029541,89.25408935549999,131.84396362299998,44.9079971313,14.915201187100001,3.2400000094999997,0,2,25,1,37,165
61,1530631460859,3373859, RC,0,39.9586186,-88.445067899,0,0.0,0.0,0.0,0.0,0.0,0.0,0.0,0.0,0.0,0.0,0.0,0.0,0.0,1500,1500,0.0,0.0,40.048350166700004,-88.2327236667,0.0,0.0,0.0,0.0,0.0,0.0,0.0,0.0,0.0,0.0,0.0,0,0.0,0.0,0.0,0.0,90.0,90.0,48.0,89.5724029541,89.25408935549999,131.907623291,44.9079971313,14.915201187100001,3.2400000094999997,0,2,25,1,40,168
62,1530631460910,3373910, RC,0,39.9586186,-88.445067899,0,0.0,0.0,0.0,0.0,0.0,0.0,0.0,0.0,0.0,0.0,0.0,0.0,0.0,1500,1500,0.0,0.0,40.048350166700004,-88.2327236667,0.0,0.0,0.0,0.0,0.0,0.0,0.0,0.0,0.0,0.0,0.0,0,0.0,0.0,0.0,0.0,90.0,90.0,48.0,89.5724029541,89.25408935549999,131.907623291,44.9079971313,14.915201187100001,3.2400000094999997,0,2,25,1,31,171
63,1530631460960,3373960, RC,0,39.9586186,-88.445067899,0,0.0,0.0,0.0,0.0,0.0,0.0,0.0,0.0,0.0,0.0,0.0,0.0,0.0,1500,1500,0.0,0.0,40.048350166700004,-88.2327236667,0.0,0.0,0.0,0.0,0.0,0.0,0.0,0.0,0.0,0.0,0.0,0,0.0,0.0,0.0,0.0,90.0,90.0,48.0,89.5724029541,89.25408935549999,131.907623291,44.9079971313,14.915201187100001,3.2400000094999997,0,2,25,1,38,173
64,1530631461011,3374011, RC,0,39.9586186,-88.445067899,0,0.0,0.0,0.0,0.0,0.0,0.0,0.0,0.0,0.0,0.0,0.0,0.0,0.0,1500,1500,0.0,0.0,40.048350166700004,-88.2327236667,0.0,0.0,0.0,0.0,0.0,0.0,0.0,0.0,0.0,0.0,0.0,0,0.0,0.0,0.0,0.0,90.0,90.0,48.0,89.5724029541,89.25408935549999,131.907623291,44.9079971313,14.915201187100001,3.2400000094999997,0,2,25,1,39,176
65,1530631461062,3374062, RC,0,39.9586186,-88.445067899,0,0.0,0.0,0.0,0.0,0.0,0.0,0.0,0.0,0.0,0.0,0.0,0.0,0.0,1500,1500,0.0,0.0,40.048350166700004,-88.2327236667,0.0,0.0,0.0,0.0,0.0,0.0,0.0,0.0,0.0,0.0,0.0,0,0.0,0.0,0.0,0.0,90.0,90.0,48.0,89.5724029541,89.25408935549999,131.907623291,44.9079971313,14.915201187100001,3.2400000094999997,0,2,25,1,38,178
66,1530631461112,3374112, RC,0,39.9586186,-88.445067899,0,0.0,0.0,0.0,0.0,0.0,0.0,0.0,0.0,0.0,0.0,0.0,0.0,0.0,1500,1500,0.0,0.0,40.048350166700004,-88.2327236667,0.0,0.0,0.0,0.0,0.0,0.0,0.0,0.0,0.0,0.0,0.0,0,0.0,0.0,0.0,0.0,90.0,90.0,48.0,89.5724029541,89.25408935549999,131.907623291,44.9079971313,14.915201187100001,3.2400000094999997,0,2,25,1,36,181
67,1530631461163,3374163, RC,0,39.9586186,-88.445067899,0,0.0,0.0,0.0,0.0,0.0,0.0,0.0,0.0,0.0,0.0,0.0,0.0,0.0,1500,1500,0.0,0.0,40.048350166700004,-88.2327236667,0.0,0.0,0.0,0.0,0.0,0.0,0.0,0.0,0.0,0.0,0.0,0,0.0,0.0,0.0,0.0,90.0,90.0,48.0,89.5724029541,89.25408935549999,131.907623291,44.9079971313,14.915201187100001,3.2400000094999997,0,2,25,1,37,183
68,1530631461214,3374214, RC,0,39.9586186,-88.445067899,0,0.0,0.0,0.0,0.0,0.0,0.0,0.0,0.0,0.0,0.0,0.0,0.0,0.0,1500,1500,0.0,0.0,40.048350166700004,-88.2327236667,0.0,0.0,0.0,0.0,0.0,0.0,0.0,0.0,0.0,0.0,0.0,0,0.0,0.0,0.0,0.0,90.0,90.0,48.0,89.5724029541,89.25408935549999,131.907623291,44.9079971313,14.915201187100001,3.2400000094999997,0,2,25,1,38,186
69,1530631461264,3374264, RC,0,39.9586186,-88.445067899,0,0.0,0.0,0.0,0.0,0.0,0.0,0.0,0.0,0.0,0.0,0.0,0.0,0.0,1500,1500,0.0,0.0,40.048350166700004,-88.2327236667,0.0,0.0,0.0,0.0,0.0,0.0,0.0,0.0,0.0,0.0,0.0,0,0.0,0.0,0.0,0.0,90.0,90.0,49.0,89.5724029541,89.25408935549999,131.907623291,44.9079971313,14.915201187100001,3.2400000094999997,0,2,25,1,37,188
70,1530631461315,3374315, RC,0,39.9586186,-88.445067899,0,0.0,0.0,0.0,0.0,0.0,0.0,0.0,0.0,0.0,0.0,0.0,0.0,0.0,1500,1500,0.0,0.0,40.048350166700004,-88.2327236667,0.0,0.0,0.0,0.0,0.0,0.0,0.0,0.0,0.0,0.0,0.0,0,0.0,0.0,0.0,0.0,90.0,90.0,49.0,89.5724029541,89.25408935549999,131.907623291,44.9079971313,14.915201187100001,3.2400000094999997,0,2,25,1,34,191
71,1530631461366,3374366, RC,0,39.9586186,-88.445067899,0,0.0,0.0,0.0,0.0,0.0,0.0,0.0,0.0,0.0,0.0,0.0,0.0,0.0,1500,1500,0.0,0.0,40.048350166700004,-88.2327236667,0.0,0.0,0.0,0.0,0.0,0.0,0.0,0.0,0.0,0.0,0.0,0,0.0,0.0,0.0,0.0,90.0,90.0,49.0,89.5724029541,89.25408935549999,131.907623291,44.9079971313,14.915201187100001,3.2400000094999997,0,2,25,1,34,193
72,1530631461416,3374416, RC,0,39.9586186,-88.445067899,0,0.0,0.0,0.0,0.0,0.0,0.0,0.0,0.0,0.0,0.0,0.0,0.0,0.0,1500,1500,0.0,0.0,40.048350166700004,-88.2327236667,0.0,0.0,0.0,0.0,0.0,0.0,0.0,0.0,0.0,0.0,0.0,0,0.0,0.0,0.0,0.0,90.0,90.0,49.0,89.5724029541,89.25408935549999,131.907623291,44.9079971313,14.915201187100001,3.2400000094999997,0,2,25,1,37,196
73,1530631461467,3374467, RC,0,39.9586186,-88.445067899,0,0.0,0.0,0.0,0.0,0.0,0.0,0.0,0.0,0.0,0.0,0.0,0.0,0.0,1500,1500,0.0,0.0,40.048350166700004,-88.2327236667,0.0,0.0,0.0,0.0,0.0,0.0,0.0,0.0,0.0,0.0,0.0,0,0.0,0.0,0.0,0.0,90.0,90.0,49.0,89.5724029541,89.25408935549999,131.7802886963,44.9079971313,14.915557861300002,2.8499999045999997,0,2,25,1,35,198
74,1530631461518,3374518, RC,0,39.9586186,-88.445067899,0,0.0,0.0,0.0,0.0,0.0,0.0,0.0,0.0,0.0,0.0,0.0,0.0,0.0,1500,1500,0.0,0.0,40.048350166700004,-88.2327236667,0.0,0.0,0.0,0.0,0.0,0.0,0.0,0.0,0.0,0.0,0.0,0,0.0,0.0,0.0,0.0,90.0,90.0,49.0,89.5724029541,89.25408935549999,131.7166290283,44.9079971313,14.915557861300002,2.8499999045999997,0,2,25,1,37,201
75,1530631461568,3374568, RC,0,39.9586186,-88.445067899,0,0.0,0.0,0.0,0.0,0.0,0.0,0.0,0.0,0.0,0.0,0.0,0.0,0.0,1500,1500,0.0,0.0,40.048350166700004,-88.2327236667,0.0,0.0,0.0,0.0,0.0,0.0,0.0,0.0,0.0,0.0,0.0,0,0.0,0.0,0.0,0.0,90.0,90.0,49.0,89.5724029541,89.25408935549999,131.7166290283,44.9079971313,14.915557861300002,2.8499999045999997,0,2,25,1,39,203
76,1530631461619,3374619, RC,0,39.9586186,-88.445067899,0,0.0,0.0,0.0,0.0,0.0,0.0,0.0,0.0,0.0,0.0,0.0,0.0,0.0,1500,1500,0.0,0.0,40.048350166700004,-88.2327236667,0.0,0.0,0.0,0.0,0.0,0.0,0.0,0.0,0.0,0.0,0.0,0,0.0,0.0,0.0,0.0,90.0,90.0,49.0,89.5724029541,89.25408935549999,131.7166290283,44.9079971313,14.915557861300002,2.8499999045999997,0,2,25,1,35,206
77,1530631461670,3374670, RC,0,39.9586186,-88.445067899,0,0.0,0.0,0.0,0.0,0.0,0.0,0.0,0.0,0.0,0.0,0.0,0.0,0.0,1500,1500,0.0,0.0,40.048350166700004,-88.2327236667,0.0,0.0,0.0,0.0,0.0,0.0,0.0,0.0,0.0,0.0,0.0,0,0.0,0.0,0.0,0.0,90.0,90.0,49.0,89.5724029541,89.25408935549999,131.7166290283,44.9079971313,14.915557861300002,2.8499999045999997,0,2,25,1,37,208
78,1530631461720,3374720, RC,0,39.9586186,-88.445067899,0,0.0,0.0,0.0,0.0,0.0,0.0,0.0,0.0,0.0,0.0,0.0,0.0,0.0,1500,1500,0.0,0.0,40.048350166700004,-88.2327236667,0.0,0.0,0.0,0.0,0.0,0.0,0.0,0.0,0.0,0.0,0.0,0,0.0,0.0,0.0,0.0,90.0,90.0,49.0,89.5724029541,89.25408935549999,131.65296936040002,44.9079971313,14.915557861300002,2.8499999045999997,0,2,25,1,34,211
79,1530631461771,3374771, RC,0,39.9586186,-88.445067899,0,0.0,0.0,0.0,0.0,0.0,0.0,0.0,0.0,0.0,0.0,0.0,0.0,0.0,1500,1500,0.0,0.0,40.048350166700004,-88.2327236667,0.0,0.0,0.0,0.0,0.0,0.0,0.0,0.0,0.0,0.0,0.0,0,0.0,0.0,0.0,0.0,90.0,90.0,49.0,89.5724029541,89.25408935549999,131.65296936040002,44.9079971313,14.915557861300002,2.8499999045999997,0,2,25,1,41,213
80,1530631461822,3374822, RC,0,39.9586186,-88.445067899,0,0.0,0.0,0.0,0.0,0.0,0.0,0.0,0.0,0.0,0.0,0.0,0.0,0.0,1500,1500,0.0,0.0,40.048350166700004,-88.2327248333,0.0,0.0,0.0,0.0,0.0,0.0,0.0,0.0,0.0,0.0,0.0,0,0.0,0.0,0.0,0.0,90.0,90.0,49.0,89.5724029541,89.25408935549999,131.65296936040002,44.9079971313,14.915557861300002,2.8499999045999997,0,2,25,1,37,216
81,1530631461872,3374872, RC,0,39.9586186,-88.445067899,0,0.0,0.0,0.0,0.0,0.0,0.0,0.0,0.0,0.0,0.0,0.0,0.0,0.0,1500,1500,0.0,0.0,40.048350166700004,-88.2327248333,0.0,0.0,0.0,0.0,0.0,0.0,0.0,0.0,0.0,0.0,0.0,0,0.0,0.0,0.0,0.0,90.0,90.0,49.0,89.5724029541,89.25408935549999,131.65296936040002,44.9079971313,14.915557861300002,2.8499999045999997,0,2,25,1,39,218
82,1530631461923,3374923, RC,0,39.9586186,-88.445067899,0,0.0,0.0,0.0,0.0,0.0,0.0,0.0,0.0,0.0,0.0,0.0,0.0,0.0,1500,1500,0.0,0.0,40.048350166700004,-88.2327248333,0.0,0.0,0.0,0.0,0.0,0.0,0.0,0.0,0.0,0.0,0.0,0,0.0,0.0,0.0,0.0,90.0,90.0,49.0,89.5724029541,89.25408935549999,131.65296936040002,44.9079971313,14.915557861300002,2.8499999045999997,0,2,25,1,35,221
83,1530631461973,3374973, RC,0,39.9586186,-88.445067899,0,0.0,0.0,0.0,0.0,0.0,0.0,0.0,0.0,0.0,0.0,0.0,0.0,0.0,1500,1500,0.0,0.0,40.048350166700004,-88.2327248333,0.0,0.0,0.0,0.0,0.0,0.0,0.0,0.0,0.0,0.0,0.0,0,0.0,0.0,0.0,0.0,90.0,90.0,49.0,89.5724029541,89.25408935549999,131.65296936040002,44.9079971313,14.915557861300002,2.8499999045999997,0,2,25,1,34,223
84,1530631462024,3375024, RC,0,39.9586186,-88.445067899,0,0.0,0.0,0.0,0.0,0.0,0.0,0.0,0.0,0.0,0.0,0.0,0.0,0.0,1500,1500,0.0,0.0,40.048350166700004,-88.2327248333,0.0,0.0,0.0,0.0,0.0,0.0,0.0,0.0,0.0,0.0,0.0,0,0.0,0.0,0.0,0.0,90.0,90.0,49.0,89.5724029541,89.25408935549999,131.46199035639998,44.9079971313,14.915557861300002,2.8499999045999997,0,2,25,1,39,226
85,1530631462075,3375075, RC,0,39.9586186,-88.445067899,0,0.0,0.0,0.0,0.0,0.0,0.0,0.0,0.0,0.0,0.0,0.0,0.0,0.0,1500,1500,0.0,0.0,40.048350166700004,-88.2327248333,0.0,0.0,0.0,0.0,0.0,0.0,0.0,0.0,0.0,0.0,0.0,0,0.0,0.0,0.0,0.0,90.0,90.0,49.0,89.5724029541,89.25408935549999,131.46199035639998,44.9079971313,14.915557861300002,2.8499999045999997,0,2,25,1,36,228
86,1530631462126,3375126, RC,0,39.9586186,-88.445067899,0,0.0,0.0,0.0,0.0,0.0,0.0,0.0,0.0,0.0,0.0,0.0,0.0,0.0,1500,1500,0.0,0.0,40.048350166700004,-88.2327248333,0.0,0.0,0.0,0.0,0.0,0.0,0.0,0.0,0.0,0.0,0.0,0,0.0,0.0,0.0,0.0,90.0,90.0,49.0,89.5724029541,89.25408935549999,131.46199035639998,44.9079971313,14.915557861300002,2.8499999045999997,0,2,25,1,38,231
87,1530631462176,3375176, RC,0,39.9586186,-88.445067899,0,0.0,0.0,0.0,0.0,0.0,0.0,0.0,0.0,0.0,0.0,0.0,0.0,0.0,1500,1500,0.0,0.0,40.048350166700004,-88.2327248333,0.0,0.0,0.0,0.0,0.0,0.0,0.0,0.0,0.0,0.0,0.0,0,0.0,0.0,0.0,0.0,90.0,90.0,49.0,89.5724029541,89.25408935549999,131.46199035639998,44.9079971313,14.915557861300002,2.8499999045999997,0,2,25,1,39,233
88,1530631462227,3375227, RC,0,39.9586186,-88.445067899,0,0.0,0.0,0.0,0.0,0.0,0.0,0.0,0.0,0.0,0.0,0.0,0.0,0.0,1500,1500,0.0,0.0,40.048350166700004,-88.2327248333,0.0,0.0,0.0,0.0,0.0,0.0,0.0,0.0,0.0,0.0,0.0,0,0.0,0.0,0.0,0.0,90.0,90.0,49.0,89.5724029541,89.25408935549999,131.46199035639998,44.9079971313,14.915557861300002,2.8499999045999997,0,2,25,1,37,236
89,1530631462278,3375278, RC,0,39.9586186,-88.445067899,0,0.0,0.0,0.0,0.0,0.0,0.0,0.0,0.0,0.0,0.0,0.0,0.0,0.0,1500,1500,0.0,0.0,40.048350166700004,-88.2327248333,0.0,0.0,0.0,0.0,0.0,0.0,0.0,0.0,0.0,0.0,0.0,0,0.0,0.0,0.0,0.0,90.0,90.0,49.0,89.5724029541,89.25408935549999,131.3983154297,44.9079971313,14.915557861300002,2.8499999045999997,0,2,25,1,38,239
90,1530631462328,3375328, RC,0,39.9586186,-88.445067899,0,0.0,0.0,0.0,0.0,0.0,0.0,0.0,0.0,0.0,0.0,0.0,0.0,0.0,1500,1500,0.0,0.0,40.048350166700004,-88.2327248333,0.0,0.0,0.0,0.0,0.0,0.0,0.0,0.0,0.0,0.0,0.0,0,0.0,0.0,0.0,0.0,90.0,90.0,49.0,89.5724029541,89.25408935549999,131.2073364258,44.9079971313,14.915557861300002,2.8499999045999997,0,2,25,1,37,241
91,1530631462379,3375379, RC,0,39.9586186,-88.445067899,0,0.0,0.0,0.0,0.0,0.0,0.0,0.0,0.0,0.0,0.0,0.0,0.0,0.0,1500,1500,0.0,0.0,40.048350166700004,-88.2327248333,0.0,0.0,0.0,0.0,0.0,0.0,0.0,0.0,0.0,0.0,0.0,0,0.0,0.0,0.0,0.0,90.0,90.0,49.0,89.5724029541,89.25408935549999,131.08000183110002,44.9079971313,14.915557861300002,2.8499999045999997,0,2,25,1,38,244
92,1530631462429,3375429, RC,0,39.9586186,-88.445067899,0,0.0,0.0,0.0,0.0,0.0,0.0,0.0,0.0,0.0,0.0,0.0,0.0,0.0,1500,1500,0.0,0.0,40.048350166700004,-88.2327248333,0.0,0.0,0.0,0.0,0.0,0.0,0.0,0.0,0.0,0.0,0.0,0,0.0,0.0,0.0,0.0,90.0,90.0,49.0,89.5724029541,89.25408935549999,131.08000183110002,44.9079971313,14.915557861300002,2.8499999045999997,0,2,25,1,38,246
93,1530631462480,3375480, RC,0,39.9586186,-88.445067899,0,0.0,0.0,0.0,0.0,0.0,0.0,0.0,0.0,0.0,0.0,0.0,0.0,0.0,1500,1500,0.0,0.0,40.048350166700004,-88.2327248333,0.0,0.0,0.0,0.0,0.0,0.0,0.0,0.0,0.0,0.0,0.0,0,0.0,0.0,0.0,0.0,90.0,90.0,49.0,89.5724029541,89.25408935549999,130.8253631592,44.9079971313,14.9159011841,3.0700001717000003,0,2,25,1,41,249
94,1530631462531,3375531, RC,0,39.9586186,-88.445067899,0,0.0,0.0,0.0,0.0,0.0,0.0,0.0,0.0,0.0,0.0,0.0,0.0,0.0,1500,1500,0.0,0.0,40.048350166700004,-88.2327248333,0.0,0.0,0.0,0.0,0.0,0.0,0.0,0.0,0.0,0.0,0.0,0,0.0,0.0,0.0,0.0,90.0,90.0,46.0,89.5724029541,89.25408935549999,130.6343688965,44.9079971313,14.9159011841,3.0700001717000003,0,2,25,1,43,251
95,1530631462582,3375582, RC,0,39.9586186,-88.445067899,0,0.0,0.0,0.0,0.0,0.0,0.0,0.0,0.0,0.0,0.0,0.0,0.0,0.0,1500,1500,0.0,0.0,40.048350166700004,-88.2327248333,0.0,0.0,0.0,0.0,0.0,0.0,0.0,0.0,0.0,0.0,0.0,0,0.0,0.0,0.0,0.0,90.0,90.0,46.0,89.5724029541,89.25408935549999,130.6343688965,44.9079971313,14.9159011841,3.0700001717000003,0,2,25,1,40,254
96,1530631462633,3375633, RC,0,39.9586186,-88.445067899,0,0.0,0.0,0.0,0.0,0.0,0.0,0.0,0.0,0.0,0.0,0.0,0.0,0.0,1500,1500,0.0,0.0,40.048350166700004,-88.2327248333,0.0,0.0,0.0,0.0,0.0,0.0,0.0,0.0,0.0,0.0,0.0,0,0.0,0.0,0.0,0.0,90.0,90.0,46.0,89.5724029541,89.25408935549999,130.6343688965,44.9079971313,14.9159011841,3.0700001717000003,0,2,25,1,37,256
97,1530631462683,3375683, RC,0,39.9586186,-88.445067899,0,0.0,0.0,0.0,0.0,0.0,0.0,0.0,0.0,0.0,0.0,0.0,0.0,0.0,1500,1500,0.0,0.0,40.048350166700004,-88.2327248333,0.0,0.0,0.0,0.0,0.0,0.0,0.0,0.0,0.0,0.0,0.0,0,0.0,0.0,0.0,0.0,90.0,90.0,46.0,89.5724029541,89.25408935549999,130.69802856450002,44.9079971313,14.9159011841,3.0700001717000003,0,2,25,1,44,259
98,1530631462734,3375734, RC,0,39.9586186,-88.445067899,0,0.0,0.0,0.0,0.0,0.0,0.0,0.0,0.0,0.0,0.0,0.0,0.0,0.0,1500,1500,0.0,0.0,40.048350166700004,-88.2327248333,0.0,0.0,0.0,0.0,0.0,0.0,0.0,0.0,0.0,0.0,0.0,0,0.0,0.0,0.0,0.0,90.0,90.0,46.0,89.5724029541,89.25408935549999,130.9526824951,44.9079971313,14.9159011841,3.0700001717000003,0,2,25,1,41,261
99,1530631462784,3375784, RC,0,39.9586186,-88.445067899,0,0.0,0.0,0.0,0.0,0.0,0.0,0.0,0.0,0.0,0.0,0.0,0.0,0.0,1500,1500,0.0,0.0,40.048350166700004,-88.2327248333,0.0,0.0,0.0,0.0,0.0,0.0,0.0,0.0,0.0,0.0,0.0,0,0.0,0.0,0.0,0.0,90.0,90.0,46.0,89.5724029541,89.25408935549999,133.6901550293,44.9079971313,14.9159011841,3.0700001717000003,0,2,25,1,32,264
100,1530631462835,3375835, RC,0,39.9586186,-88.445067899,0,0.0,0.0,0.0,0.0,0.0,0.0,0.0,0.0,0.0,0.0,0.0,0.0,0.0,1500,1500,0.0,0.0,40.0483511667,-88.2327233333,0.0,0.0,0.0,0.0,0.0,0.0,0.0,0.0,0.0,0.0,0.0,0,0.0,0.0,0.0,0.0,90.0,90.0,46.0,89.5724029541,89.25408935549999,134.6450805664,44.9079971313,14.9159011841,3.0700001717000003,0,2,25,1,26,266
101,1530631462886,3375886, RC,0,39.9586186,-88.445067899,0,0.0,0.0,0.0,0.0,0.0,0.0,0.0,0.0,0.0,0.0,0.0,0.0,0.0,1500,1500,0.0,0.0,40.0483511667,-88.2327233333,0.0,0.0,0.0,0.0,0.0,0.0,0.0,0.0,0.0,0.0,0.0,0,0.0,0.0,0.0,0.0,90.0,90.0,46.0,89.5724029541,89.25408935549999,134.6450805664,44.9079971313,14.9159011841,3.0700001717000003,0,2,25,1,26,269
102,1530631462937,3375937, RC,0,39.9586186,-88.445067899,0,0.0,0.0,0.0,0.0,0.0,0.0,0.0,0.0,0.0,0.0,0.0,0.0,0.0,1500,1500,0.0,0.0,40.0483511667,-88.2327233333,0.0,0.0,0.0,0.0,0.0,0.0,0.0,0.0,0.0,0.0,0.0,0,0.0,0.0,0.0,0.0,90.0,90.0,46.0,89.5724029541,89.25408935549999,134.6450805664,44.9079971313,14.9159011841,3.0700001717000003,0,2,25,1,28,271
103,1530631462987,3375987, RC,0,39.9586186,-88.445067899,0,0.0,0.0,0.0,0.0,0.0,0.0,0.0,0.0,0.0,0.0,0.0,0.0,0.0,1500,1500,0.0,0.0,40.0483511667,-88.2327233333,0.0,0.0,0.0,0.0,0.0,0.0,0.0,0.0,0.0,0.0,0.0,0,0.0,0.0,0.0,0.0,90.0,90.0,46.0,89.5724029541,89.25408935549999,134.6450805664,44.9079971313,14.9159011841,3.0700001717000003,0,2,25,1,31,274
104,1530631463038,3376038, RC,0,39.9586186,-88.445067899,0,0.0,0.0,0.0,0.0,0.0,0.0,0.0,0.0,0.0,0.0,0.0,0.0,0.0,1500,1500,0.0,0.0,40.0483511667,-88.2327233333,0.0,0.0,0.0,0.0,0.0,0.0,0.0,0.0,0.0,0.0,0.0,0,0.0,0.0,0.0,0.0,90.0,90.0,46.0,89.5724029541,89.25408935549999,134.6450805664,44.9079971313,14.9159011841,3.0700001717000003,0,2,25,1,30,276
105,1530631463088,3376088, RC,0,39.9586186,-88.445067899,0,0.0,0.0,0.0,0.0,0.0,0.0,0.0,0.0,0.0,0.0,0.0,0.0,0.0,1500,1500,0.0,0.0,40.0483511667,-88.2327233333,0.0,0.0,0.0,0.0,0.0,0.0,0.0,0.0,0.0,0.0,0.0,0,0.0,0.0,0.0,0.0,90.0,90.0,46.0,89.5724029541,89.25408935549999,134.6450805664,44.9079971313,14.9159011841,3.0700001717000003,0,2,25,1,27,279
106,1530631463139,3376139, RC,0,39.9586186,-88.445067899,0,0.0,0.0,0.0,0.0,0.0,0.0,0.0,0.0,0.0,0.0,0.0,0.0,0.0,1500,1500,0.0,0.0,40.0483511667,-88.2327233333,0.0,0.0,0.0,0.0,0.0,0.0,0.0,0.0,0.0,0.0,0.0,0,0.0,0.0,0.0,0.0,90.0,90.0,45.0,89.5724029541,89.25408935549999,134.6450805664,44.9079971313,14.9159011841,3.0700001717000003,0,2,25,1,28,281
107,1530631463190,3376190, RC,0,39.9586186,-88.445067899,0,0.0,0.0,0.0,0.0,0.0,0.0,0.0,0.0,0.0,0.0,0.0,0.0,0.0,1500,1500,0.0,0.0,40.0483511667,-88.2327233333,0.0,0.0,0.0,0.0,0.0,0.0,0.0,0.0,0.0,0.0,0.0,0,0.0,0.0,0.0,0.0,90.0,90.0,45.0,89.5724029541,89.25408935549999,134.5814208984,44.9079971313,14.9159011841,3.0700001717000003,0,2,25,1,31,284
108,1530631463240,3376240, RC,0,39.9586186,-88.445067899,0,0.0,0.0,0.0,0.0,0.0,0.0,0.0,0.0,0.0,0.0,0.0,0.0,0.0,1500,1500,0.0,0.0,40.0483511667,-88.2327233333,0.0,0.0,0.0,0.0,0.0,0.0,0.0,0.0,0.0,0.0,0.0,0,0.0,0.0,0.0,0.0,90.0,90.0,45.0,89.5724029541,89.25408935549999,134.5814208984,44.9079971313,14.9159011841,3.0700001717000003,0,2,25,1,27,286
109,1530631463291,3376291, RC,0,39.9586186,-88.445067899,0,0.0,0.0,0.0,0.0,0.0,0.0,0.0,0.0,0.0,0.0,0.0,0.0,0.0,1500,1500,0.0,0.0,40.0483511667,-88.2327233333,0.0,0.0,0.0,0.0,0.0,0.0,0.0,0.0,0.0,0.0,0.0,0,0.0,0.0,0.0,0.0,90.0,90.0,45.0,89.5724029541,89.44507598879999,134.5814208984,44.9079971313,14.9159011841,3.0700001717000003,0,2,25,1,31,289
110,1530631463341,3376341, RC,0,39.9586186,-88.445067899,0,0.0,0.0,0.0,0.0,0.0,0.0,0.0,0.0,0.0,0.0,0.0,0.0,0.0,1500,1500,0.0,0.0,40.0483511667,-88.2327233333,0.0,0.0,0.0,0.0,0.0,0.0,0.0,0.0,0.0,0.0,0.0,0,0.0,0.0,0.0,0.0,90.0,90.0,45.0,89.5724029541,89.5087432861,134.5814208984,44.9079971313,14.9159011841,3.0700001717000003,0,2,25,1,26,292
111,1530631463392,3376392, RC,0,39.9586186,-88.445067899,0,0.0,0.0,0.0,0.0,0.0,0.0,0.0,0.0,0.0,0.0,0.0,0.0,0.0,1500,1500,0.0,0.0,40.0483511667,-88.2327233333,0.0,0.0,0.0,0.0,0.0,0.0,0.0,0.0,0.0,0.0,0.0,0,0.0,0.0,0.0,0.0,90.0,90.0,45.0,89.5724029541,89.5087432861,134.6450805664,44.9079971313,14.9159011841,3.0700001717000003,0,2,25,1,31,294
112,1530631463450,3376450, RC,0,39.9586186,-88.445067899,0,0.0,0.0,0.0,0.0,0.0,0.0,0.0,0.0,0.0,0.0,0.0,0.0,0.0,1500,1500,0.0,0.0,40.0483511667,-88.2327233333,0.0,0.0,0.0,0.0,0.0,0.0,0.0,0.0,0.0,0.0,0.0,0,0.0,0.0,0.0,0.0,90.0,90.0,45.0,89.5724029541,89.5087432861,134.6450805664,44.9079971313,14.9159011841,3.0700001717000003,0,2,25,1,30,297
113,1530631463500,3376500, RC,0,39.9586186,-88.445067899,0,0.0,0.0,0.0,0.0,0.0,0.0,0.0,0.0,0.0,0.0,0.0,0.0,0.0,1500,1500,0.0,0.0,40.0483511667,-88.2327233333,0.0,0.0,0.0,0.0,0.0,0.0,0.0,0.0,0.0,0.0,0.0,0,0.0,0.0,0.0,0.0,90.0,90.0,45.0,89.5724029541,89.5087432861,134.6450805664,44.9079971313,14.9165210724,3.6200001239999997,0,2,25,1,26,299
114,1530631463551,3376551, RC,0,39.9586186,-88.445067899,0,0.0,0.0,0.0,0.0,0.0,0.0,0.0,0.0,0.0,0.0,0.0,0.0,0.0,1500,1500,0.0,0.0,40.0483511667,-88.2327233333,0.0,0.0,0.0,0.0,0.0,0.0,0.0,0.0,0.0,0.0,0.0,0,0.0,0.0,0.0,0.0,90.0,90.0,45.0,89.5724029541,89.5087432861,134.6450805664,44.9079971313,14.9165210724,3.6200001239999997,0,2,25,1,29,302
115,1530631463601,3376601, RC,0,39.9586186,-88.445067899,0,0.0,0.0,0.0,0.0,0.0,0.0,0.0,0.0,0.0,0.0,0.0,0.0,0.0,1500,1500,0.0,0.0,40.0483511667,-88.2327233333,0.0,0.0,0.0,0.0,0.0,0.0,0.0,0.0,0.0,0.0,0.0,0,0.0,0.0,0.0,0.0,90.0,90.0,45.0,89.5724029541,89.5087432861,134.6450805664,44.9079971313,14.9165210724,3.6200001239999997,0,2,25,1,29,304
116,1530631463651,3376651, RC,0,39.9586186,-88.445067899,0,0.0,0.0,0.0,0.0,0.0,0.0,0.0,0.0,0.0,0.0,0.0,0.0,0.0,1500,1500,0.0,0.0,40.0483511667,-88.2327233333,0.0,0.0,0.0,0.0,0.0,0.0,0.0,0.0,0.0,0.0,0.0,0,0.0,0.0,0.0,0.0,90.0,90.0,45.0,89.5724029541,89.5087432861,134.6450805664,44.9079971313,14.9165210724,3.6200001239999997,0,2,25,1,30,307
117,1530631463702,3376702, RC,0,39.9586186,-88.445067899,0,0.0,0.0,0.0,0.0,0.0,0.0,0.0,0.0,0.0,0.0,0.0,0.0,0.0,1500,1500,0.0,0.0,40.0483511667,-88.2327233333,0.0,0.0,0.0,0.0,0.0,0.0,0.0,0.0,0.0,0.0,0.0,0,0.0,0.0,0.0,0.0,90.0,90.0,39.0,89.5724029541,89.5087432861,134.6450805664,44.9079971313,14.9165210724,3.6200001239999997,0,2,25,1,30,309
118,1530631463752,3376752, RC,0,39.9586186,-88.445067899,0,0.0,0.0,0.0,0.0,0.0,0.0,0.0,0.0,0.0,0.0,0.0,0.0,0.0,1500,1500,0.0,0.0,40.0483511667,-88.2327233333,0.0,0.0,0.0,0.0,0.0,0.0,0.0,0.0,0.0,0.0,0.0,0,0.0,0.0,0.0,0.0,90.0,90.0,39.0,89.7633895874,89.5087432861,134.6450805664,44.9079971313,14.9165210724,3.6200001239999997,0,2,25,1,30,312
119,1530631463802,3376802, RC,0,39.9586186,-88.445067899,0,0.0,0.0,0.0,0.0,0.0,0.0,0.0,0.0,0.0,0.0,0.0,0.0,0.0,1500,1500,0.0,0.0,40.0483511667,-88.2327233333,0.0,0.0,0.0,0.0,0.0,0.0,0.0,0.0,0.0,0.0,0.0,0,0.0,0.0,0.0,0.0,90.0,90.0,39.0,89.7633895874,89.5087432861,135.4726867676,44.9079971313,14.9165210724,3.6200001239999997,0,2,25,1,19,314
120,1530631463853,3376853, RC,0,39.9586186,-88.445067899,0,0.0,0.0,0.0,0.0,0.0,0.0,0.0,0.0,0.0,0.0,0.0,0.0,0.0,1500,1500,0.0,0.0,40.0483493333,-88.23272,0.0,0.0,0.0,0.0,0.0,0.0,0.0,0.0,0.0,0.0,0.0,0,0.0,0.0,0.0,0.0,90.0,90.0,39.0,89.7633895874,89.5087432861,140.056350708,44.9079971313,14.9165210724,3.6200001239999997,0,2,25,1,18,317
121,1530631463903,3376903, RC,0,39.9586186,-88.445067899,0,0.0,0.0,0.0,0.0,0.0,0.0,0.0,0.0,0.0,0.0,0.0,0.0,0.0,1500,1500,0.0,0.0,40.0483493333,-88.23272,0.0,0.0,0.0,0.0,0.0,0.0,0.0,0.0,0.0,0.0,0.0,0,0.0,0.0,0.0,0.0,90.0,90.0,39.0,89.7633895874,89.5087432861,141.1386108398,44.9079971313,14.9165210724,3.6200001239999997,0,2,25,1,20,319
122,1530631463953,3376953, RC,0,39.9586186,-88.445067899,0,0.0,0.0,0.0,0.0,0.0,0.0,0.0,0.0,0.0,0.0,0.0,0.0,0.0,1500,1500,0.0,0.0,40.0483493333,-88.23272,0.0,0.0,0.0,0.0,0.0,0.0,0.0,0.0,0.0,0.0,0.0,0,0.0,0.0,0.0,0.0,90.0,90.0,39.0,89.7633895874,89.5087432861,141.1386108398,44.9079971313,14.9165210724,3.6200001239999997,0,2,25,1,23,322
123,1530631464004,3377004, RC,0,39.9586186,-88.445067899,0,0.0,0.0,0.0,0.0,0.0,0.0,0.0,0.0,0.0,0.0,0.0,0.0,0.0,1500,1500,0.0,0.0,40.0483493333,-88.23272,0.0,0.0,0.0,0.0,0.0,0.0,0.0,0.0,0.0,0.0,0.0,0,0.0,0.0,0.0,0.0,90.0,90.0,39.0,89.7633895874,89.5087432861,141.1386108398,44.9079971313,14.9165210724,3.6200001239999997,0,2,25,1,20,324
124,1530631464054,3377054, RC,0,39.9586186,-88.445067899,0,0.0,0.0,0.0,0.0,0.0,0.0,0.0,0.0,0.0,0.0,0.0,0.0,0.0,1500,1500,0.0,0.0,40.0483493333,-88.23272,0.0,0.0,0.0,0.0,0.0,0.0,0.0,0.0,0.0,0.0,0.0,0,0.0,0.0,0.0,0.0,90.0,90.0,39.0,89.7633895874,89.5087432861,141.1386108398,44.9079971313,14.9165210724,3.6200001239999997,0,2,25,1,21,327
125,1530631464105,3377105, RC,0,39.9586186,-88.445067899,0,0.0,0.0,0.0,0.0,0.0,0.0,0.0,0.0,0.0,0.0,0.0,0.0,0.0,1500,1500,0.0,0.0,40.0483493333,-88.23272,0.0,0.0,0.0,0.0,0.0,0.0,0.0,0.0,0.0,0.0,0.0,0,0.0,0.0,0.0,0.0,90.0,90.0,39.0,89.7633895874,89.5087432861,141.1386108398,44.9079971313,14.9165210724,3.6200001239999997,0,2,25,1,19,330
126,1530631464155,3377155, RC,0,39.9586186,-88.445067899,0,0.0,0.0,0.0,0.0,0.0,0.0,0.0,0.0,0.0,0.0,0.0,0.0,0.0,1500,1500,0.0,0.0,40.0483493333,-88.23272,0.0,0.0,0.0,0.0,0.0,0.0,0.0,0.0,0.0,0.0,0.0,0,0.0,0.0,0.0,0.0,90.0,90.0,39.0,89.7633895874,89.5087432861,141.1386108398,44.9079971313,14.9165210724,3.6200001239999997,0,2,25,1,22,332
127,1530631464206,3377206, RC,0,39.9586186,-88.445067899,0,0.0,0.0,0.0,0.0,0.0,0.0,0.0,0.0,0.0,0.0,0.0,0.0,0.0,1500,1500,0.0,0.0,40.0483493333,-88.23272,0.0,0.0,0.0,0.0,0.0,0.0,0.0,0.0,0.0,0.0,0.0,0,0.0,0.0,0.0,0.0,90.0,90.0,39.0,89.7633895874,89.5087432861,141.1386108398,44.9079971313,14.9165210724,3.6200001239999997,0,2,25,1,23,335
128,1530631464256,3377256, RC,0,39.9586186,-88.445067899,0,0.0,0.0,0.0,0.0,0.0,0.0,0.0,0.0,0.0,0.0,0.0,0.0,0.0,1500,1500,0.0,0.0,40.0483493333,-88.23272,0.0,0.0,0.0,0.0,0.0,0.0,0.0,0.0,0.0,0.0,0.0,0,0.0,0.0,0.0,0.0,90.0,90.0,39.0,89.7633895874,89.5087432861,141.1386108398,44.9079971313,14.9165210724,3.6200001239999997,0,2,25,1,25,337
129,1530631464307,3377307, RC,0,39.9586186,-88.445067899,0,0.0,0.0,0.0,0.0,0.0,0.0,0.0,0.0,0.0,0.0,0.0,0.0,0.0,1500,1500,0.0,0.0,40.0483493333,-88.23272,0.0,0.0,0.0,0.0,0.0,0.0,0.0,0.0,0.0,0.0,0.0,0,0.0,0.0,0.0,0.0,90.0,90.0,43.0,89.7633895874,89.5087432861,141.1386108398,44.9079971313,14.9165210724,3.6200001239999997,0,2,25,1,22,339
130,1530631464357,3377357, RC,0,39.9586186,-88.445067899,0,0.0,0.0,0.0,0.0,0.0,0.0,0.0,0.0,0.0,0.0,0.0,0.0,0.0,1500,1500,0.0,0.0,40.0483493333,-88.23272,0.0,0.0,0.0,0.0,0.0,0.0,0.0,0.0,0.0,0.0,0.0,0,0.0,0.0,0.0,0.0,90.0,90.0,43.0,89.7633895874,89.5087432861,140.8202972412,44.9079971313,14.9165210724,3.6200001239999997,0,2,25,1,21,342
131,1530631464408,3377408, RC,0,39.9586186,-88.445067899,0,0.0,0.0,0.0,0.0,0.0,0.0,0.0,0.0,0.0,0.0,0.0,0.0,0.0,1500,1500,0.0,0.0,40.0483493333,-88.23272,0.0,0.0,0.0,0.0,0.0,0.0,0.0,0.0,0.0,0.0,0.0,0,0.0,0.0,0.0,0.0,90.0,90.0,43.0,89.7633895874,89.5087432861,138.3374786377,44.9079971313,14.9165210724,3.6200001239999997,0,2,25,1,26,344
132,1530631464459,3377459, RC,0,39.9586186,-88.445067899,0,0.0,0.0,0.0,0.0,0.0,0.0,0.0,0.0,0.0,0.0,0.0,0.0,0.0,1500,1500,0.0,0.0,40.0483493333,-88.23272,0.0,0.0,0.0,0.0,0.0,0.0,0.0,0.0,0.0,0.0,0.0,0,0.0,0.0,0.0,0.0,90.0,90.0,43.0,89.7633895874,89.5087432861,137.3188934326,44.9079971313,14.9165210724,3.6200001239999997,0,2,25,1,24,347
133,1530631464509,3377509, RC,0,39.9586186,-88.445067899,0,0.0,0.0,0.0,0.0,0.0,0.0,0.0,0.0,0.0,0.0,0.0,0.0,0.0,1500,1500,0.0,0.0,40.0483493333,-88.23272,0.0,0.0,0.0,0.0,0.0,0.0,0.0,0.0,0.0,0.0,0.0,0,0.0,0.0,0.0,0.0,90.0,90.0,43.0,89.7633895874,89.5087432861,136.8732452393,44.9079971313,14.9169464111,3.0099999905000003,0,2,25,1,23,350
134,1530631464560,3377560, RC,0,39.9586186,-88.445067899,0,0.0,0.0,0.0,0.0,0.0,0.0,0.0,0.0,0.0,0.0,0.0,0.0,0.0,1500,1500,0.0,0.0,40.0483493333,-88.23272,0.0,0.0,0.0,0.0,0.0,0.0,0.0,0.0,0.0,0.0,0.0,0,0.0,0.0,0.0,0.0,90.0,90.0,43.0,89.7633895874,89.5087432861,136.8732452393,44.9079971313,14.9169464111,3.0099999905000003,0,2,25,1,20,352
135,1530631464610,3377610, RC,0,39.9586186,-88.445067899,0,0.0,0.0,0.0,0.0,0.0,0.0,0.0,0.0,0.0,0.0,0.0,0.0,0.0,1500,1500,0.0,0.0,40.0483493333,-88.23272,0.0,0.0,0.0,0.0,0.0,0.0,0.0,0.0,0.0,0.0,0.0,0,0.0,0.0,0.0,0.0,90.0,90.0,43.0,89.7633895874,89.5087432861,136.8732452393,44.9079971313,14.9169464111,3.0099999905000003,0,2,25,1,28,355
136,1530631464661,3377661, RC,0,39.9586186,-88.445067899,0,0.0,0.0,0.0,0.0,0.0,0.0,0.0,0.0,0.0,0.0,0.0,0.0,0.0,1500,1500,0.0,0.0,40.0483493333,-88.23272,0.0,0.0,0.0,0.0,0.0,0.0,0.0,0.0,0.0,0.0,0.0,0,0.0,0.0,0.0,0.0,90.0,90.0,43.0,89.7633895874,89.5087432861,136.8732452393,44.9079971313,14.9169464111,3.0099999905000003,0,2,25,1,20,357
137,1530631464711,3377711, RC,0,39.9586186,-88.445067899,0,0.0,0.0,0.0,0.0,0.0,0.0,0.0,0.0,0.0,0.0,0.0,0.0,0.0,1500,1500,0.0,0.0,40.0483493333,-88.23272,0.0,0.0,0.0,0.0,0.0,0.0,0.0,0.0,0.0,0.0,0.0,0,0.0,0.0,0.0,0.0,90.0,90.0,43.0,89.7633895874,89.5087432861,136.8732452393,44.9079971313,14.9169464111,3.0099999905000003,0,2,25,1,27,360
138,1530631464762,3377762, RC,0,39.9586186,-88.445067899,0,0.0,0.0,0.0,0.0,0.0,0.0,0.0,0.0,0.0,0.0,0.0,0.0,0.0,1500,1500,0.0,0.0,40.0483493333,-88.23272,0.0,0.0,0.0,0.0,0.0,0.0,0.0,0.0,0.0,0.0,0.0,0,0.0,0.0,0.0,0.0,90.0,90.0,43.0,89.7633895874,89.5087432861,136.8732452393,44.9079971313,14.9169464111,3.0099999905000003,0,2,25,1,24,362
139,1530631464813,3377813, RC,0,39.9586186,-88.445067899,0,0.0,0.0,0.0,0.0,0.0,0.0,0.0,0.0,0.0,0.0,0.0,0.0,0.0,1500,1500,0.0,0.0,40.0483498333,-88.2327195,0.0,0.0,0.0,0.0,0.0,0.0,0.0,0.0,0.0,0.0,0.0,0,0.0,0.0,0.0,0.0,90.0,90.0,43.0,89.7633895874,89.5087432861,136.8732452393,44.9079971313,14.9169464111,3.0099999905000003,0,2,25,1,27,365
140,1530631464863,3377863, RC,0,39.9586186,-88.445067899,0,0.0,0.0,0.0,0.0,0.0,0.0,0.0,0.0,0.0,0.0,0.0,0.0,0.0,1500,1500,0.0,0.0,40.0483498333,-88.2327195,0.0,0.0,0.0,0.0,0.0,0.0,0.0,0.0,0.0,0.0,0.0,0,0.0,0.0,0.0,0.0,90.0,90.0,52.0,89.7633895874,89.5087432861,136.8732452393,44.9079971313,14.9169464111,3.0099999905000003,0,2,25,1,31,367
141,1530631464914,3377914, RC,0,39.9586186,-88.445067899,0,0.0,0.0,0.0,0.0,0.0,0.0,0.0,0.0,0.0,0.0,0.0,0.0,0.0,1500,1500,0.0,0.0,40.0483498333,-88.2327195,0.0,0.0,0.0,0.0,0.0,0.0,0.0,0.0,0.0,0.0,0.0,0,0.0,0.0,0.0,0.0,90.0,90.0,52.0,89.7633895874,89.5087432861,130.12507629389998,44.9079971313,14.9169464111,3.0099999905000003,0,2,25,1,47,370
142,1530631464975,3377975, RC,0,39.9586186,-88.445067899,0,0.0,0.0,0.0,0.0,0.0,0.0,0.0,0.0,0.0,0.0,0.0,0.0,0.0,1500,1500,0.0,0.0,40.0483498333,-88.2327195,0.0,0.0,0.0,0.0,0.0,0.0,0.0,0.0,0.0,0.0,0.0,0,0.0,0.0,0.0,0.0,90.0,90.0,52.0,89.7633895874,89.5087432861,126.49634552,44.9079971313,14.9169464111,3.0099999905000003,0,2,25,1,52,373
143,1530631465026,3378026, RC,0,39.9586186,-88.445067899,0,0.0,0.0,0.0,0.0,0.0,0.0,0.0,0.0,0.0,0.0,0.0,0.0,0.0,1500,1500,0.0,0.0,40.0483498333,-88.2327195,0.0,0.0,0.0,0.0,0.0,0.0,0.0,0.0,0.0,0.0,0.0,0,0.0,0.0,0.0,0.0,90.0,90.0,54.0,89.7633895874,89.5087432861,126.49634552,44.9079971313,14.9169464111,3.0099999905000003,0,2,25,1,46,375
144,1530631465077,3378077, RC,0,39.9586186,-88.445067899,0,0.0,0.0,0.0,0.0,0.0,0.0,0.0,0.0,0.0,0.0,0.0,0.0,0.0,1500,1500,0.0,0.0,40.0483498333,-88.2327195,0.0,0.0,0.0,0.0,0.0,0.0,0.0,0.0,0.0,0.0,0.0,0,0.0,0.0,0.0,0.0,90.0,90.0,55.0,89.7633895874,89.5087432861,126.49634552,44.9079971313,14.9169464111,3.0099999905000003,0,2,25,1,47,378
145,1530631465128,3378128, RC,0,39.9586186,-88.445067899,0,0.0,0.0,0.0,0.0,0.0,0.0,0.0,0.0,0.0,0.0,0.0,0.0,0.0,1500,1500,0.0,0.0,40.0483498333,-88.2327195,0.0,0.0,0.0,0.0,0.0,0.0,0.0,0.0,0.0,0.0,0.0,0,0.0,0.0,0.0,0.0,90.0,90.0,55.0,89.7633895874,89.5087432861,126.49634552,44.9079971313,14.9169464111,3.0099999905000003,0,2,25,1,47,380
146,1530631465178,3378178, RC,0,39.9586186,-88.445067899,0,0.0,0.0,0.0,0.0,0.0,0.0,0.0,0.0,0.0,0.0,0.0,0.0,0.0,1500,1500,0.0,0.0,40.0483498333,-88.2327195,0.0,0.0,0.0,0.0,0.0,0.0,0.0,0.0,0.0,0.0,0.0,0,0.0,0.0,0.0,0.0,90.0,90.0,55.0,89.7633895874,89.5087432861,126.49634552,44.9079971313,14.9169464111,3.0099999905000003,0,2,25,1,43,383
147,1530631465229,3378229, RC,0,39.9586186,-88.445067899,0,0.0,0.0,0.0,0.0,0.0,0.0,0.0,0.0,0.0,0.0,0.0,0.0,0.0,1500,1500,0.0,0.0,40.0483498333,-88.2327195,0.0,0.0,0.0,0.0,0.0,0.0,0.0,0.0,0.0,0.0,0.0,0,0.0,0.0,0.0,0.0,90.0,90.0,55.0,89.7633895874,89.5087432861,126.49634552,44.9079971313,14.9169464111,3.0099999905000003,0,2,25,1,49,385
148,1530631465279,3378279, RC,0,39.9586186,-88.445067899,0,0.0,0.0,0.0,0.0,0.0,0.0,0.0,0.0,0.0,0.0,0.0,0.0,0.0,1500,1500,0.0,0.0,40.0483498333,-88.2327195,0.0,0.0,0.0,0.0,0.0,0.0,0.0,0.0,0.0,0.0,0.0,0,0.0,0.0,0.0,0.0,90.0,90.0,55.0,89.7633895874,89.5087432861,125.4140930176,44.9079971313,14.9169464111,3.0099999905000003,0,2,25,1,54,388
149,1530631465330,3378330, RC,0,39.9586186,-88.445067899,0,0.0,0.0,0.0,0.0,0.0,0.0,0.0,0.0,0.0,0.0,0.0,0.0,0.0,1500,1500,0.0,0.0,40.0483498333,-88.2327195,0.0,0.0,0.0,0.0,0.0,0.0,0.0,0.0,0.0,0.0,0.0,0,0.0,0.0,0.0,0.0,90.0,90.0,55.0,89.7633895874,89.5087432861,123.56790161129999,44.9079971313,14.9169464111,3.0099999905000003,0,2,25,1,52,390
150,1530631465381,3378381, RC,0,39.9586186,-88.445067899,0,0.0,0.0,0.0,0.0,0.0,0.0,0.0,0.0,0.0,0.0,0.0,0.0,0.0,1500,1500,0.0,0.0,40.0483498333,-88.2327195,0.0,0.0,0.0,0.0,0.0,0.0,0.0,0.0,0.0,0.0,0.0,0,0.0,0.0,0.0,0.0,90.0,90.0,55.0,89.7633895874,89.5087432861,123.440574646,44.9079971313,14.9169464111,3.0099999905000003,0,2,25,1,49,393
151,1530631465431,3378431, RC,0,39.9586186,-88.445067899,0,0.0,0.0,0.0,0.0,0.0,0.0,0.0,0.0,0.0,0.0,0.0,0.0,0.0,1500,1500,0.0,0.0,40.0483498333,-88.2327195,0.0,0.0,0.0,0.0,0.0,0.0,0.0,0.0,0.0,0.0,0.0,0,0.0,0.0,0.0,0.0,90.0,90.0,55.0,89.7633895874,89.5087432861,123.440574646,44.9079971313,14.9169464111,3.0099999905000003,0,2,25,1,57,395
152,1530631465482,3378482, RC,0,39.9586186,-88.445067899,0,0.0,0.0,0.0,0.0,0.0,0.0,0.0,0.0,0.0,0.0,0.0,0.0,0.0,1500,1500,0.0,0.0,40.0483498333,-88.2327195,0.0,0.0,0.0,0.0,0.0,0.0,0.0,0.0,0.0,0.0,0.0,0,0.0,0.0,0.0,0.0,90.0,90.0,57.0,89.7633895874,89.5087432861,123.440574646,44.9079971313,14.9171504974,2.5699999332,0,2,25,1,51,398
153,1530631465533,3378533, RC,0,39.9586186,-88.445067899,0,0.0,0.0,0.0,0.0,0.0,0.0,0.0,0.0,0.0,0.0,0.0,0.0,0.0,1500,1500,0.0,0.0,40.0483498333,-88.2327195,0.0,0.0,0.0,0.0,0.0,0.0,0.0,0.0,0.0,0.0,0.0,0,0.0,0.0,0.0,0.0,90.0,90.0,57.0,89.7633895874,89.5087432861,123.440574646,44.9079971313,14.9171504974,2.5699999332,0,2,25,1,51,401
154,1530631465583,3378583, RC,0,39.9586186,-88.445067899,0,0.0,0.0,0.0,0.0,0.0,0.0,0.0,0.0,0.0,0.0,0.0,0.0,0.0,1500,1500,0.0,0.0,40.0483498333,-88.2327195,0.0,0.0,0.0,0.0,0.0,0.0,0.0,0.0,0.0,0.0,0.0,0,0.0,0.0,0.0,0.0,90.0,90.0,57.0,89.7633895874,89.5087432861,123.440574646,44.9079971313,14.9171504974,2.5699999332,0,2,25,1,53,403
155,1530631465634,3378634, RC,0,39.9586186,-88.445067899,0,0.0,0.0,0.0,0.0,0.0,0.0,0.0,0.0,0.0,0.0,0.0,0.0,0.0,1500,1500,0.0,0.0,40.0483498333,-88.2327195,0.0,0.0,0.0,0.0,0.0,0.0,0.0,0.0,0.0,0.0,0.0,0,0.0,0.0,0.0,0.0,90.0,90.0,57.0,89.7633895874,89.5087432861,123.440574646,44.9079971313,14.9171504974,2.5699999332,0,2,25,1,58,406
156,1530631465685,3378685, RC,0,39.9586186,-88.445067899,0,0.0,0.0,0.0,0.0,0.0,0.0,0.0,0.0,0.0,0.0,0.0,0.0,0.0,1500,1500,0.0,0.0,40.0483498333,-88.2327195,0.0,0.0,0.0,0.0,0.0,0.0,0.0,0.0,0.0,0.0,0.0,0,0.0,0.0,0.0,0.0,90.0,90.0,57.0,89.7633895874,89.5087432861,123.440574646,44.9079971313,14.9171504974,2.5699999332,0,2,25,1,63,408
157,1530631465735,3378735, RC,0,39.9586186,-88.445067899,0,0.0,0.0,0.0,0.0,0.0,0.0,0.0,0.0,0.0,0.0,0.0,0.0,0.0,1500,1500,0.0,0.0,40.0483498333,-88.2327195,0.0,0.0,0.0,0.0,0.0,0.0,0.0,0.0,0.0,0.0,0.0,0,0.0,0.0,0.0,0.0,90.0,90.0,57.0,89.7633895874,89.5087432861,123.440574646,44.9079971313,14.9171504974,2.5699999332,0,2,25,1,61,411
158,1530631465786,3378786, RC,0,39.9586186,-88.445067899,0,0.0,0.0,0.0,0.0,0.0,0.0,0.0,0.0,0.0,0.0,0.0,0.0,0.0,1500,1500,0.0,0.0,40.0483498333,-88.2327195,0.0,0.0,0.0,0.0,0.0,0.0,0.0,0.0,0.0,0.0,0.0,0,0.0,0.0,0.0,0.0,90.0,90.0,58.0,89.7633895874,89.5087432861,123.440574646,44.9079971313,14.9171504974,2.5699999332,0,2,25,1,60,413
159,1530631465837,3378837, RC,0,39.9586186,-88.445067899,0,0.0,0.0,0.0,0.0,0.0,0.0,0.0,0.0,0.0,0.0,0.0,0.0,0.0,1500,1500,0.0,0.0,40.0483491667,-88.2327181667,0.0,0.0,0.0,0.0,0.0,0.0,0.0,0.0,0.0,0.0,0.0,0,0.0,0.0,0.0,0.0,90.0,90.0,58.0,89.7633895874,89.5087432861,123.440574646,44.9079971313,14.9171504974,2.5699999332,0,2,25,1,60,416
160,1530631465887,3378887, RC,0,39.9586186,-88.445067899,0,0.0,0.0,0.0,0.0,0.0,0.0,0.0,0.0,0.0,0.0,0.0,0.0,0.0,1500,1500,0.0,0.0,40.0483491667,-88.2327181667,0.0,0.0,0.0,0.0,0.0,0.0,0.0,0.0,0.0,0.0,0.0,0,0.0,0.0,0.0,0.0,90.0,90.0,58.0,89.7633895874,89.5087432861,122.4219894409,44.9079971313,14.9171504974,2.5699999332,0,2,25,1,54,418
161,1530631465938,3378938, RC,0,39.9586186,-88.445067899,0,0.0,0.0,0.0,0.0,0.0,0.0,0.0,0.0,0.0,0.0,0.0,0.0,0.0,1500,1500,0.0,0.0,40.0483491667,-88.2327181667,0.0,0.0,0.0,0.0,0.0,0.0,0.0,0.0,0.0,0.0,0.0,0,0.0,0.0,0.0,0.0,90.0,90.0,58.0,89.7633895874,89.5087432861,121.4033889771,44.9079971313,14.9171504974,2.5699999332,0,2,25,1,60,421
162,1530631465989,3378989, RC,0,39.9586186,-88.445067899,0,0.0,0.0,0.0,0.0,0.0,0.0,0.0,0.0,0.0,0.0,0.0,0.0,0.0,1500,1500,0.0,0.0,40.0483491667,-88.2327181667,0.0,0.0,0.0,0.0,0.0,0.0,0.0,0.0,0.0,0.0,0.0,0,0.0,0.0,0.0,0.0,90.0,90.0,58.0,89.7633895874,89.5087432861,121.2124023438,44.9079971313,14.9171504974,2.5699999332,0,2,25,1,68,423
163,1530631466039,3379039, RC,0,39.9586186,-88.445067899,0,0.0,0.0,0.0,0.0,0.0,0.0,0.0,0.0,0.0,0.0,0.0,0.0,0.0,1500,1500,0.0,0.0,40.0483491667,-88.2327181667,0.0,0.0,0.0,0.0,0.0,0.0,0.0,0.0,0.0,0.0,0.0,0,0.0,0.0,0.0,0.0,90.0,90.0,58.0,89.7633895874,89.5087432861,121.1487426758,44.9079971313,14.9171504974,2.5699999332,0,2,25,1,67,426
164,1530631466090,3379090, RC,0,39.9586186,-88.445067899,0,0.0,0.0,0.0,0.0,0.0,0.0,0.0,0.0,0.0,0.0,0.0,0.0,0.0,1500,1500,0.0,0.0,40.0483491667,-88.2327181667,0.0,0.0,0.0,0.0,0.0,0.0,0.0,0.0,0.0,0.0,0.0,0,0.0,0.0,0.0,0.0,90.0,90.0,58.0,89.7633895874,89.5087432861,121.1487426758,44.9079971313,14.9171504974,2.5699999332,0,2,25,1,61,428
165,1530631466140,3379140, RC,0,39.9586186,-88.445067899,0,0.0,0.0,0.0,0.0,0.0,0.0,0.0,0.0,0.0,0.0,0.0,0.0,0.0,1500,1500,0.0,0.0,40.0483491667,-88.2327181667,0.0,0.0,0.0,0.0,0.0,0.0,0.0,0.0,0.0,0.0,0.0,0,0.0,0.0,0.0,0.0,90.0,90.0,58.0,89.7633895874,89.5087432861,121.1487426758,44.9079971313,14.9171504974,2.5699999332,0,2,25,1,64,431
166,1530631466191,3379191, RC,0,39.9586186,-88.445067899,0,0.0,0.0,0.0,0.0,0.0,0.0,0.0,0.0,0.0,0.0,0.0,0.0,0.0,1500,1500,0.0,0.0,40.0483491667,-88.2327181667,0.0,0.0,0.0,0.0,0.0,0.0,0.0,0.0,0.0,0.0,0.0,0,0.0,0.0,0.0,0.0,90.0,90.0,58.0,89.7633895874,89.5087432861,121.1487426758,44.9079971313,14.9171504974,2.5699999332,0,2,25,1,65,432
167,1530631466242,3379242, RC,0,39.9586186,-88.445067899,0,0.0,0.0,0.0,0.0,0.0,0.0,0.0,0.0,0.0,0.0,0.0,0.0,0.0,1500,1500,0.0,0.0,40.0483491667,-88.2327181667,0.0,0.0,0.0,0.0,0.0,0.0,0.0,0.0,0.0,0.0,0.0,0,0.0,0.0,0.0,0.0,90.0,90.0,58.0,89.7633895874,89.5087432861,121.1487426758,44.9079971313,14.9171504974,2.5699999332,0,2,25,1,67,434
168,1530631466292,3379292, RC,0,39.9586186,-88.445067899,0,0.0,0.0,0.0,0.0,0.0,0.0,0.0,0.0,0.0,0.0,0.0,0.0,0.0,1500,1500,0.0,0.0,40.0483491667,-88.2327181667,0.0,0.0,0.0,0.0,0.0,0.0,0.0,0.0,0.0,0.0,0.0,0,0.0,0.0,0.0,0.0,90.0,90.0,60.0,89.7633895874,89.5087432861,121.1487426758,44.9079971313,14.9171504974,2.5699999332,0,2,25,1,65,436
169,1530631466343,3379343, RC,0,39.9586186,-88.445067899,0,0.0,0.0,0.0,0.0,0.0,0.0,0.0,0.0,0.0,0.0,0.0,0.0,0.0,1500,1500,0.0,0.0,40.0483491667,-88.2327181667,0.0,0.0,0.0,0.0,0.0,0.0,0.0,0.0,0.0,0.0,0.0,0,0.0,0.0,0.0,0.0,90.0,90.0,60.0,89.7633895874,89.5087432861,121.1487426758,44.9079971313,14.9171504974,2.5699999332,0,2,25,1,70,438
