,(0)linux time (ms),    (1)uptime  (ms),      (2)drive mode,(3)mpc step counter,(4)mpc origin latitude  (deg),(5)mpc origin longitude  (deg),(6)closest trajectory point index to robot,(7)mpc error x (W;E)  (m),(8)mpc error y (W;E)  (m),(9)abs mpc error (m),(10)input [x] for mhe (m),(11)input [y] for mhe (m),(12)input [speed] for mhe (m/s),(13)input [vyaw] for mhe (rad/s),(14)mhe output x  (m),(15)mhe output y  (m),(16)mhe output speed  (m/s),(17)mhe output yaw  (rad),(18)mpc reference heading (rad),(19)mpc turn rate command (rad/s),(20)turn rate command as PWM,(21)throttle command as PWM,(22)primary gps latitude (deg),(23)primary gps longitude (deg),(24)secondary gps latitude  (deg),(25)secondary gps longitude (deg),(26)accelerometer x (m/s^2),(27)accelerometer y (m/s^2),(28)accelerometer z (m/s^2),(29)gyro yaw rate (rad/s),(30)gyro pitch rate   (rad/s),(31)gyro roll rate (rad/s),      (32)yaw (rad),  (33)pitch   (rad),     (34)roll (rad),(35)sonar1 measurement (m),(36)ultrasonic sensor measurement (m),(37)primary gps time (s),(38)normalized turn rate command,(39)normalized throttle command,(40)speed calculation from encoder left (m/s),(41)speed calculation from encoder right (m/s),(42)front gimbal target angle (degrees from straight down),(43)left gimbal target angle  (degrees from straight down),(44)right gimbal target angle  (degrees from straight down),(45)front gimbal measured angle  (degrees from straight down),(46)left gimbal measured angle    (degrees from straight down),(47)right gimbal measured angle  (degrees from straight down),(48)internal temperature (C),(49)battery voltage (V),(50)primary gps type,(51)secondary gps type,    (52)MPC R value, (53)MPC Q[0] value,Unnamed: 54,weed_num,start
0,1530628825019,738019, RC,0,39.9586186,-88.445067899,0,0.0,0.0,0.0,0.0,0.0,0.0,0.0,0.0,0.0,0.0,0.0,0.0,0.0,1500,1500,0.0,0.0,40.0483141667,-88.2330863333,0.0,0.0,0.0,0.0,0.0,0.0,0.0,0.0,0.0,0.0,0.0,0,0.0,0.0,0.0,0.0,90.0,90.0,90.0,89.25408935549999,89.0631027222,88.8084564209,27.6920013428,15.7399110794,1.7499998808000001,0,2,25,1,96,0
1,1530628825070,738070, RC,0,39.9586186,-88.445067899,0,0.0,0.0,0.0,0.0,0.0,0.0,0.0,0.0,0.0,0.0,0.0,0.0,0.0,1500,1500,0.0,0.0,40.0483141667,-88.2330863333,0.0,0.0,0.0,0.0,0.0,0.0,0.0,0.0,0.0,0.0,0.0,0,0.0,0.0,0.0,0.0,90.0,90.0,90.0,89.25408935549999,89.0631027222,88.8084564209,27.6920013428,15.7399110794,1.7499998808000001,0,2,25,1,179,2
2,1530628825121,738121, RC,0,39.9586186,-88.445067899,0,0.0,0.0,0.0,0.0,0.0,0.0,0.0,0.0,0.0,0.0,0.0,0.0,0.0,1500,1500,0.0,0.0,40.0483141667,-88.2330863333,0.0,0.0,0.0,0.0,0.0,0.0,0.0,0.0,0.0,0.0,0.0,0,0.0,0.0,0.0,0.0,90.0,90.0,90.0,89.25408935549999,89.0631027222,88.8084564209,27.6920013428,15.7399110794,1.7499998808000001,0,2,25,1,225,5
3,1530628825171,738171, RC,0,39.9586186,-88.445067899,0,0.0,0.0,0.0,0.0,0.0,0.0,0.0,0.0,0.0,0.0,0.0,0.0,0.0,1500,1500,0.0,0.0,40.0483141667,-88.2330863333,0.0,0.0,0.0,0.0,0.0,0.0,0.0,0.0,0.0,0.0,0.0,0,0.0,0.0,0.0,0.0,90.0,90.0,90.0,89.25408935549999,89.0631027222,88.8084564209,27.6920013428,15.7399110794,1.7499998808000001,0,2,25,1,218,9
4,1530628825222,738222, RC,0,39.9586186,-88.445067899,0,0.0,0.0,0.0,0.0,0.0,0.0,0.0,0.0,0.0,0.0,0.0,0.0,0.0,1500,1500,0.0,0.0,40.0483141667,-88.2330863333,0.0,0.0,0.0,0.0,0.0,0.0,0.0,0.0,0.0,0.0,0.0,0,0.0,0.0,0.0,0.0,90.0,90.0,90.0,89.25408935549999,89.0631027222,88.8084564209,27.6920013428,15.7399110794,1.7499998808000001,0,2,25,1,238,12
5,1530628825272,738272, RC,0,39.9586186,-88.445067899,0,0.0,0.0,0.0,0.0,0.0,0.0,0.0,0.0,0.0,0.0,0.0,0.0,0.0,1500,1500,0.0,0.0,40.0483141667,-88.2330863333,0.0,0.0,0.0,0.0,0.0,0.0,0.0,0.0,0.0,0.0,0.0,0,0.0,0.0,0.0,0.0,90.0,90.0,90.0,89.25408935549999,89.0631027222,88.8084564209,27.6920013428,15.7399110794,1.7499998808000001,0,2,25,1,223,14
6,1530628825323,738323, RC,0,39.9586186,-88.445067899,0,0.0,0.0,0.0,0.0,0.0,0.0,0.0,0.0,0.0,0.0,0.0,0.0,0.0,1500,1500,0.0,0.0,40.0483141667,-88.2330863333,0.0,0.0,0.0,0.0,0.0,0.0,0.0,0.0,0.0,0.0,0.0,0,0.0,0.0,0.0,0.0,90.0,90.0,90.0,89.25408935549999,89.0631027222,88.8084564209,27.6920013428,15.7399110794,1.7499998808000001,0,2,25,1,236,17
7,1530628825373,738373, RC,0,39.9586186,-88.445067899,0,0.0,0.0,0.0,0.0,0.0,0.0,0.0,0.0,0.0,0.0,0.0,0.0,0.0,1500,1500,0.0,0.0,40.0483141667,-88.2330863333,0.0,0.0,0.0,0.0,0.0,0.0,0.0,0.0,0.0,0.0,0.0,0,0.0,0.0,0.0,0.0,90.0,90.0,90.0,89.25408935549999,89.0631027222,88.8084564209,27.6920013428,15.7399110794,1.7499998808000001,0,2,25,1,237,19
8,1530628825424,738424, RC,0,39.9586186,-88.445067899,0,0.0,0.0,0.0,0.0,0.0,0.0,0.0,0.0,0.0,0.0,0.0,0.0,0.0,1500,1500,0.0,0.0,40.0483141667,-88.2330863333,0.0,0.0,0.0,0.0,0.0,0.0,0.0,0.0,0.0,0.0,0.0,0,0.0,0.0,0.0,0.0,90.0,90.0,90.0,89.25408935549999,89.0631027222,88.8084564209,27.6920013428,15.7399110794,1.7499998808000001,0,2,25,1,189,22
9,1530628825475,738475, RC,0,39.9586186,-88.445067899,0,0.0,0.0,0.0,0.0,0.0,0.0,0.0,0.0,0.0,0.0,0.0,0.0,0.0,1500,1500,0.0,0.0,40.0483141667,-88.2330863333,0.0,0.0,0.0,0.0,0.0,0.0,0.0,0.0,0.0,0.0,0.0,0,0.0,0.0,0.0,0.0,90.0,90.0,90.0,89.25408935549999,89.0631027222,88.8084564209,27.6920013428,15.7399110794,1.7499998808000001,0,2,25,1,213,24
10,1530628825525,738525, RC,0,39.9586186,-88.445067899,0,0.0,0.0,0.0,0.0,0.0,0.0,0.0,0.0,0.0,0.0,0.0,0.0,0.0,1500,1500,0.0,0.0,40.0483141667,-88.2330863333,0.0,0.0,0.0,0.0,0.0,0.0,0.0,0.0,0.0,0.0,0.0,0,0.0,0.0,0.0,0.0,90.0,90.0,90.0,89.25408935549999,89.0631027222,88.8084564209,26.6150016785,15.7399110794,1.7499998808000001,0,2,25,1,230,27
11,1530628825576,738576, RC,0,39.9586186,-88.445067899,0,0.0,0.0,0.0,0.0,0.0,0.0,0.0,0.0,0.0,0.0,0.0,0.0,0.0,1500,1500,0.0,0.0,40.0483141667,-88.2330863333,0.0,0.0,0.0,0.0,0.0,0.0,0.0,0.0,0.0,0.0,0.0,0,0.0,0.0,0.0,0.0,90.0,90.0,90.0,89.25408935549999,89.0631027222,88.8084564209,26.6150016785,15.7399110794,1.7499998808000001,0,2,25,1,224,29
12,1530628825627,738627, RC,0,39.9586186,-88.445067899,0,0.0,0.0,0.0,0.0,0.0,0.0,0.0,0.0,0.0,0.0,0.0,0.0,0.0,1500,1500,0.0,0.0,40.0483141667,-88.2330863333,0.0,0.0,0.0,0.0,0.0,0.0,0.0,0.0,0.0,0.0,0.0,0,0.0,0.0,0.0,0.0,90.0,90.0,90.0,89.25408935549999,89.0631027222,88.8084564209,26.6150016785,15.7399110794,1.7499998808000001,0,2,25,1,173,32
13,1530628825677,738677, RC,0,39.9586186,-88.445067899,0,0.0,0.0,0.0,0.0,0.0,0.0,0.0,0.0,0.0,0.0,0.0,0.0,0.0,1500,1500,0.0,0.0,40.0483141667,-88.2330863333,0.0,0.0,0.0,0.0,0.0,0.0,0.0,0.0,0.0,0.0,0.0,0,0.0,0.0,0.0,0.0,90.0,90.0,90.0,89.25408935549999,89.0631027222,88.8084564209,26.6150016785,15.7399110794,1.7499998808000001,0,2,25,1,195,35
14,1530628825728,738728, RC,0,39.9586186,-88.445067899,0,0.0,0.0,0.0,0.0,0.0,0.0,0.0,0.0,0.0,0.0,0.0,0.0,0.0,1500,1500,0.0,0.0,40.0483141667,-88.2330863333,0.0,0.0,0.0,0.0,0.0,0.0,0.0,0.0,0.0,0.0,0.0,0,0.0,0.0,0.0,0.0,90.0,90.0,90.0,89.25408935549999,89.0631027222,88.8084564209,26.6150016785,15.7451581955,2.9600000381,0,2,25,1,210,37
15,1530628825778,738778, RC,0,39.9586186,-88.445067899,0,0.0,0.0,0.0,0.0,0.0,0.0,0.0,0.0,0.0,0.0,0.0,0.0,0.0,1500,1500,0.0,0.0,40.0483141667,-88.2330863333,0.0,0.0,0.0,0.0,0.0,0.0,0.0,0.0,0.0,0.0,0.0,0,0.0,0.0,0.0,0.0,90.0,90.0,90.0,89.25408935549999,89.0631027222,88.8084564209,26.6150016785,15.7451581955,2.9600000381,0,2,25,1,232,39
16,1530628825829,738829, RC,0,39.9586186,-88.445067899,0,0.0,0.0,0.0,0.0,0.0,0.0,0.0,0.0,0.0,0.0,0.0,0.0,0.0,1500,1500,0.0,0.0,40.0483215,-88.2330793333,0.0,0.0,0.0,0.0,0.0,0.0,0.0,0.0,0.0,0.0,0.0,0,0.0,0.0,0.0,0.0,90.0,90.0,90.0,89.25408935549999,89.0631027222,88.8084564209,26.6150016785,15.7451581955,2.9600000381,0,2,25,1,188,41
17,1530628825880,738880, RC,0,39.9586186,-88.445067899,0,0.0,0.0,0.0,0.0,0.0,0.0,0.0,0.0,0.0,0.0,0.0,0.0,0.0,1500,1500,0.0,0.0,40.0483215,-88.2330793333,0.0,0.0,0.0,0.0,0.0,0.0,0.0,0.0,0.0,0.0,0.0,0,0.0,0.0,0.0,0.0,90.0,90.0,90.0,89.25408935549999,89.0631027222,88.8084564209,26.6150016785,15.7451581955,2.9600000381,0,2,25,1,174,44
18,1530628825930,738930, RC,0,39.9586186,-88.445067899,0,0.0,0.0,0.0,0.0,0.0,0.0,0.0,0.0,0.0,0.0,0.0,0.0,0.0,1500,1500,0.0,0.0,40.0483215,-88.2330793333,0.0,0.0,0.0,0.0,0.0,0.0,0.0,0.0,0.0,0.0,0.0,0,0.0,0.0,0.0,0.0,90.0,90.0,90.0,89.25408935549999,89.0631027222,88.8084564209,26.6150016785,15.7451581955,2.9600000381,0,2,25,1,201,46
19,1530628825981,738981, RC,0,39.9586186,-88.445067899,0,0.0,0.0,0.0,0.0,0.0,0.0,0.0,0.0,0.0,0.0,0.0,0.0,0.0,1500,1500,0.0,0.0,40.0483215,-88.2330793333,0.0,0.0,0.0,0.0,0.0,0.0,0.0,0.0,0.0,0.0,0.0,0,0.0,0.0,0.0,0.0,90.0,90.0,90.0,89.25408935549999,89.0631027222,88.8084564209,26.6150016785,15.7451581955,2.9600000381,0,2,25,1,226,48
20,1530628826031,739031, RC,0,39.9586186,-88.445067899,0,0.0,0.0,0.0,0.0,0.0,0.0,0.0,0.0,0.0,0.0,0.0,0.0,0.0,1500,1500,0.0,0.0,40.0483215,-88.2330793333,0.0,0.0,0.0,0.0,0.0,0.0,0.0,0.0,0.0,0.0,0.0,0,0.0,0.0,0.0,0.0,90.0,90.0,90.0,89.25408935549999,89.0631027222,88.8084564209,26.6150016785,15.7451581955,2.9600000381,0,2,25,1,233,50
21,1530628826082,739082, RC,0,39.9586186,-88.445067899,0,0.0,0.0,0.0,0.0,0.0,0.0,0.0,0.0,0.0,0.0,0.0,0.0,0.0,1500,1500,0.0,0.0,40.0483215,-88.2330793333,0.0,0.0,0.0,0.0,0.0,0.0,0.0,0.0,0.0,0.0,0.0,0,0.0,0.0,0.0,0.0,90.0,90.0,90.0,89.25408935549999,89.0631027222,88.8084564209,26.6150016785,15.7451581955,2.9600000381,0,2,25,1,200,52
22,1530628826132,739132, RC,0,39.9586186,-88.445067899,0,0.0,0.0,0.0,0.0,0.0,0.0,0.0,0.0,0.0,0.0,0.0,0.0,0.0,1500,1500,0.0,0.0,40.0483215,-88.2330793333,0.0,0.0,0.0,0.0,0.0,0.0,0.0,0.0,0.0,0.0,0.0,0,0.0,0.0,0.0,0.0,90.0,90.0,90.0,89.25408935549999,89.0631027222,88.8084564209,26.6150016785,15.7451581955,2.9600000381,0,2,25,1,189,54
23,1530628826183,739183, RC,0,39.9586186,-88.445067899,0,0.0,0.0,0.0,0.0,0.0,0.0,0.0,0.0,0.0,0.0,0.0,0.0,0.0,1500,1500,0.0,0.0,40.0483215,-88.2330793333,0.0,0.0,0.0,0.0,0.0,0.0,0.0,0.0,0.0,0.0,0.0,0,0.0,0.0,0.0,0.0,90.0,90.0,90.0,89.25408935549999,89.0631027222,88.8084564209,26.6150016785,15.7451581955,2.9600000381,0,2,25,1,197,56
24,1530628826233,739233, RC,0,39.9586186,-88.445067899,0,0.0,0.0,0.0,0.0,0.0,0.0,0.0,0.0,0.0,0.0,0.0,0.0,0.0,1500,1500,0.0,0.0,40.0483215,-88.2330793333,0.0,0.0,0.0,0.0,0.0,0.0,0.0,0.0,0.0,0.0,0.0,0,0.0,0.0,0.0,0.0,90.0,90.0,90.0,89.25408935549999,89.0631027222,88.8084564209,26.6150016785,15.7451581955,2.9600000381,0,2,25,1,217,59
25,1530628826284,739284, RC,0,39.9586186,-88.445067899,0,0.0,0.0,0.0,0.0,0.0,0.0,0.0,0.0,0.0,0.0,0.0,0.0,0.0,1500,1500,0.0,0.0,40.0483215,-88.2330793333,0.0,0.0,0.0,0.0,0.0,0.0,0.0,0.0,0.0,0.0,0.0,0,0.0,0.0,0.0,0.0,90.0,90.0,90.0,89.25408935549999,89.0631027222,88.8084564209,26.6150016785,15.7451581955,2.9600000381,0,2,25,1,222,61
26,1530628826334,739334, RC,0,39.9586186,-88.445067899,0,0.0,0.0,0.0,0.0,0.0,0.0,0.0,0.0,0.0,0.0,0.0,0.0,0.0,1500,1500,0.0,0.0,40.0483215,-88.2330793333,0.0,0.0,0.0,0.0,0.0,0.0,0.0,0.0,0.0,0.0,0.0,0,0.0,0.0,0.0,0.0,90.0,90.0,90.0,89.25408935549999,89.0631027222,88.8084564209,26.6150016785,15.7451581955,2.9600000381,0,2,25,1,197,63
27,1530628826385,739385, RC,0,39.9586186,-88.445067899,0,0.0,0.0,0.0,0.0,0.0,0.0,0.0,0.0,0.0,0.0,0.0,0.0,0.0,1500,1500,0.0,0.0,40.0483215,-88.2330793333,0.0,0.0,0.0,0.0,0.0,0.0,0.0,0.0,0.0,0.0,0.0,0,0.0,0.0,0.0,0.0,90.0,90.0,90.0,89.25408935549999,89.0631027222,88.8084564209,26.6150016785,15.7451581955,2.9600000381,0,2,25,1,216,65
28,1530628826436,739436, RC,0,39.9586186,-88.445067899,0,0.0,0.0,0.0,0.0,0.0,0.0,0.0,0.0,0.0,0.0,0.0,0.0,0.0,1500,1500,0.0,0.0,40.0483215,-88.2330793333,0.0,0.0,0.0,0.0,0.0,0.0,0.0,0.0,0.0,0.0,0.0,0,0.0,0.0,0.0,0.0,90.0,90.0,90.0,89.25408935549999,89.0631027222,88.8084564209,26.6150016785,15.7451581955,2.9600000381,0,2,25,1,223,67
29,1530628826486,739486, RC,0,39.9586186,-88.445067899,0,0.0,0.0,0.0,0.0,0.0,0.0,0.0,0.0,0.0,0.0,0.0,0.0,0.0,1500,1500,0.0,0.0,40.0483215,-88.2330793333,0.0,0.0,0.0,0.0,0.0,0.0,0.0,0.0,0.0,0.0,0.0,0,0.0,0.0,0.0,0.0,90.0,90.0,90.0,89.25408935549999,89.0631027222,88.8084564209,26.6150016785,15.7451581955,2.9600000381,0,2,25,1,229,69
30,1530628826537,739537, RC,0,39.9586186,-88.445067899,0,0.0,0.0,0.0,0.0,0.0,0.0,0.0,0.0,0.0,0.0,0.0,0.0,0.0,1500,1500,0.0,0.0,40.0483215,-88.2330793333,0.0,0.0,0.0,0.0,0.0,0.0,0.0,0.0,0.0,0.0,0.0,0,0.0,0.0,0.0,0.0,90.0,90.0,90.0,89.25408935549999,89.0631027222,88.8084564209,26.6150016785,15.7451581955,2.9600000381,0,2,25,1,235,71
31,1530628826587,739587, RC,0,39.9586186,-88.445067899,0,0.0,0.0,0.0,0.0,0.0,0.0,0.0,0.0,0.0,0.0,0.0,0.0,0.0,1500,1500,0.0,0.0,40.0483215,-88.2330793333,0.0,0.0,0.0,0.0,0.0,0.0,0.0,0.0,0.0,0.0,0.0,0,0.0,0.0,0.0,0.0,90.0,90.0,90.0,89.25408935549999,89.0631027222,88.8084564209,26.6150016785,15.7451581955,2.9600000381,0,2,25,1,218,74
32,1530628826638,739638, RC,0,39.9586186,-88.445067899,0,0.0,0.0,0.0,0.0,0.0,0.0,0.0,0.0,0.0,0.0,0.0,0.0,0.0,1500,1500,0.0,0.0,40.0483215,-88.2330793333,0.0,0.0,0.0,0.0,0.0,0.0,0.0,0.0,0.0,0.0,0.0,0,0.0,0.0,0.0,0.0,90.0,90.0,90.0,89.25408935549999,89.0631027222,88.8084564209,26.6150016785,15.7451581955,2.9600000381,0,2,25,1,222,76
33,1530628826688,739688, RC,0,39.9586186,-88.445067899,0,0.0,0.0,0.0,0.0,0.0,0.0,0.0,0.0,0.0,0.0,0.0,0.0,0.0,1500,1500,0.0,0.0,40.0483215,-88.2330793333,0.0,0.0,0.0,0.0,0.0,0.0,0.0,0.0,0.0,0.0,0.0,0,0.0,0.0,0.0,0.0,90.0,90.0,90.0,89.25408935549999,89.0631027222,88.8084564209,26.6150016785,15.7451581955,2.9600000381,0,2,25,1,217,78
34,1530628826739,739739, RC,0,39.9586186,-88.445067899,0,0.0,0.0,0.0,0.0,0.0,0.0,0.0,0.0,0.0,0.0,0.0,0.0,0.0,1500,1500,0.0,0.0,40.0483215,-88.2330793333,0.0,0.0,0.0,0.0,0.0,0.0,0.0,0.0,0.0,0.0,0.0,0,0.0,0.0,0.0,0.0,90.0,90.0,90.0,89.25408935549999,89.0631027222,88.8084564209,26.6150016785,15.745310783399999,2.5199999809,0,2,25,1,234,80
35,1530628826790,739790, RC,0,39.9586186,-88.445067899,0,0.0,0.0,0.0,0.0,0.0,0.0,0.0,0.0,0.0,0.0,0.0,0.0,0.0,1500,1500,0.0,0.0,40.0483215,-88.2330793333,0.0,0.0,0.0,0.0,0.0,0.0,0.0,0.0,0.0,0.0,0.0,0,0.0,0.0,0.0,0.0,90.0,90.0,90.0,89.25408935549999,89.0631027222,88.8084564209,26.6150016785,15.745310783399999,2.5199999809,0,2,25,1,235,82
36,1530628826840,739840, RC,0,39.9586186,-88.445067899,0,0.0,0.0,0.0,0.0,0.0,0.0,0.0,0.0,0.0,0.0,0.0,0.0,0.0,1500,1500,0.0,0.0,40.0483305,-88.2330695,0.0,0.0,0.0,0.0,0.0,0.0,0.0,0.0,0.0,0.0,0.0,0,0.0,0.0,0.0,0.0,90.0,90.0,90.0,89.25408935549999,89.0631027222,88.8084564209,26.6150016785,15.745310783399999,2.5199999809,0,2,25,1,229,84
37,1530628826891,739891, RC,0,39.9586186,-88.445067899,0,0.0,0.0,0.0,0.0,0.0,0.0,0.0,0.0,0.0,0.0,0.0,0.0,0.0,1500,1500,0.0,0.0,40.0483305,-88.2330695,0.0,0.0,0.0,0.0,0.0,0.0,0.0,0.0,0.0,0.0,0.0,0,0.0,0.0,0.0,0.0,90.0,90.0,90.0,89.25408935549999,89.0631027222,88.8084564209,26.6150016785,15.745310783399999,2.5199999809,0,2,25,1,236,86
38,1530628826941,739941, RC,0,39.9586186,-88.445067899,0,0.0,0.0,0.0,0.0,0.0,0.0,0.0,0.0,0.0,0.0,0.0,0.0,0.0,1500,1500,0.0,0.0,40.0483305,-88.2330695,0.0,0.0,0.0,0.0,0.0,0.0,0.0,0.0,0.0,0.0,0.0,0,0.0,0.0,0.0,0.0,90.0,90.0,90.0,89.25408935549999,89.0631027222,88.8084564209,26.6150016785,15.745310783399999,2.5199999809,0,2,25,1,220,89
39,1530628826992,739992, RC,0,39.9586186,-88.445067899,0,0.0,0.0,0.0,0.0,0.0,0.0,0.0,0.0,0.0,0.0,0.0,0.0,0.0,1500,1500,0.0,0.0,40.0483305,-88.2330695,0.0,0.0,0.0,0.0,0.0,0.0,0.0,0.0,0.0,0.0,0.0,0,0.0,0.0,0.0,0.0,90.0,90.0,90.0,89.25408935549999,89.0631027222,88.8084564209,26.6150016785,15.745310783399999,2.5199999809,0,2,25,1,227,91
40,1530628827042,740042, RC,0,39.9586186,-88.445067899,0,0.0,0.0,0.0,0.0,0.0,0.0,0.0,0.0,0.0,0.0,0.0,0.0,0.0,1500,1500,0.0,0.0,40.0483305,-88.2330695,0.0,0.0,0.0,0.0,0.0,0.0,0.0,0.0,0.0,0.0,0.0,0,0.0,0.0,0.0,0.0,90.0,90.0,90.0,89.25408935549999,89.0631027222,88.8084564209,26.6150016785,15.745310783399999,2.5199999809,0,2,25,1,217,93
41,1530628827093,740093, RC,0,39.9586186,-88.445067899,0,0.0,0.0,0.0,0.0,0.0,0.0,0.0,0.0,0.0,0.0,0.0,0.0,0.0,1500,1500,0.0,0.0,40.0483305,-88.2330695,0.0,0.0,0.0,0.0,0.0,0.0,0.0,0.0,0.0,0.0,0.0,0,0.0,0.0,0.0,0.0,90.0,90.0,90.0,89.25408935549999,89.0631027222,88.8084564209,26.6150016785,15.745310783399999,2.5199999809,0,2,25,1,234,95
42,1530628827144,740144, RC,0,39.9586186,-88.445067899,0,0.0,0.0,0.0,0.0,0.0,0.0,0.0,0.0,0.0,0.0,0.0,0.0,0.0,1500,1500,0.0,0.0,40.0483305,-88.2330695,0.0,0.0,0.0,0.0,0.0,0.0,0.0,0.0,0.0,0.0,0.0,0,0.0,0.0,0.0,0.0,90.0,90.0,90.0,89.25408935549999,89.0631027222,88.8084564209,26.6150016785,15.745310783399999,2.5199999809,0,2,25,1,235,97
43,1530628827194,740194, RC,0,39.9586186,-88.445067899,0,0.0,0.0,0.0,0.0,0.0,0.0,0.0,0.0,0.0,0.0,0.0,0.0,0.0,1500,1500,0.0,0.0,40.0483305,-88.2330695,0.0,0.0,0.0,0.0,0.0,0.0,0.0,0.0,0.0,0.0,0.0,0,0.0,0.0,0.0,0.0,90.0,90.0,90.0,89.25408935549999,89.0631027222,88.8084564209,26.6150016785,15.745310783399999,2.5199999809,0,2,25,1,240,99
44,1530628827245,740245, RC,0,39.9586186,-88.445067899,0,0.0,0.0,0.0,0.0,0.0,0.0,0.0,0.0,0.0,0.0,0.0,0.0,0.0,1500,1500,0.0,0.0,40.0483305,-88.2330695,0.0,0.0,0.0,0.0,0.0,0.0,0.0,0.0,0.0,0.0,0.0,0,0.0,0.0,0.0,0.0,90.0,90.0,90.0,89.25408935549999,89.0631027222,88.8084564209,26.6150016785,15.745310783399999,2.5199999809,0,2,25,1,224,101
45,1530628827295,740295, RC,0,39.9586186,-88.445067899,0,0.0,0.0,0.0,0.0,0.0,0.0,0.0,0.0,0.0,0.0,0.0,0.0,0.0,1500,1500,0.0,0.0,40.0483305,-88.2330695,0.0,0.0,0.0,0.0,0.0,0.0,0.0,0.0,0.0,0.0,0.0,0,0.0,0.0,0.0,0.0,90.0,90.0,90.0,89.25408935549999,89.0631027222,88.8084564209,26.6150016785,15.745310783399999,2.5199999809,0,2,25,1,223,104
46,1530628827346,740346, RC,0,39.9586186,-88.445067899,0,0.0,0.0,0.0,0.0,0.0,0.0,0.0,0.0,0.0,0.0,0.0,0.0,0.0,1500,1500,0.0,0.0,40.0483305,-88.2330695,0.0,0.0,0.0,0.0,0.0,0.0,0.0,0.0,0.0,0.0,0.0,0,0.0,0.0,0.0,0.0,90.0,90.0,90.0,89.25408935549999,89.0631027222,88.8084564209,26.6150016785,15.745310783399999,2.5199999809,0,2,25,1,221,106
47,1530628827396,740396, RC,0,39.9586186,-88.445067899,0,0.0,0.0,0.0,0.0,0.0,0.0,0.0,0.0,0.0,0.0,0.0,0.0,0.0,1500,1500,0.0,0.0,40.0483305,-88.2330695,0.0,0.0,0.0,0.0,0.0,0.0,0.0,0.0,0.0,0.0,0.0,0,0.0,0.0,0.0,0.0,90.0,90.0,90.0,89.25408935549999,89.0631027222,88.8084564209,26.6150016785,15.745310783399999,2.5199999809,0,2,25,1,223,108
48,1530628827447,740447, RC,0,39.9586186,-88.445067899,0,0.0,0.0,0.0,0.0,0.0,0.0,0.0,0.0,0.0,0.0,0.0,0.0,0.0,1500,1500,0.0,0.0,40.0483305,-88.2330695,0.0,0.0,0.0,0.0,0.0,0.0,0.0,0.0,0.0,0.0,0.0,0,0.0,0.0,0.0,0.0,90.0,90.0,90.0,89.25408935549999,89.0631027222,88.8084564209,26.6150016785,15.745310783399999,2.5199999809,0,2,25,1,242,110
49,1530628827498,740498, RC,0,39.9586186,-88.445067899,0,0.0,0.0,0.0,0.0,0.0,0.0,0.0,0.0,0.0,0.0,0.0,0.0,0.0,1500,1500,0.0,0.0,40.0483305,-88.2330695,0.0,0.0,0.0,0.0,0.0,0.0,0.0,0.0,0.0,0.0,0.0,0,0.0,0.0,0.0,0.0,90.0,90.0,90.0,89.25408935549999,89.0631027222,88.8084564209,26.6150016785,15.745310783399999,2.5199999809,0,2,25,1,211,112
50,1530628827548,740548, RC,0,39.9586186,-88.445067899,0,0.0,0.0,0.0,0.0,0.0,0.0,0.0,0.0,0.0,0.0,0.0,0.0,0.0,1500,1500,0.0,0.0,40.0483305,-88.2330695,0.0,0.0,0.0,0.0,0.0,0.0,0.0,0.0,0.0,0.0,0.0,0,0.0,0.0,0.0,0.0,90.0,90.0,90.0,89.12677001950001,89.0631027222,88.8084564209,26.6150016785,15.745310783399999,2.5199999809,0,2,25,1,226,114
51,1530628827599,740599, RC,0,39.9586186,-88.445067899,0,0.0,0.0,0.0,0.0,0.0,0.0,0.0,0.0,0.0,0.0,0.0,0.0,0.0,1500,1500,0.0,0.0,40.0483305,-88.2330695,0.0,0.0,0.0,0.0,0.0,0.0,0.0,0.0,0.0,0.0,0.0,0,0.0,0.0,0.0,0.0,90.0,90.0,90.0,89.12677001950001,89.0631027222,88.8084564209,26.6150016785,15.745310783399999,2.5199999809,0,2,25,1,224,116
52,1530628827649,740649, RC,0,39.9586186,-88.445067899,0,0.0,0.0,0.0,0.0,0.0,0.0,0.0,0.0,0.0,0.0,0.0,0.0,0.0,1500,1500,0.0,0.0,40.0483305,-88.2330695,0.0,0.0,0.0,0.0,0.0,0.0,0.0,0.0,0.0,0.0,0.0,0,0.0,0.0,0.0,0.0,90.0,90.0,90.0,89.12677001950001,89.0631027222,88.8084564209,26.6150016785,15.745310783399999,2.5199999809,0,2,25,1,225,119
53,1530628827700,740700, RC,0,39.9586186,-88.445067899,0,0.0,0.0,0.0,0.0,0.0,0.0,0.0,0.0,0.0,0.0,0.0,0.0,0.0,1500,1500,0.0,0.0,40.0483305,-88.2330695,0.0,0.0,0.0,0.0,0.0,0.0,0.0,0.0,0.0,0.0,0.0,0,0.0,0.0,0.0,0.0,90.0,90.0,90.0,89.12677001950001,89.0631027222,88.8084564209,26.6150016785,15.745310783399999,2.5199999809,0,2,25,1,248,121
54,1530628827750,740750, RC,0,39.9586186,-88.445067899,0,0.0,0.0,0.0,0.0,0.0,0.0,0.0,0.0,0.0,0.0,0.0,0.0,0.0,1500,1500,0.0,0.0,40.0483305,-88.2330695,0.0,0.0,0.0,0.0,0.0,0.0,0.0,0.0,0.0,0.0,0.0,0,0.0,0.0,0.0,0.0,90.0,90.0,90.0,89.12677001950001,89.0631027222,88.8084564209,26.6150016785,15.745353698699999,2.9000000954000003,0,2,25,1,220,123
55,1530628827801,740801, RC,0,39.9586186,-88.445067899,0,0.0,0.0,0.0,0.0,0.0,0.0,0.0,0.0,0.0,0.0,0.0,0.0,0.0,1500,1500,0.0,0.0,40.0483305,-88.2330695,0.0,0.0,0.0,0.0,0.0,0.0,0.0,0.0,0.0,0.0,0.0,0,0.0,0.0,0.0,0.0,90.0,90.0,90.0,89.12677001950001,89.0631027222,88.8084564209,26.6150016785,15.745353698699999,2.9000000954000003,0,2,25,1,221,125
56,1530628827851,740851, RC,0,39.9586186,-88.445067899,0,0.0,0.0,0.0,0.0,0.0,0.0,0.0,0.0,0.0,0.0,0.0,0.0,0.0,1500,1500,0.0,0.0,40.0483316667,-88.2330688333,0.0,0.0,0.0,0.0,0.0,0.0,0.0,0.0,0.0,0.0,0.0,0,0.0,0.0,0.0,0.0,90.0,90.0,90.0,89.12677001950001,89.0631027222,88.8084564209,26.6150016785,15.745353698699999,2.9000000954000003,0,2,25,1,218,127
57,1530628827902,740902, RC,0,39.9586186,-88.445067899,0,0.0,0.0,0.0,0.0,0.0,0.0,0.0,0.0,0.0,0.0,0.0,0.0,0.0,1500,1500,0.0,0.0,40.0483316667,-88.2330688333,0.0,0.0,0.0,0.0,0.0,0.0,0.0,0.0,0.0,0.0,0.0,0,0.0,0.0,0.0,0.0,90.0,90.0,90.0,89.12677001950001,89.0631027222,88.8084564209,26.6150016785,15.745353698699999,2.9000000954000003,0,2,25,1,224,129
58,1530628827953,740953, RC,0,39.9586186,-88.445067899,0,0.0,0.0,0.0,0.0,0.0,0.0,0.0,0.0,0.0,0.0,0.0,0.0,0.0,1500,1500,0.0,0.0,40.0483316667,-88.2330688333,0.0,0.0,0.0,0.0,0.0,0.0,0.0,0.0,0.0,0.0,0.0,0,0.0,0.0,0.0,0.0,90.0,90.0,90.0,89.12677001950001,89.0631027222,88.8084564209,26.6150016785,15.745353698699999,2.9000000954000003,0,2,25,1,228,132
59,1530628828003,741003, RC,0,39.9586186,-88.445067899,0,0.0,0.0,0.0,0.0,0.0,0.0,0.0,0.0,0.0,0.0,0.0,0.0,0.0,1500,1500,0.0,0.0,40.0483316667,-88.2330688333,0.0,0.0,0.0,0.0,0.0,0.0,0.0,0.0,0.0,0.0,0.0,0,0.0,0.0,0.0,0.0,90.0,90.0,90.0,89.12677001950001,89.0631027222,88.8084564209,26.6150016785,15.745353698699999,2.9000000954000003,0,2,25,1,217,134
60,1530628828054,741054, RC,0,39.9586186,-88.445067899,0,0.0,0.0,0.0,0.0,0.0,0.0,0.0,0.0,0.0,0.0,0.0,0.0,0.0,1500,1500,0.0,0.0,40.0483316667,-88.2330688333,0.0,0.0,0.0,0.0,0.0,0.0,0.0,0.0,0.0,0.0,0.0,0,0.0,0.0,0.0,0.0,90.0,90.0,90.0,89.12677001950001,89.0631027222,88.8084564209,26.6150016785,15.745353698699999,2.9000000954000003,0,2,25,1,217,136
61,1530628828104,741104, RC,0,39.9586186,-88.445067899,0,0.0,0.0,0.0,0.0,0.0,0.0,0.0,0.0,0.0,0.0,0.0,0.0,0.0,1500,1500,0.0,0.0,40.0483316667,-88.2330688333,0.0,0.0,0.0,0.0,0.0,0.0,0.0,0.0,0.0,0.0,0.0,0,0.0,0.0,0.0,0.0,90.0,90.0,90.0,89.12677001950001,89.0631027222,88.8084564209,26.6150016785,15.745353698699999,2.9000000954000003,0,2,25,1,220,138
62,1530628828155,741155, RC,0,39.9586186,-88.445067899,0,0.0,0.0,0.0,0.0,0.0,0.0,0.0,0.0,0.0,0.0,0.0,0.0,0.0,1500,1500,0.0,0.0,40.0483316667,-88.2330688333,0.0,0.0,0.0,0.0,0.0,0.0,0.0,0.0,0.0,0.0,0.0,0,0.0,0.0,0.0,0.0,90.0,90.0,90.0,89.12677001950001,89.0631027222,88.8084564209,26.6150016785,15.745353698699999,2.9000000954000003,0,2,25,1,228,140
63,1530628828206,741206, RC,0,39.9586186,-88.445067899,0,0.0,0.0,0.0,0.0,0.0,0.0,0.0,0.0,0.0,0.0,0.0,0.0,0.0,1500,1500,0.0,0.0,40.0483316667,-88.2330688333,0.0,0.0,0.0,0.0,0.0,0.0,0.0,0.0,0.0,0.0,0.0,0,0.0,0.0,0.0,0.0,90.0,90.0,90.0,89.12677001950001,89.0631027222,88.8084564209,26.6150016785,15.745353698699999,2.9000000954000003,0,2,25,1,219,142
64,1530628828256,741256, RC,0,39.9586186,-88.445067899,0,0.0,0.0,0.0,0.0,0.0,0.0,0.0,0.0,0.0,0.0,0.0,0.0,0.0,1500,1500,0.0,0.0,40.0483316667,-88.2330688333,0.0,0.0,0.0,0.0,0.0,0.0,0.0,0.0,0.0,0.0,0.0,0,0.0,0.0,0.0,0.0,90.0,90.0,90.0,89.12677001950001,89.0631027222,88.8084564209,26.6150016785,15.745353698699999,2.9000000954000003,0,2,25,1,227,144
65,1530628828307,741307, RC,0,39.9586186,-88.445067899,0,0.0,0.0,0.0,0.0,0.0,0.0,0.0,0.0,0.0,0.0,0.0,0.0,0.0,1500,1500,0.0,0.0,40.0483316667,-88.2330688333,0.0,0.0,0.0,0.0,0.0,0.0,0.0,0.0,0.0,0.0,0.0,0,0.0,0.0,0.0,0.0,90.0,90.0,90.0,89.12677001950001,89.0631027222,88.8084564209,26.6150016785,15.745353698699999,2.9000000954000003,0,2,25,1,223,147
66,1530628828358,741358, RC,0,39.9586186,-88.445067899,0,0.0,0.0,0.0,0.0,0.0,0.0,0.0,0.0,0.0,0.0,0.0,0.0,0.0,1500,1500,0.0,0.0,40.0483316667,-88.2330688333,0.0,0.0,0.0,0.0,0.0,0.0,0.0,0.0,0.0,0.0,0.0,0,0.0,0.0,0.0,0.0,90.0,90.0,90.0,89.12677001950001,89.0631027222,88.8084564209,26.6150016785,15.745353698699999,2.9000000954000003,0,2,25,1,208,149
67,1530628828408,741408, RC,0,39.9586186,-88.445067899,0,0.0,0.0,0.0,0.0,0.0,0.0,0.0,0.0,0.0,0.0,0.0,0.0,0.0,1500,1500,0.0,0.0,40.0483316667,-88.2330688333,0.0,0.0,0.0,0.0,0.0,0.0,0.0,0.0,0.0,0.0,0.0,0,0.0,0.0,0.0,0.0,90.0,90.0,90.0,89.12677001950001,89.0631027222,88.8084564209,26.6150016785,15.745353698699999,2.9000000954000003,0,2,25,1,223,151
68,1530628828459,741459, RC,0,39.9586186,-88.445067899,0,0.0,0.0,0.0,0.0,0.0,0.0,0.0,0.0,0.0,0.0,0.0,0.0,0.0,1500,1500,0.0,0.0,40.0483316667,-88.2330688333,0.0,0.0,0.0,0.0,0.0,0.0,0.0,0.0,0.0,0.0,0.0,0,0.0,0.0,0.0,0.0,90.0,90.0,90.0,89.12677001950001,89.0631027222,88.8084564209,26.6150016785,15.745353698699999,2.9000000954000003,0,2,25,1,210,153
69,1530628828509,741509, RC,0,39.9586186,-88.445067899,0,0.0,0.0,0.0,0.0,0.0,0.0,0.0,0.0,0.0,0.0,0.0,0.0,0.0,1500,1500,0.0,0.0,40.0483316667,-88.2330688333,0.0,0.0,0.0,0.0,0.0,0.0,0.0,0.0,0.0,0.0,0.0,0,0.0,0.0,0.0,0.0,90.0,90.0,90.0,89.12677001950001,89.0631027222,88.8084564209,26.6150016785,15.745353698699999,2.9000000954000003,0,2,25,1,220,155
70,1530628828560,741560, RC,0,39.9586186,-88.445067899,0,0.0,0.0,0.0,0.0,0.0,0.0,0.0,0.0,0.0,0.0,0.0,0.0,0.0,1500,1500,0.0,0.0,40.0483316667,-88.2330688333,0.0,0.0,0.0,0.0,0.0,0.0,0.0,0.0,0.0,0.0,0.0,0,0.0,0.0,0.0,0.0,90.0,90.0,79.0,89.12677001950001,89.0631027222,88.8084564209,26.6150016785,15.745353698699999,2.9000000954000003,0,2,25,1,228,157
71,1530628828610,741610, RC,0,39.9586186,-88.445067899,0,0.0,0.0,0.0,0.0,0.0,0.0,0.0,0.0,0.0,0.0,0.0,0.0,0.0,1500,1500,0.0,0.0,40.0483316667,-88.2330688333,0.0,0.0,0.0,0.0,0.0,0.0,0.0,0.0,0.0,0.0,0.0,0,0.0,0.0,0.0,0.0,90.0,90.0,79.0,89.12677001950001,89.0631027222,88.8084564209,26.6150016785,15.745353698699999,2.9000000954000003,0,2,25,1,212,159
72,1530628828661,741661, RC,0,39.9586186,-88.445067899,0,0.0,0.0,0.0,0.0,0.0,0.0,0.0,0.0,0.0,0.0,0.0,0.0,0.0,1500,1500,0.0,0.0,40.0483316667,-88.2330688333,0.0,0.0,0.0,0.0,0.0,0.0,0.0,0.0,0.0,0.0,0.0,0,0.0,0.0,0.0,0.0,90.0,90.0,79.0,89.12677001950001,89.0631027222,95.23831939700001,26.6150016785,15.745353698699999,2.9000000954000003,0,2,25,1,220,162
73,1530628828711,741711, RC,0,39.9586186,-88.445067899,0,0.0,0.0,0.0,0.0,0.0,0.0,0.0,0.0,0.0,0.0,0.0,0.0,0.0,1500,1500,0.0,0.0,40.0483316667,-88.2330688333,0.0,0.0,0.0,0.0,0.0,0.0,0.0,0.0,0.0,0.0,0.0,0,0.0,0.0,0.0,0.0,90.0,90.0,79.0,89.12677001950001,89.0631027222,100.9042358398,26.6150016785,15.735504150399999,2.5199999809,0,2,25,1,154,164
74,1530628828762,741762, RC,0,39.9586186,-88.445067899,0,0.0,0.0,0.0,0.0,0.0,0.0,0.0,0.0,0.0,0.0,0.0,0.0,0.0,1500,1500,0.0,0.0,40.0483316667,-88.2330688333,0.0,0.0,0.0,0.0,0.0,0.0,0.0,0.0,0.0,0.0,0.0,0,0.0,0.0,0.0,0.0,90.0,90.0,72.0,89.12677001950001,89.0631027222,100.9042358398,26.6150016785,15.735504150399999,2.5199999809,0,2,25,1,129,166
75,1530628828813,741813, RC,0,39.9586186,-88.445067899,0,0.0,0.0,0.0,0.0,0.0,0.0,0.0,0.0,0.0,0.0,0.0,0.0,0.0,1500,1500,0.0,0.0,40.0483316667,-88.2330688333,0.0,0.0,0.0,0.0,0.0,0.0,0.0,0.0,0.0,0.0,0.0,0,0.0,0.0,0.0,0.0,90.0,90.0,72.0,89.12677001950001,89.0631027222,100.9042358398,26.6150016785,15.735504150399999,2.5199999809,0,2,25,1,108,168
76,1530628828863,741863, RC,0,39.9586186,-88.445067899,0,0.0,0.0,0.0,0.0,0.0,0.0,0.0,0.0,0.0,0.0,0.0,0.0,0.0,1500,1500,0.0,0.0,40.0483281667,-88.2330776667,0.0,0.0,0.0,0.0,0.0,0.0,0.0,0.0,0.0,0.0,0.0,0,0.0,0.0,0.0,0.0,90.0,90.0,69.0,89.12677001950001,89.0631027222,104.02367401120001,26.6150016785,15.735504150399999,2.5199999809,0,2,25,1,120,170
77,1530628828914,741914, RC,0,39.9586186,-88.445067899,0,0.0,0.0,0.0,0.0,0.0,0.0,0.0,0.0,0.0,0.0,0.0,0.0,0.0,1500,1500,0.0,0.0,40.0483281667,-88.2330776667,0.0,0.0,0.0,0.0,0.0,0.0,0.0,0.0,0.0,0.0,0.0,0,0.0,0.0,0.0,0.0,90.0,90.0,69.0,89.12677001950001,89.0631027222,108.28902435299999,26.6150016785,15.735504150399999,2.5199999809,0,2,25,1,73,172
78,1530628828964,741964, RC,0,39.9586186,-88.445067899,0,0.0,0.0,0.0,0.0,0.0,0.0,0.0,0.0,0.0,0.0,0.0,0.0,0.0,1500,1500,0.0,0.0,40.0483281667,-88.2330776667,0.0,0.0,0.0,0.0,0.0,0.0,0.0,0.0,0.0,0.0,0.0,0,0.0,0.0,0.0,0.0,90.0,90.0,67.0,89.12677001950001,89.0631027222,109.81690979,26.6150016785,15.735504150399999,2.5199999809,0,2,25,1,91,174
79,1530628829015,742015, RC,0,39.9586186,-88.445067899,0,0.0,0.0,0.0,0.0,0.0,0.0,0.0,0.0,0.0,0.0,0.0,0.0,0.0,1500,1500,0.0,0.0,40.0483281667,-88.2330776667,0.0,0.0,0.0,0.0,0.0,0.0,0.0,0.0,0.0,0.0,0.0,0,0.0,0.0,0.0,0.0,90.0,90.0,67.0,89.12677001950001,89.0631027222,110.51719665530001,26.6150016785,15.735504150399999,2.5199999809,0,2,25,1,101,177
80,1530628829065,742065, RC,0,39.9586186,-88.445067899,0,0.0,0.0,0.0,0.0,0.0,0.0,0.0,0.0,0.0,0.0,0.0,0.0,0.0,1500,1500,0.0,0.0,40.0483281667,-88.2330776667,0.0,0.0,0.0,0.0,0.0,0.0,0.0,0.0,0.0,0.0,0.0,0,0.0,0.0,0.0,0.0,90.0,90.0,67.0,89.12677001950001,89.0631027222,111.408454895,26.6150016785,15.735504150399999,2.5199999809,0,2,25,1,96,179
81,1530628829116,742116, RC,0,39.9586186,-88.445067899,0,0.0,0.0,0.0,0.0,0.0,0.0,0.0,0.0,0.0,0.0,0.0,0.0,0.0,1500,1500,0.0,0.0,40.0483281667,-88.2330776667,0.0,0.0,0.0,0.0,0.0,0.0,0.0,0.0,0.0,0.0,0.0,0,0.0,0.0,0.0,0.0,90.0,90.0,67.0,89.12677001950001,89.0631027222,112.04508209229999,26.6150016785,15.735504150399999,2.5199999809,0,2,25,1,82,181
82,1530628829167,742167, RC,0,39.9586186,-88.445067899,0,0.0,0.0,0.0,0.0,0.0,0.0,0.0,0.0,0.0,0.0,0.0,0.0,0.0,1500,1500,0.0,0.0,40.0483281667,-88.2330776667,0.0,0.0,0.0,0.0,0.0,0.0,0.0,0.0,0.0,0.0,0.0,0,0.0,0.0,0.0,0.0,90.0,90.0,67.0,89.12677001950001,89.0631027222,112.04508209229999,26.6150016785,15.735504150399999,2.5199999809,0,2,25,1,91,183
83,1530628829217,742217, RC,0,39.9586186,-88.445067899,0,0.0,0.0,0.0,0.0,0.0,0.0,0.0,0.0,0.0,0.0,0.0,0.0,0.0,1500,1500,0.0,0.0,40.0483281667,-88.2330776667,0.0,0.0,0.0,0.0,0.0,0.0,0.0,0.0,0.0,0.0,0.0,0,0.0,0.0,0.0,0.0,90.0,90.0,67.0,89.12677001950001,89.0631027222,112.04508209229999,26.6150016785,15.735504150399999,2.5199999809,0,2,25,1,92,185
84,1530628829268,742268, RC,0,39.9586186,-88.445067899,0,0.0,0.0,0.0,0.0,0.0,0.0,0.0,0.0,0.0,0.0,0.0,0.0,0.0,1500,1500,0.0,0.0,40.0483281667,-88.2330776667,0.0,0.0,0.0,0.0,0.0,0.0,0.0,0.0,0.0,0.0,0.0,0,0.0,0.0,0.0,0.0,90.0,90.0,67.0,89.12677001950001,89.0631027222,112.04508209229999,26.6150016785,15.735504150399999,2.5199999809,0,2,25,1,86,187
85,1530628829318,742318, RC,0,39.9586186,-88.445067899,0,0.0,0.0,0.0,0.0,0.0,0.0,0.0,0.0,0.0,0.0,0.0,0.0,0.0,1500,1500,0.0,0.0,40.0483281667,-88.2330776667,0.0,0.0,0.0,0.0,0.0,0.0,0.0,0.0,0.0,0.0,0.0,0,0.0,0.0,0.0,0.0,90.0,90.0,67.0,89.12677001950001,89.0631027222,112.04508209229999,26.6150016785,15.735504150399999,2.5199999809,0,2,25,1,76,189
86,1530628829369,742369, RC,0,39.9586186,-88.445067899,0,0.0,0.0,0.0,0.0,0.0,0.0,0.0,0.0,0.0,0.0,0.0,0.0,0.0,1500,1500,0.0,0.0,40.0483281667,-88.2330776667,0.0,0.0,0.0,0.0,0.0,0.0,0.0,0.0,0.0,0.0,0.0,0,0.0,0.0,0.0,0.0,90.0,90.0,67.0,89.12677001950001,89.0631027222,112.04508209229999,26.6150016785,15.735504150399999,2.5199999809,0,2,25,1,97,191
87,1530628829419,742419, RC,0,39.9586186,-88.445067899,0,0.0,0.0,0.0,0.0,0.0,0.0,0.0,0.0,0.0,0.0,0.0,0.0,0.0,1500,1500,0.0,0.0,40.0483281667,-88.2330776667,0.0,0.0,0.0,0.0,0.0,0.0,0.0,0.0,0.0,0.0,0.0,0,0.0,0.0,0.0,0.0,90.0,90.0,67.0,89.12677001950001,89.0631027222,112.04508209229999,26.6150016785,15.735504150399999,2.5199999809,0,2,25,1,87,194
88,1530628829470,742470, RC,0,39.9586186,-88.445067899,0,0.0,0.0,0.0,0.0,0.0,0.0,0.0,0.0,0.0,0.0,0.0,0.0,0.0,1500,1500,0.0,0.0,40.0483281667,-88.2330776667,0.0,0.0,0.0,0.0,0.0,0.0,0.0,0.0,0.0,0.0,0.0,0,0.0,0.0,0.0,0.0,90.0,90.0,64.0,89.12677001950001,89.0631027222,112.04508209229999,26.6150016785,15.735504150399999,2.5199999809,0,2,25,1,85,196
89,1530628829521,742521, RC,0,39.9586186,-88.445067899,0,0.0,0.0,0.0,0.0,0.0,0.0,0.0,0.0,0.0,0.0,0.0,0.0,0.0,1500,1500,0.0,0.0,40.0483281667,-88.2330776667,0.0,0.0,0.0,0.0,0.0,0.0,0.0,0.0,0.0,0.0,0.0,0,0.0,0.0,0.0,0.0,90.0,90.0,64.0,89.12677001950001,89.0631027222,112.93634796139999,26.6150016785,15.735504150399999,2.5199999809,0,2,25,1,86,198
90,1530628829571,742571, RC,0,39.9586186,-88.445067899,0,0.0,0.0,0.0,0.0,0.0,0.0,0.0,0.0,0.0,0.0,0.0,0.0,0.0,1500,1500,0.0,0.0,40.0483281667,-88.2330776667,0.0,0.0,0.0,0.0,0.0,0.0,0.0,0.0,0.0,0.0,0.0,0,0.0,0.0,0.0,0.0,90.0,90.0,64.0,89.12677001950001,89.0631027222,114.08226776120001,26.6150016785,15.735504150399999,2.5199999809,0,2,25,1,79,200
91,1530628829622,742622, RC,0,39.9586186,-88.445067899,0,0.0,0.0,0.0,0.0,0.0,0.0,0.0,0.0,0.0,0.0,0.0,0.0,0.0,1500,1500,0.0,0.0,40.0483281667,-88.2330776667,0.0,0.0,0.0,0.0,0.0,0.0,0.0,0.0,0.0,0.0,0.0,0,0.0,0.0,0.0,0.0,90.0,90.0,64.0,89.12677001950001,89.0631027222,114.08226776120001,26.6150016785,15.735504150399999,2.5199999809,0,2,25,1,64,203
92,1530628829672,742672, RC,0,39.9586186,-88.445067899,0,0.0,0.0,0.0,0.0,0.0,0.0,0.0,0.0,0.0,0.0,0.0,0.0,0.0,1500,1500,0.0,0.0,40.0483281667,-88.2330776667,0.0,0.0,0.0,0.0,0.0,0.0,0.0,0.0,0.0,0.0,0.0,0,0.0,0.0,0.0,0.0,90.0,90.0,64.0,89.12677001950001,89.0631027222,114.08226776120001,26.6150016785,15.735504150399999,2.5199999809,0,2,25,1,74,205
93,1530628829723,742723, RC,0,39.9586186,-88.445067899,0,0.0,0.0,0.0,0.0,0.0,0.0,0.0,0.0,0.0,0.0,0.0,0.0,0.0,1500,1500,0.0,0.0,40.0483281667,-88.2330776667,0.0,0.0,0.0,0.0,0.0,0.0,0.0,0.0,0.0,0.0,0.0,0,0.0,0.0,0.0,0.0,90.0,90.0,64.0,89.12677001950001,89.0631027222,114.08226776120001,26.6150016785,15.7305192947,2.0299999713999997,0,2,25,1,69,207
94,1530628829773,742773, RC,0,39.9586186,-88.445067899,0,0.0,0.0,0.0,0.0,0.0,0.0,0.0,0.0,0.0,0.0,0.0,0.0,0.0,1500,1500,0.0,0.0,40.0483281667,-88.2330776667,0.0,0.0,0.0,0.0,0.0,0.0,0.0,0.0,0.0,0.0,0.0,0,0.0,0.0,0.0,0.0,90.0,90.0,64.0,89.12677001950001,89.0631027222,114.08226776120001,26.6150016785,15.7305192947,2.0299999713999997,0,2,25,1,74,209
95,1530628829824,742824, RC,0,39.9586186,-88.445067899,0,0.0,0.0,0.0,0.0,0.0,0.0,0.0,0.0,0.0,0.0,0.0,0.0,0.0,1500,1500,0.0,0.0,40.0483281667,-88.2330776667,0.0,0.0,0.0,0.0,0.0,0.0,0.0,0.0,0.0,0.0,0.0,0,0.0,0.0,0.0,0.0,90.0,90.0,64.0,89.12677001950001,89.0631027222,114.08226776120001,26.6150016785,15.7305192947,2.0299999713999997,0,2,25,1,71,211
96,1530628829874,742874, RC,0,39.9586186,-88.445067899,0,0.0,0.0,0.0,0.0,0.0,0.0,0.0,0.0,0.0,0.0,0.0,0.0,0.0,1500,1500,0.0,0.0,40.048326,-88.2330826667,0.0,0.0,0.0,0.0,0.0,0.0,0.0,0.0,0.0,0.0,0.0,0,0.0,0.0,0.0,0.0,90.0,90.0,64.0,89.12677001950001,89.0631027222,114.08226776120001,26.6150016785,15.7305192947,2.0299999713999997,0,2,25,1,75,213
97,1530628829925,742925, RC,0,39.9586186,-88.445067899,0,0.0,0.0,0.0,0.0,0.0,0.0,0.0,0.0,0.0,0.0,0.0,0.0,0.0,1500,1500,0.0,0.0,40.048326,-88.2330826667,0.0,0.0,0.0,0.0,0.0,0.0,0.0,0.0,0.0,0.0,0.0,0,0.0,0.0,0.0,0.0,90.0,90.0,64.0,89.12677001950001,89.0631027222,114.08226776120001,26.6150016785,15.7305192947,2.0299999713999997,0,2,25,1,64,216
98,1530628829976,742976, RC,0,39.9586186,-88.445067899,0,0.0,0.0,0.0,0.0,0.0,0.0,0.0,0.0,0.0,0.0,0.0,0.0,0.0,1500,1500,0.0,0.0,40.048326,-88.2330826667,0.0,0.0,0.0,0.0,0.0,0.0,0.0,0.0,0.0,0.0,0.0,0,0.0,0.0,0.0,0.0,90.0,90.0,64.0,89.12677001950001,89.0631027222,115.4191589355,26.6150016785,15.7305192947,2.0299999713999997,0,2,25,1,68,218
99,1530628830026,743026, RC,0,39.9586186,-88.445067899,0,0.0,0.0,0.0,0.0,0.0,0.0,0.0,0.0,0.0,0.0,0.0,0.0,0.0,1500,1500,0.0,0.0,40.048326,-88.2330826667,0.0,0.0,0.0,0.0,0.0,0.0,0.0,0.0,0.0,0.0,0.0,0,0.0,0.0,0.0,0.0,90.0,90.0,64.0,89.12677001950001,89.0631027222,115.4191589355,26.6150016785,15.7305192947,2.0299999713999997,0,2,25,1,87,220
100,1530628830077,743077, RC,0,39.9586186,-88.445067899,0,0.0,0.0,0.0,0.0,0.0,0.0,0.0,0.0,0.0,0.0,0.0,0.0,0.0,1500,1500,0.0,0.0,40.048326,-88.2330826667,0.0,0.0,0.0,0.0,0.0,0.0,0.0,0.0,0.0,0.0,0.0,0,0.0,0.0,0.0,0.0,90.0,90.0,63.0,89.12677001950001,89.0631027222,115.4191589355,26.6150016785,15.7305192947,2.0299999713999997,0,2,25,1,92,222
101,1530628830127,743127, RC,0,39.9586186,-88.445067899,0,0.0,0.0,0.0,0.0,0.0,0.0,0.0,0.0,0.0,0.0,0.0,0.0,0.0,1500,1500,0.0,0.0,40.048326,-88.2330826667,0.0,0.0,0.0,0.0,0.0,0.0,0.0,0.0,0.0,0.0,0.0,0,0.0,0.0,0.0,0.0,90.0,90.0,63.0,89.12677001950001,89.0631027222,115.4191589355,26.6150016785,15.7305192947,2.0299999713999997,0,2,25,1,88,224
102,1530628830178,743178, RC,0,39.9586186,-88.445067899,0,0.0,0.0,0.0,0.0,0.0,0.0,0.0,0.0,0.0,0.0,0.0,0.0,0.0,1500,1500,0.0,0.0,40.048326,-88.2330826667,0.0,0.0,0.0,0.0,0.0,0.0,0.0,0.0,0.0,0.0,0.0,0,0.0,0.0,0.0,0.0,90.0,90.0,63.0,89.12677001950001,89.0631027222,115.4191589355,26.6150016785,15.7305192947,2.0299999713999997,0,2,25,1,84,227
103,1530628830228,743228, RC,0,39.9586186,-88.445067899,0,0.0,0.0,0.0,0.0,0.0,0.0,0.0,0.0,0.0,0.0,0.0,0.0,0.0,1500,1500,0.0,0.0,40.048326,-88.2330826667,0.0,0.0,0.0,0.0,0.0,0.0,0.0,0.0,0.0,0.0,0.0,0,0.0,0.0,0.0,0.0,90.0,90.0,63.0,89.12677001950001,89.0631027222,115.3554992676,26.6150016785,15.7305192947,2.0299999713999997,0,2,25,1,96,229
104,1530628830279,743279, RC,0,39.9586186,-88.445067899,0,0.0,0.0,0.0,0.0,0.0,0.0,0.0,0.0,0.0,0.0,0.0,0.0,0.0,1500,1500,0.0,0.0,40.048326,-88.2330826667,0.0,0.0,0.0,0.0,0.0,0.0,0.0,0.0,0.0,0.0,0.0,0,0.0,0.0,0.0,0.0,90.0,90.0,60.0,89.12677001950001,89.0631027222,115.3554992676,26.6150016785,15.7305192947,2.0299999713999997,0,2,25,1,89,231
105,1530628830330,743330, RC,0,39.9586186,-88.445067899,0,0.0,0.0,0.0,0.0,0.0,0.0,0.0,0.0,0.0,0.0,0.0,0.0,0.0,1500,1500,0.0,0.0,40.048326,-88.2330826667,0.0,0.0,0.0,0.0,0.0,0.0,0.0,0.0,0.0,0.0,0.0,0,0.0,0.0,0.0,0.0,90.0,90.0,60.0,89.12677001950001,89.0631027222,115.6101455688,26.6150016785,15.7305192947,2.0299999713999997,0,2,25,1,92,234
106,1530628830380,743380, RC,0,39.9586186,-88.445067899,0,0.0,0.0,0.0,0.0,0.0,0.0,0.0,0.0,0.0,0.0,0.0,0.0,0.0,1500,1500,0.0,0.0,40.048326,-88.2330826667,0.0,0.0,0.0,0.0,0.0,0.0,0.0,0.0,0.0,0.0,0.0,0,0.0,0.0,0.0,0.0,90.0,90.0,60.0,89.12677001950001,89.0631027222,117.77465820309999,26.6150016785,15.7305192947,2.0299999713999997,0,2,25,1,85,236
107,1530628830431,743431, RC,0,39.9586186,-88.445067899,0,0.0,0.0,0.0,0.0,0.0,0.0,0.0,0.0,0.0,0.0,0.0,0.0,0.0,1500,1500,0.0,0.0,40.048326,-88.2330826667,0.0,0.0,0.0,0.0,0.0,0.0,0.0,0.0,0.0,0.0,0.0,0,0.0,0.0,0.0,0.0,90.0,90.0,60.0,89.12677001950001,89.0631027222,118.4749450684,26.6150016785,15.7305192947,2.0299999713999997,0,2,25,1,98,238
108,1530628830481,743481, RC,0,39.9586186,-88.445067899,0,0.0,0.0,0.0,0.0,0.0,0.0,0.0,0.0,0.0,0.0,0.0,0.0,0.0,1500,1500,0.0,0.0,40.048326,-88.2330826667,0.0,0.0,0.0,0.0,0.0,0.0,0.0,0.0,0.0,0.0,0.0,0,0.0,0.0,0.0,0.0,90.0,90.0,60.0,89.12677001950001,89.0631027222,118.6022567749,26.6150016785,15.7305192947,2.0299999713999997,0,2,25,1,95,240
109,1530628830532,743532, RC,0,39.9586186,-88.445067899,0,0.0,0.0,0.0,0.0,0.0,0.0,0.0,0.0,0.0,0.0,0.0,0.0,0.0,1500,1500,0.0,0.0,40.048326,-88.2330826667,0.0,0.0,0.0,0.0,0.0,0.0,0.0,0.0,0.0,0.0,0.0,0,0.0,0.0,0.0,0.0,90.0,90.0,60.0,89.12677001950001,89.0631027222,118.72959136959999,26.6150016785,15.7305192947,2.0299999713999997,0,2,25,1,103,243
110,1530628830582,743582, RC,0,39.9586186,-88.445067899,0,0.0,0.0,0.0,0.0,0.0,0.0,0.0,0.0,0.0,0.0,0.0,0.0,0.0,1500,1500,0.0,0.0,40.048326,-88.2330826667,0.0,0.0,0.0,0.0,0.0,0.0,0.0,0.0,0.0,0.0,0.0,0,0.0,0.0,0.0,0.0,90.0,90.0,60.0,89.12677001950001,89.0631027222,118.72959136959999,26.6150016785,15.7305192947,2.0299999713999997,0,2,25,1,105,245
111,1530628830633,743633, RC,0,39.9586186,-88.445067899,0,0.0,0.0,0.0,0.0,0.0,0.0,0.0,0.0,0.0,0.0,0.0,0.0,0.0,1500,1500,0.0,0.0,40.048326,-88.2330826667,0.0,0.0,0.0,0.0,0.0,0.0,0.0,0.0,0.0,0.0,0.0,0,0.0,0.0,0.0,0.0,90.0,90.0,60.0,89.12677001950001,89.0631027222,118.72959136959999,26.6150016785,15.7305192947,2.0299999713999997,0,2,25,1,109,247
112,1530628830684,743684, RC,0,39.9586186,-88.445067899,0,0.0,0.0,0.0,0.0,0.0,0.0,0.0,0.0,0.0,0.0,0.0,0.0,0.0,1500,1500,0.0,0.0,40.048326,-88.2330826667,0.0,0.0,0.0,0.0,0.0,0.0,0.0,0.0,0.0,0.0,0.0,0,0.0,0.0,0.0,0.0,90.0,90.0,60.0,89.12677001950001,89.0631027222,119.4935302734,26.6150016785,15.7305192947,2.0299999713999997,0,2,25,1,109,250
113,1530628830734,743734, RC,0,39.9586186,-88.445067899,0,0.0,0.0,0.0,0.0,0.0,0.0,0.0,0.0,0.0,0.0,0.0,0.0,0.0,1500,1500,0.0,0.0,40.048326,-88.2330826667,0.0,0.0,0.0,0.0,0.0,0.0,0.0,0.0,0.0,0.0,0.0,0,0.0,0.0,0.0,0.0,90.0,90.0,60.0,89.12677001950001,89.0631027222,119.4935302734,26.077999115,15.7255859375,1.9199999571000002,0,2,25,1,102,252
114,1530628830785,743785, RC,0,39.9586186,-88.445067899,0,0.0,0.0,0.0,0.0,0.0,0.0,0.0,0.0,0.0,0.0,0.0,0.0,0.0,1500,1500,0.0,0.0,40.048326,-88.2330826667,0.0,0.0,0.0,0.0,0.0,0.0,0.0,0.0,0.0,0.0,0.0,0,0.0,0.0,0.0,0.0,90.0,90.0,60.0,89.12677001950001,89.0631027222,119.4935302734,26.077999115,15.7255859375,1.9199999571000002,0,2,25,1,104,254
115,1530628830835,743835, RC,0,39.9586186,-88.445067899,0,0.0,0.0,0.0,0.0,0.0,0.0,0.0,0.0,0.0,0.0,0.0,0.0,0.0,1500,1500,0.0,0.0,40.048326,-88.2330826667,0.0,0.0,0.0,0.0,0.0,0.0,0.0,0.0,0.0,0.0,0.0,0,0.0,0.0,0.0,0.0,90.0,90.0,60.0,89.12677001950001,89.0631027222,119.4935302734,26.077999115,15.7255859375,1.9199999571000002,0,2,25,1,100,256
116,1530628830886,743886, RC,0,39.9586186,-88.445067899,0,0.0,0.0,0.0,0.0,0.0,0.0,0.0,0.0,0.0,0.0,0.0,0.0,0.0,1500,1500,0.0,0.0,40.0483245,-88.2330861667,0.0,0.0,0.0,0.0,0.0,0.0,0.0,0.0,0.0,0.0,0.0,0,0.0,0.0,0.0,0.0,90.0,90.0,60.0,89.12677001950001,89.0631027222,119.4935302734,26.077999115,15.7255859375,1.9199999571000002,0,2,25,1,110,259
117,1530628830937,743937, RC,0,39.9586186,-88.445067899,0,0.0,0.0,0.0,0.0,0.0,0.0,0.0,0.0,0.0,0.0,0.0,0.0,0.0,1500,1500,0.0,0.0,40.0483245,-88.2330861667,0.0,0.0,0.0,0.0,0.0,0.0,0.0,0.0,0.0,0.0,0.0,0,0.0,0.0,0.0,0.0,90.0,90.0,60.0,89.12677001950001,89.0631027222,119.4935302734,26.077999115,15.7255859375,1.9199999571000002,0,2,25,1,95,261
118,1530628830987,743987, RC,0,39.9586186,-88.445067899,0,0.0,0.0,0.0,0.0,0.0,0.0,0.0,0.0,0.0,0.0,0.0,0.0,0.0,1500,1500,0.0,0.0,40.0483245,-88.2330861667,0.0,0.0,0.0,0.0,0.0,0.0,0.0,0.0,0.0,0.0,0.0,0,0.0,0.0,0.0,0.0,90.0,90.0,60.0,89.12677001950001,89.0631027222,119.4935302734,26.077999115,15.7255859375,1.9199999571000002,0,2,25,1,95,263
119,1530628831038,744038, RC,0,39.9586186,-88.445067899,0,0.0,0.0,0.0,0.0,0.0,0.0,0.0,0.0,0.0,0.0,0.0,0.0,0.0,1500,1500,0.0,0.0,40.0483245,-88.2330861667,0.0,0.0,0.0,0.0,0.0,0.0,0.0,0.0,0.0,0.0,0.0,0,0.0,0.0,0.0,0.0,90.0,90.0,60.0,89.12677001950001,89.0631027222,119.4935302734,26.077999115,15.7255859375,1.9199999571000002,0,2,25,1,105,265
120,1530628831089,744089, RC,0,39.9586186,-88.445067899,0,0.0,0.0,0.0,0.0,0.0,0.0,0.0,0.0,0.0,0.0,0.0,0.0,0.0,1500,1500,0.0,0.0,40.0483245,-88.2330861667,0.0,0.0,0.0,0.0,0.0,0.0,0.0,0.0,0.0,0.0,0.0,0,0.0,0.0,0.0,0.0,90.0,90.0,60.0,89.12677001950001,89.0631027222,119.4935302734,26.077999115,15.7255859375,1.9199999571000002,0,2,25,1,105,268
121,1530628831139,744139, RC,0,39.9586186,-88.445067899,0,0.0,0.0,0.0,0.0,0.0,0.0,0.0,0.0,0.0,0.0,0.0,0.0,0.0,1500,1500,0.0,0.0,40.0483245,-88.2330861667,0.0,0.0,0.0,0.0,0.0,0.0,0.0,0.0,0.0,0.0,0.0,0,0.0,0.0,0.0,0.0,90.0,90.0,60.0,89.12677001950001,89.0631027222,119.4935302734,26.077999115,15.7255859375,1.9199999571000002,0,2,25,1,103,270
122,1530628831190,744190, RC,0,39.9586186,-88.445067899,0,0.0,0.0,0.0,0.0,0.0,0.0,0.0,0.0,0.0,0.0,0.0,0.0,0.0,1500,1500,0.0,0.0,40.0483245,-88.2330861667,0.0,0.0,0.0,0.0,0.0,0.0,0.0,0.0,0.0,0.0,0.0,0,0.0,0.0,0.0,0.0,90.0,90.0,60.0,89.12677001950001,89.0631027222,119.4935302734,26.077999115,15.7255859375,1.9199999571000002,0,2,25,1,108,272
123,1530628831240,744240, RC,0,39.9586186,-88.445067899,0,0.0,0.0,0.0,0.0,0.0,0.0,0.0,0.0,0.0,0.0,0.0,0.0,0.0,1500,1500,0.0,0.0,40.0483245,-88.2330861667,0.0,0.0,0.0,0.0,0.0,0.0,0.0,0.0,0.0,0.0,0.0,0,0.0,0.0,0.0,0.0,90.0,90.0,60.0,89.12677001950001,89.0631027222,119.4935302734,26.077999115,15.7255859375,1.9199999571000002,0,2,25,1,113,274
124,1530628831291,744291, RC,0,39.9586186,-88.445067899,0,0.0,0.0,0.0,0.0,0.0,0.0,0.0,0.0,0.0,0.0,0.0,0.0,0.0,1500,1500,0.0,0.0,40.0483245,-88.2330861667,0.0,0.0,0.0,0.0,0.0,0.0,0.0,0.0,0.0,0.0,0.0,0,0.0,0.0,0.0,0.0,90.0,88.0,60.0,89.12677001950001,89.0631027222,119.4935302734,26.077999115,15.7255859375,1.9199999571000002,0,2,25,1,107,277
125,1530628831342,744342, RC,0,39.9586186,-88.445067899,0,0.0,0.0,0.0,0.0,0.0,0.0,0.0,0.0,0.0,0.0,0.0,0.0,0.0,1500,1500,0.0,0.0,40.0483245,-88.2330861667,0.0,0.0,0.0,0.0,0.0,0.0,0.0,0.0,0.0,0.0,0.0,0,0.0,0.0,0.0,0.0,90.0,88.0,60.0,89.12677001950001,89.3814163208,119.42987060549999,26.077999115,15.7255859375,1.9199999571000002,0,2,25,1,102,279
126,1530628831392,744392, RC,0,39.9586186,-88.445067899,0,0.0,0.0,0.0,0.0,0.0,0.0,0.0,0.0,0.0,0.0,0.0,0.0,0.0,1500,1500,0.0,0.0,40.0483245,-88.2330861667,0.0,0.0,0.0,0.0,0.0,0.0,0.0,0.0,0.0,0.0,0.0,0,0.0,0.0,0.0,0.0,90.0,88.0,60.0,89.12677001950001,90.3363494873,119.42987060549999,26.077999115,15.7255859375,1.9199999571000002,0,2,25,1,99,281
127,1530628831443,744443, RC,0,39.9586186,-88.445067899,0,0.0,0.0,0.0,0.0,0.0,0.0,0.0,0.0,0.0,0.0,0.0,0.0,0.0,1500,1500,0.0,0.0,40.0483245,-88.2330861667,0.0,0.0,0.0,0.0,0.0,0.0,0.0,0.0,0.0,0.0,0.0,0,0.0,0.0,0.0,0.0,90.0,88.0,60.0,89.12677001950001,90.7183227539,119.42987060549999,26.077999115,15.7255859375,1.9199999571000002,0,2,25,1,101,283
128,1530628831493,744493, RC,0,39.9586186,-88.445067899,0,0.0,0.0,0.0,0.0,0.0,0.0,0.0,0.0,0.0,0.0,0.0,0.0,0.0,1500,1500,0.0,0.0,40.0483245,-88.2330861667,0.0,0.0,0.0,0.0,0.0,0.0,0.0,0.0,0.0,0.0,0.0,0,0.0,0.0,0.0,0.0,90.0,87.0,60.0,89.12677001950001,90.7183227539,119.42987060549999,26.077999115,15.7255859375,1.9199999571000002,0,2,25,1,113,286
129,1530628831544,744544, RC,0,39.9586186,-88.445067899,0,0.0,0.0,0.0,0.0,0.0,0.0,0.0,0.0,0.0,0.0,0.0,0.0,0.0,1500,1500,0.0,0.0,40.0483245,-88.2330861667,0.0,0.0,0.0,0.0,0.0,0.0,0.0,0.0,0.0,0.0,0.0,0,0.0,0.0,0.0,0.0,90.0,87.0,60.0,89.12677001950001,91.1639480591,119.42987060549999,26.077999115,15.7255859375,1.9199999571000002,0,2,25,1,109,288
130,1530628831595,744595, RC,0,39.9586186,-88.445067899,0,0.0,0.0,0.0,0.0,0.0,0.0,0.0,0.0,0.0,0.0,0.0,0.0,0.0,1500,1500,0.0,0.0,40.0483245,-88.2330861667,0.0,0.0,0.0,0.0,0.0,0.0,0.0,0.0,0.0,0.0,0.0,0,0.0,0.0,0.0,0.0,90.0,82.0,60.0,89.12677001950001,91.10028839110001,119.2388916016,26.077999115,15.7255859375,1.9199999571000002,0,2,25,1,103,290
131,1530628831645,744645, RC,0,39.9586186,-88.445067899,0,0.0,0.0,0.0,0.0,0.0,0.0,0.0,0.0,0.0,0.0,0.0,0.0,0.0,1500,1500,0.0,0.0,40.0483245,-88.2330861667,0.0,0.0,0.0,0.0,0.0,0.0,0.0,0.0,0.0,0.0,0.0,0,0.0,0.0,0.0,0.0,90.0,82.0,60.0,89.12677001950001,94.9200057983,119.1115570068,26.077999115,15.7255859375,1.9199999571000002,0,2,25,1,109,293
132,1530628831696,744696, RC,0,39.9586186,-88.445067899,0,0.0,0.0,0.0,0.0,0.0,0.0,0.0,0.0,0.0,0.0,0.0,0.0,0.0,1500,1500,0.0,0.0,40.0483245,-88.2330861667,0.0,0.0,0.0,0.0,0.0,0.0,0.0,0.0,0.0,0.0,0.0,0,0.0,0.0,0.0,0.0,90.0,76.0,60.0,89.12677001950001,97.14817810059999,119.0479049683,26.077999115,15.7255859375,1.9199999571000002,0,2,25,1,105,295
133,1530628831746,744746, RC,0,39.9586186,-88.445067899,0,0.0,0.0,0.0,0.0,0.0,0.0,0.0,0.0,0.0,0.0,0.0,0.0,0.0,1500,1500,0.0,0.0,40.0483245,-88.2330861667,0.0,0.0,0.0,0.0,0.0,0.0,0.0,0.0,0.0,0.0,0.0,0,0.0,0.0,0.0,0.0,90.0,76.0,60.0,89.12677001950001,98.6760635376,119.0479049683,26.077999115,15.7157745361,2.6199998856,0,2,25,1,101,297
134,1530628831797,744797, RC,0,39.9586186,-88.445067899,0,0.0,0.0,0.0,0.0,0.0,0.0,0.0,0.0,0.0,0.0,0.0,0.0,0.0,1500,1500,0.0,0.0,40.0483245,-88.2330861667,0.0,0.0,0.0,0.0,0.0,0.0,0.0,0.0,0.0,0.0,0.0,0,0.0,0.0,0.0,0.0,90.0,76.0,60.0,89.12677001950001,102.17747497559999,119.0479049683,26.077999115,15.7157745361,2.6199998856,0,2,25,1,98,299
135,1530628831848,744848, RC,0,39.9586186,-88.445067899,0,0.0,0.0,0.0,0.0,0.0,0.0,0.0,0.0,0.0,0.0,0.0,0.0,0.0,1500,1500,0.0,0.0,40.0483245,-88.2330861667,0.0,0.0,0.0,0.0,0.0,0.0,0.0,0.0,0.0,0.0,0.0,0,0.0,0.0,0.0,0.0,90.0,76.0,60.0,89.12677001950001,102.4321212769,119.0479049683,26.077999115,15.7157745361,2.6199998856,0,2,25,1,99,302
136,1530628831898,744898, RC,0,39.9586186,-88.445067899,0,0.0,0.0,0.0,0.0,0.0,0.0,0.0,0.0,0.0,0.0,0.0,0.0,0.0,1500,1500,0.0,0.0,40.0483236667,-88.23309,0.0,0.0,0.0,0.0,0.0,0.0,0.0,0.0,0.0,0.0,0.0,0,0.0,0.0,0.0,0.0,90.0,70.0,60.0,89.12677001950001,102.4957885742,119.0479049683,26.077999115,15.7157745361,2.6199998856,0,2,25,1,111,304
137,1530628831949,744949, RC,0,39.9586186,-88.445067899,0,0.0,0.0,0.0,0.0,0.0,0.0,0.0,0.0,0.0,0.0,0.0,0.0,0.0,1500,1500,0.0,0.0,40.0483236667,-88.23309,0.0,0.0,0.0,0.0,0.0,0.0,0.0,0.0,0.0,0.0,0.0,0,0.0,0.0,0.0,0.0,90.0,70.0,60.0,89.12677001950001,104.21466064450001,119.0479049683,26.077999115,15.7157745361,2.6199998856,0,2,25,1,101,306
138,1530628832000,745000, RC,0,39.9586186,-88.445067899,0,0.0,0.0,0.0,0.0,0.0,0.0,0.0,0.0,0.0,0.0,0.0,0.0,0.0,1500,1500,0.0,0.0,40.0483236667,-88.23309,0.0,0.0,0.0,0.0,0.0,0.0,0.0,0.0,0.0,0.0,0.0,0,0.0,0.0,0.0,0.0,90.0,69.0,60.0,89.12677001950001,109.37127685549999,119.0479049683,26.077999115,15.7157745361,2.6199998856,0,2,25,1,93,308
139,1530628832050,745050, RC,0,39.9586186,-88.445067899,0,0.0,0.0,0.0,0.0,0.0,0.0,0.0,0.0,0.0,0.0,0.0,0.0,0.0,1500,1500,0.0,0.0,40.0483236667,-88.23309,0.0,0.0,0.0,0.0,0.0,0.0,0.0,0.0,0.0,0.0,0.0,0,0.0,0.0,0.0,0.0,90.0,69.0,60.0,89.12677001950001,109.37127685549999,119.0479049683,26.077999115,15.7157745361,2.6199998856,0,2,25,1,99,311
140,1530628832101,745101, RC,0,39.9586186,-88.445067899,0,0.0,0.0,0.0,0.0,0.0,0.0,0.0,0.0,0.0,0.0,0.0,0.0,0.0,1500,1500,0.0,0.0,40.0483236667,-88.23309,0.0,0.0,0.0,0.0,0.0,0.0,0.0,0.0,0.0,0.0,0.0,0,0.0,0.0,0.0,0.0,90.0,69.0,60.0,89.12677001950001,109.37127685549999,119.0479049683,26.077999115,15.7157745361,2.6199998856,0,2,25,1,102,313
141,1530628832152,745152, RC,0,39.9586186,-88.445067899,0,0.0,0.0,0.0,0.0,0.0,0.0,0.0,0.0,0.0,0.0,0.0,0.0,0.0,1500,1500,0.0,0.0,40.0483236667,-88.23309,0.0,0.0,0.0,0.0,0.0,0.0,0.0,0.0,0.0,0.0,0.0,0,0.0,0.0,0.0,0.0,90.0,69.0,60.0,89.12677001950001,110.0078964233,119.0479049683,26.077999115,15.7157745361,2.6199998856,0,2,25,1,98,315
142,1530628832202,745202, RC,0,39.9586186,-88.445067899,0,0.0,0.0,0.0,0.0,0.0,0.0,0.0,0.0,0.0,0.0,0.0,0.0,0.0,1500,1500,0.0,0.0,40.0483236667,-88.23309,0.0,0.0,0.0,0.0,0.0,0.0,0.0,0.0,0.0,0.0,0.0,0,0.0,0.0,0.0,0.0,90.0,69.0,60.0,89.12677001950001,110.64451599120001,119.0479049683,26.077999115,15.7157745361,2.6199998856,0,2,25,1,114,317
143,1530628832253,745253, RC,0,39.9586186,-88.445067899,0,0.0,0.0,0.0,0.0,0.0,0.0,0.0,0.0,0.0,0.0,0.0,0.0,0.0,1500,1500,0.0,0.0,40.0483236667,-88.23309,0.0,0.0,0.0,0.0,0.0,0.0,0.0,0.0,0.0,0.0,0.0,0,0.0,0.0,0.0,0.0,90.0,69.0,60.0,89.12677001950001,109.6259231567,119.0479049683,26.077999115,15.7157745361,2.6199998856,0,2,25,1,91,320
144,1530628832304,745304, RC,0,39.9586186,-88.445067899,0,0.0,0.0,0.0,0.0,0.0,0.0,0.0,0.0,0.0,0.0,0.0,0.0,0.0,1500,1500,0.0,0.0,40.0483236667,-88.23309,0.0,0.0,0.0,0.0,0.0,0.0,0.0,0.0,0.0,0.0,0.0,0,0.0,0.0,0.0,0.0,90.0,69.0,60.0,89.12677001950001,109.75325012209998,119.0479049683,26.077999115,15.7157745361,2.6199998856,0,2,25,1,87,322
145,1530628832354,745354, RC,0,39.9586186,-88.445067899,0,0.0,0.0,0.0,0.0,0.0,0.0,0.0,0.0,0.0,0.0,0.0,0.0,0.0,1500,1500,0.0,0.0,40.0483236667,-88.23309,0.0,0.0,0.0,0.0,0.0,0.0,0.0,0.0,0.0,0.0,0.0,0,0.0,0.0,0.0,0.0,90.0,69.0,60.0,89.12677001950001,109.75325012209998,119.0479049683,26.077999115,15.7157745361,2.6199998856,0,2,25,1,104,324
146,1530628832405,745405, RC,0,39.9586186,-88.445067899,0,0.0,0.0,0.0,0.0,0.0,0.0,0.0,0.0,0.0,0.0,0.0,0.0,0.0,1500,1500,0.0,0.0,40.0483236667,-88.23309,0.0,0.0,0.0,0.0,0.0,0.0,0.0,0.0,0.0,0.0,0.0,0,0.0,0.0,0.0,0.0,90.0,66.0,60.0,89.12677001950001,109.75325012209998,119.0479049683,26.077999115,15.7157745361,2.6199998856,0,2,25,1,106,326
147,1530628832455,745455, RC,0,39.9586186,-88.445067899,0,0.0,0.0,0.0,0.0,0.0,0.0,0.0,0.0,0.0,0.0,0.0,0.0,0.0,1500,1500,0.0,0.0,40.0483236667,-88.23309,0.0,0.0,0.0,0.0,0.0,0.0,0.0,0.0,0.0,0.0,0.0,0,0.0,0.0,0.0,0.0,90.0,66.0,60.0,89.1904296875,110.64451599120001,119.0479049683,26.077999115,15.7157745361,2.6199998856,0,2,25,1,101,329
148,1530628832506,745506, RC,0,39.9586186,-88.445067899,0,0.0,0.0,0.0,0.0,0.0,0.0,0.0,0.0,0.0,0.0,0.0,0.0,0.0,1500,1500,0.0,0.0,40.0483236667,-88.23309,0.0,0.0,0.0,0.0,0.0,0.0,0.0,0.0,0.0,0.0,0.0,0,0.0,0.0,0.0,0.0,90.0,66.0,60.0,89.1904296875,114.08226776120001,119.0479049683,26.077999115,15.7157745361,2.6199998856,0,2,25,1,89,331
149,1530628832557,745557, RC,0,39.9586186,-88.445067899,0,0.0,0.0,0.0,0.0,0.0,0.0,0.0,0.0,0.0,0.0,0.0,0.0,0.0,1500,1500,0.0,0.0,40.0483236667,-88.23309,0.0,0.0,0.0,0.0,0.0,0.0,0.0,0.0,0.0,0.0,0.0,0,0.0,0.0,0.0,0.0,90.0,66.0,60.0,89.1904296875,114.1459197998,119.0479049683,26.077999115,15.7157745361,2.6199998856,0,2,25,1,104,333
150,1530628832607,745607, RC,0,39.9586186,-88.445067899,0,0.0,0.0,0.0,0.0,0.0,0.0,0.0,0.0,0.0,0.0,0.0,0.0,0.0,1500,1500,0.0,0.0,40.0483236667,-88.23309,0.0,0.0,0.0,0.0,0.0,0.0,0.0,0.0,0.0,0.0,0.0,0,0.0,0.0,0.0,0.0,90.0,64.0,60.0,89.1904296875,113.1909942627,119.0479049683,26.077999115,15.7157745361,2.6199998856,0,2,25,1,94,335
151,1530628832658,745658, RC,0,39.9586186,-88.445067899,0,0.0,0.0,0.0,0.0,0.0,0.0,0.0,0.0,0.0,0.0,0.0,0.0,0.0,1500,1500,0.0,0.0,40.0483236667,-88.23309,0.0,0.0,0.0,0.0,0.0,0.0,0.0,0.0,0.0,0.0,0.0,0,0.0,0.0,0.0,0.0,90.0,64.0,60.0,89.1904296875,114.27325439450001,119.0479049683,26.077999115,15.7157745361,2.6199998856,0,2,25,1,95,338
152,1530628832709,745709, RC,0,39.9586186,-88.445067899,0,0.0,0.0,0.0,0.0,0.0,0.0,0.0,0.0,0.0,0.0,0.0,0.0,0.0,1500,1500,0.0,0.0,40.0483236667,-88.23309,0.0,0.0,0.0,0.0,0.0,0.0,0.0,0.0,0.0,0.0,0.0,0,0.0,0.0,0.0,0.0,90.0,64.0,60.0,89.1904296875,114.6552200317,119.0479049683,26.077999115,15.705996513399999,2.6900000572000002,0,2,25,1,103,340
153,1530628832760,745760, RC,0,39.9586186,-88.445067899,0,0.0,0.0,0.0,0.0,0.0,0.0,0.0,0.0,0.0,0.0,0.0,0.0,0.0,1500,1500,0.0,0.0,40.0483236667,-88.23309,0.0,0.0,0.0,0.0,0.0,0.0,0.0,0.0,0.0,0.0,0.0,0,0.0,0.0,0.0,0.0,90.0,64.0,60.0,89.1904296875,114.6552200317,119.0479049683,26.077999115,15.705996513399999,2.6900000572000002,0,2,25,1,107,342
154,1530628832810,745810, RC,0,39.9586186,-88.445067899,0,0.0,0.0,0.0,0.0,0.0,0.0,0.0,0.0,0.0,0.0,0.0,0.0,0.0,1500,1500,0.0,0.0,40.0483236667,-88.23309,0.0,0.0,0.0,0.0,0.0,0.0,0.0,0.0,0.0,0.0,0.0,0,0.0,0.0,0.0,0.0,90.0,64.0,60.0,89.1904296875,114.6552200317,119.0479049683,26.077999115,15.705996513399999,2.6900000572000002,0,2,25,1,100,345
155,1530628832861,745861, RC,0,39.9586186,-88.445067899,0,0.0,0.0,0.0,0.0,0.0,0.0,0.0,0.0,0.0,0.0,0.0,0.0,0.0,1500,1500,0.0,0.0,40.0483228333,-88.2330931667,0.0,0.0,0.0,0.0,0.0,0.0,0.0,0.0,0.0,0.0,0.0,0,0.0,0.0,0.0,0.0,90.0,64.0,60.0,89.1904296875,114.6552200317,119.0479049683,26.077999115,15.705996513399999,2.6900000572000002,0,2,25,1,96,347
156,1530628832912,745912, RC,0,39.9586186,-88.445067899,0,0.0,0.0,0.0,0.0,0.0,0.0,0.0,0.0,0.0,0.0,0.0,0.0,0.0,1500,1500,0.0,0.0,40.0483228333,-88.2330931667,0.0,0.0,0.0,0.0,0.0,0.0,0.0,0.0,0.0,0.0,0.0,0,0.0,0.0,0.0,0.0,90.0,63.0,60.0,89.1904296875,114.6552200317,119.0479049683,26.077999115,15.705996513399999,2.6900000572000002,0,2,25,1,101,349
157,1530628832963,745963, RC,0,39.9586186,-88.445067899,0,0.0,0.0,0.0,0.0,0.0,0.0,0.0,0.0,0.0,0.0,0.0,0.0,0.0,1500,1500,0.0,0.0,40.0483228333,-88.2330931667,0.0,0.0,0.0,0.0,0.0,0.0,0.0,0.0,0.0,0.0,0.0,0,0.0,0.0,0.0,0.0,90.0,63.0,60.0,89.1904296875,115.86479949950001,119.0479049683,26.077999115,15.705996513399999,2.6900000572000002,0,2,25,1,104,351
158,1530628833014,746014, RC,0,39.9586186,-88.445067899,0,0.0,0.0,0.0,0.0,0.0,0.0,0.0,0.0,0.0,0.0,0.0,0.0,0.0,1500,1500,0.0,0.0,40.0483228333,-88.2330931667,0.0,0.0,0.0,0.0,0.0,0.0,0.0,0.0,0.0,0.0,0.0,0,0.0,0.0,0.0,0.0,90.0,63.0,60.0,89.1904296875,116.1831054688,119.0479049683,26.077999115,15.705996513399999,2.6900000572000002,0,2,25,1,100,354
159,1530628833064,746064, RC,0,39.9586186,-88.445067899,0,0.0,0.0,0.0,0.0,0.0,0.0,0.0,0.0,0.0,0.0,0.0,0.0,0.0,1500,1500,0.0,0.0,40.0483228333,-88.2330931667,0.0,0.0,0.0,0.0,0.0,0.0,0.0,0.0,0.0,0.0,0.0,0,0.0,0.0,0.0,0.0,90.0,63.0,60.0,89.1904296875,116.1831054688,119.0479049683,26.077999115,15.705996513399999,2.6900000572000002,0,2,25,1,100,356
160,1530628833115,746115, RC,0,39.9586186,-88.445067899,0,0.0,0.0,0.0,0.0,0.0,0.0,0.0,0.0,0.0,0.0,0.0,0.0,0.0,1500,1500,0.0,0.0,40.0483228333,-88.2330931667,0.0,0.0,0.0,0.0,0.0,0.0,0.0,0.0,0.0,0.0,0.0,0,0.0,0.0,0.0,0.0,90.0,60.0,60.0,89.1904296875,116.1831054688,119.0479049683,26.077999115,15.705996513399999,2.6900000572000002,0,2,25,1,97,358
161,1530628833166,746166, RC,0,39.9586186,-88.445067899,0,0.0,0.0,0.0,0.0,0.0,0.0,0.0,0.0,0.0,0.0,0.0,0.0,0.0,1500,1500,0.0,0.0,40.0483228333,-88.2330931667,0.0,0.0,0.0,0.0,0.0,0.0,0.0,0.0,0.0,0.0,0.0,0,0.0,0.0,0.0,0.0,90.0,60.0,60.0,89.1904296875,117.3290328979,119.0479049683,26.077999115,15.705996513399999,2.6900000572000002,0,2,25,1,100,360
162,1530628833217,746217, RC,0,39.9586186,-88.445067899,0,0.0,0.0,0.0,0.0,0.0,0.0,0.0,0.0,0.0,0.0,0.0,0.0,0.0,1500,1500,0.0,0.0,40.0483228333,-88.2330931667,0.0,0.0,0.0,0.0,0.0,0.0,0.0,0.0,0.0,0.0,0.0,0,0.0,0.0,0.0,0.0,90.0,60.0,60.0,89.3177566528,119.1752166748,119.0479049683,26.077999115,15.705996513399999,2.6900000572000002,0,2,25,1,102,363
163,1530628833268,746268, RC,0,39.9586186,-88.445067899,0,0.0,0.0,0.0,0.0,0.0,0.0,0.0,0.0,0.0,0.0,0.0,0.0,0.0,1500,1500,0.0,0.0,40.0483228333,-88.2330931667,0.0,0.0,0.0,0.0,0.0,0.0,0.0,0.0,0.0,0.0,0.0,0,0.0,0.0,0.0,0.0,90.0,60.0,60.0,89.3814163208,118.6022567749,119.0479049683,26.077999115,15.705996513399999,2.6900000572000002,0,2,25,1,99,365
164,1530628833319,746319, RC,0,39.9586186,-88.445067899,0,0.0,0.0,0.0,0.0,0.0,0.0,0.0,0.0,0.0,0.0,0.0,0.0,0.0,1500,1500,0.0,0.0,40.0483228333,-88.2330931667,0.0,0.0,0.0,0.0,0.0,0.0,0.0,0.0,0.0,0.0,0.0,0,0.0,0.0,0.0,0.0,90.0,60.0,60.0,89.3814163208,118.34761810299999,119.0479049683,26.077999115,15.705996513399999,2.6900000572000002,0,2,25,1,101,367
165,1530628833369,746369, RC,0,39.9586186,-88.445067899,0,0.0,0.0,0.0,0.0,0.0,0.0,0.0,0.0,0.0,0.0,0.0,0.0,0.0,1500,1500,0.0,0.0,40.0483228333,-88.2330931667,0.0,0.0,0.0,0.0,0.0,0.0,0.0,0.0,0.0,0.0,0.0,0,0.0,0.0,0.0,0.0,90.0,60.0,60.0,89.3177566528,118.6659317017,119.0479049683,26.077999115,15.705996513399999,2.6900000572000002,0,2,25,1,105,369
166,1530628833420,746420, RC,0,39.9586186,-88.445067899,0,0.0,0.0,0.0,0.0,0.0,0.0,0.0,0.0,0.0,0.0,0.0,0.0,0.0,1500,1500,0.0,0.0,40.0483228333,-88.2330931667,0.0,0.0,0.0,0.0,0.0,0.0,0.0,0.0,0.0,0.0,0.0,0,0.0,0.0,0.0,0.0,90.0,60.0,60.0,89.3177566528,118.6659317017,119.0479049683,26.077999115,15.705996513399999,2.6900000572000002,0,2,25,1,102,371
167,1530628833471,746471, RC,0,39.9586186,-88.445067899,0,0.0,0.0,0.0,0.0,0.0,0.0,0.0,0.0,0.0,0.0,0.0,0.0,0.0,1500,1500,0.0,0.0,40.0483228333,-88.2330931667,0.0,0.0,0.0,0.0,0.0,0.0,0.0,0.0,0.0,0.0,0.0,0,0.0,0.0,0.0,0.0,90.0,60.0,60.0,89.3177566528,118.6659317017,119.0479049683,26.077999115,15.705996513399999,2.6900000572000002,0,2,25,1,93,374
168,1530628833522,746522, RC,0,39.9586186,-88.445067899,0,0.0,0.0,0.0,0.0,0.0,0.0,0.0,0.0,0.0,0.0,0.0,0.0,0.0,1500,1500,0.0,0.0,40.0483228333,-88.2330931667,0.0,0.0,0.0,0.0,0.0,0.0,0.0,0.0,0.0,0.0,0.0,0,0.0,0.0,0.0,0.0,90.0,60.0,60.0,89.3177566528,118.6659317017,119.0479049683,26.077999115,15.705996513399999,2.6900000572000002,0,2,25,1,95,376
169,1530628833572,746572, RC,0,39.9586186,-88.445067899,0,0.0,0.0,0.0,0.0,0.0,0.0,0.0,0.0,0.0,0.0,0.0,0.0,0.0,1500,1500,0.0,0.0,40.0483228333,-88.2330931667,0.0,0.0,0.0,0.0,0.0,0.0,0.0,0.0,0.0,0.0,0.0,0,0.0,0.0,0.0,0.0,90.0,60.0,60.0,89.3177566528,118.6659317017,119.0479049683,26.077999115,15.705996513399999,2.6900000572000002,0,2,25,1,99,378
