,(0)linux time (ms),    (1)uptime  (ms),      (2)drive mode,(3)mpc step counter,(4)mpc origin latitude  (deg),(5)mpc origin longitude  (deg),(6)closest trajectory point index to robot,(7)mpc error x (W;E)  (m),(8)mpc error y (W;E)  (m),(9)abs mpc error (m),(10)input [x] for mhe (m),(11)input [y] for mhe (m),(12)input [speed] for mhe (m/s),(13)input [vyaw] for mhe (rad/s),(14)mhe output x  (m),(15)mhe output y  (m),(16)mhe output speed  (m/s),(17)mhe output yaw  (rad),(18)mpc reference heading (rad),(19)mpc turn rate command (rad/s),(20)turn rate command as PWM,(21)throttle command as PWM,(22)primary gps latitude (deg),(23)primary gps longitude (deg),(24)secondary gps latitude  (deg),(25)secondary gps longitude (deg),(26)accelerometer x (m/s^2),(27)accelerometer y (m/s^2),(28)accelerometer z (m/s^2),(29)gyro yaw rate (rad/s),(30)gyro pitch rate   (rad/s),(31)gyro roll rate (rad/s),      (32)yaw (rad),  (33)pitch   (rad),     (34)roll (rad),(35)sonar1 measurement (m),(36)ultrasonic sensor measurement (m),(37)primary gps time (s),(38)normalized turn rate command,(39)normalized throttle command,(40)speed calculation from encoder left (m/s),(41)speed calculation from encoder right (m/s),(42)front gimbal target angle (degrees from straight down),(43)left gimbal target angle  (degrees from straight down),(44)right gimbal target angle  (degrees from straight down),(45)front gimbal measured angle  (degrees from straight down),(46)left gimbal measured angle    (degrees from straight down),(47)right gimbal measured angle  (degrees from straight down),(48)internal temperature (C),(49)battery voltage (V),(50)primary gps type,(51)secondary gps type,    (52)MPC R value, (53)MPC Q[0] value,Unnamed: 54,weed_num,start
0,1530631236506,3149506, RC,0,39.9586186,-88.445067899,0,0.0,0.0,0.0,0.0,0.0,0.0,0.0,0.0,0.0,0.0,0.0,0.0,0.0,1500,1500,0.0,0.0,40.0483175,-88.2331625,0.0,0.0,0.0,0.0,0.0,0.0,0.0,0.0,0.0,0.0,0.0,0,0.0,0.0,0.0,0.0,90.0,90.0,90.0,90.01803588870001,90.5273361206,88.93578338620001,43.8320007324,14.9944610596,3.5700001717000003,0,2,25,1,137,16
1,1530631236556,3149556, RC,0,39.9586186,-88.445067899,0,0.0,0.0,0.0,0.0,0.0,0.0,0.0,0.0,0.0,0.0,0.0,0.0,0.0,1500,1500,0.0,0.0,40.0483175,-88.2331625,0.0,0.0,0.0,0.0,0.0,0.0,0.0,0.0,0.0,0.0,0.0,0,0.0,0.0,0.0,0.0,90.0,90.0,90.0,90.01803588870001,90.145362854,88.93578338620001,43.8320007324,14.9944610596,3.5700001717000003,0,2,25,1,146,19
2,1530631236607,3149607, RC,0,39.9586186,-88.445067899,0,0.0,0.0,0.0,0.0,0.0,0.0,0.0,0.0,0.0,0.0,0.0,0.0,0.0,1500,1500,0.0,0.0,40.0483175,-88.2331625,0.0,0.0,0.0,0.0,0.0,0.0,0.0,0.0,0.0,0.0,0.0,0,0.0,0.0,0.0,0.0,90.0,90.0,90.0,90.01803588870001,90.145362854,88.93578338620001,43.8320007324,14.9944610596,3.5700001717000003,0,2,25,1,129,21
3,1530631236657,3149657, RC,0,39.9586186,-88.445067899,0,0.0,0.0,0.0,0.0,0.0,0.0,0.0,0.0,0.0,0.0,0.0,0.0,0.0,1500,1500,0.0,0.0,40.0483175,-88.2331625,0.0,0.0,0.0,0.0,0.0,0.0,0.0,0.0,0.0,0.0,0.0,0,0.0,0.0,0.0,0.0,90.0,90.0,90.0,90.01803588870001,90.145362854,89.12677001950001,43.8320007324,14.9944610596,3.5700001717000003,0,2,25,1,138,23
4,1530631236707,3149707, RC,0,39.9586186,-88.445067899,0,0.0,0.0,0.0,0.0,0.0,0.0,0.0,0.0,0.0,0.0,0.0,0.0,0.0,1500,1500,0.0,0.0,40.0483175,-88.2331625,0.0,0.0,0.0,0.0,0.0,0.0,0.0,0.0,0.0,0.0,0.0,0,0.0,0.0,0.0,0.0,90.0,90.0,90.0,90.01803588870001,90.0816955566,89.12677001950001,43.8320007324,14.9944610596,3.5700001717000003,0,2,25,1,127,25
5,1530631236758,3149758, RC,0,39.9586186,-88.445067899,0,0.0,0.0,0.0,0.0,0.0,0.0,0.0,0.0,0.0,0.0,0.0,0.0,0.0,1500,1500,0.0,0.0,40.0483175,-88.2331625,0.0,0.0,0.0,0.0,0.0,0.0,0.0,0.0,0.0,0.0,0.0,0,0.0,0.0,0.0,0.0,90.0,90.0,90.0,90.01803588870001,90.0816955566,89.3177566528,43.8320007324,14.9944610596,3.5700001717000003,0,2,25,1,112,28
6,1530631236808,3149808, RC,0,39.9586186,-88.445067899,0,0.0,0.0,0.0,0.0,0.0,0.0,0.0,0.0,0.0,0.0,0.0,0.0,0.0,1500,1500,0.0,0.0,40.0483145,-88.2331643333,0.0,0.0,0.0,0.0,0.0,0.0,0.0,0.0,0.0,0.0,0.0,0,0.0,0.0,0.0,0.0,90.0,90.0,90.0,90.01803588870001,89.63606262209998,89.3177566528,43.8320007324,14.9944610596,3.5700001717000003,0,2,25,1,120,30
7,1530631236859,3149859, RC,0,39.9586186,-88.445067899,0,0.0,0.0,0.0,0.0,0.0,0.0,0.0,0.0,0.0,0.0,0.0,0.0,0.0,1500,1500,0.0,0.0,40.0483145,-88.2331643333,0.0,0.0,0.0,0.0,0.0,0.0,0.0,0.0,0.0,0.0,0.0,0,0.0,0.0,0.0,0.0,90.0,90.0,90.0,90.01803588870001,89.9543762207,89.3177566528,43.8320007324,14.9944610596,3.5700001717000003,0,2,25,1,145,32
8,1530631236909,3149909, RC,0,39.9586186,-88.445067899,0,0.0,0.0,0.0,0.0,0.0,0.0,0.0,0.0,0.0,0.0,0.0,0.0,0.0,1500,1500,0.0,0.0,40.0483145,-88.2331643333,0.0,0.0,0.0,0.0,0.0,0.0,0.0,0.0,0.0,0.0,0.0,0,0.0,0.0,0.0,0.0,90.0,90.0,90.0,90.01803588870001,89.9543762207,89.3177566528,43.8320007324,14.9944610596,3.5700001717000003,0,2,25,1,123,34
9,1530631236959,3149959, RC,0,39.9586186,-88.445067899,0,0.0,0.0,0.0,0.0,0.0,0.0,0.0,0.0,0.0,0.0,0.0,0.0,0.0,1500,1500,0.0,0.0,40.0483145,-88.2331643333,0.0,0.0,0.0,0.0,0.0,0.0,0.0,0.0,0.0,0.0,0.0,0,0.0,0.0,0.0,0.0,90.0,90.0,90.0,90.01803588870001,89.8907089233,89.3177566528,43.8320007324,14.9944610596,3.5700001717000003,0,2,25,1,118,37
10,1530631237010,3150010, RC,0,39.9586186,-88.445067899,0,0.0,0.0,0.0,0.0,0.0,0.0,0.0,0.0,0.0,0.0,0.0,0.0,0.0,1500,1500,0.0,0.0,40.0483145,-88.2331643333,0.0,0.0,0.0,0.0,0.0,0.0,0.0,0.0,0.0,0.0,0.0,0,0.0,0.0,0.0,0.0,90.0,90.0,90.0,90.01803588870001,89.8907089233,89.3177566528,43.8320007324,14.9944610596,3.5700001717000003,0,2,25,1,121,39
11,1530631237060,3150060, RC,0,39.9586186,-88.445067899,0,0.0,0.0,0.0,0.0,0.0,0.0,0.0,0.0,0.0,0.0,0.0,0.0,0.0,1500,1500,0.0,0.0,40.0483145,-88.2331643333,0.0,0.0,0.0,0.0,0.0,0.0,0.0,0.0,0.0,0.0,0.0,0,0.0,0.0,0.0,0.0,90.0,90.0,90.0,90.01803588870001,89.8907089233,89.3177566528,43.8320007324,14.9944610596,3.5700001717000003,0,2,25,1,125,41
12,1530631237110,3150110, RC,0,39.9586186,-88.445067899,0,0.0,0.0,0.0,0.0,0.0,0.0,0.0,0.0,0.0,0.0,0.0,0.0,0.0,1500,1500,0.0,0.0,40.0483145,-88.2331643333,0.0,0.0,0.0,0.0,0.0,0.0,0.0,0.0,0.0,0.0,0.0,0,0.0,0.0,0.0,0.0,90.0,90.0,90.0,90.01803588870001,89.8907089233,89.3177566528,43.8320007324,14.9944610596,3.5700001717000003,0,2,25,1,105,43
13,1530631237161,3150161, RC,0,39.9586186,-88.445067899,0,0.0,0.0,0.0,0.0,0.0,0.0,0.0,0.0,0.0,0.0,0.0,0.0,0.0,1500,1500,0.0,0.0,40.0483145,-88.2331643333,0.0,0.0,0.0,0.0,0.0,0.0,0.0,0.0,0.0,0.0,0.0,0,0.0,0.0,0.0,0.0,90.0,90.0,90.0,90.01803588870001,89.8907089233,89.3177566528,43.8320007324,14.9944610596,3.5700001717000003,0,2,25,1,126,46
14,1530631237211,3150211, RC,0,39.9586186,-88.445067899,0,0.0,0.0,0.0,0.0,0.0,0.0,0.0,0.0,0.0,0.0,0.0,0.0,0.0,1500,1500,0.0,0.0,40.0483145,-88.2331643333,0.0,0.0,0.0,0.0,0.0,0.0,0.0,0.0,0.0,0.0,0.0,0,0.0,0.0,0.0,0.0,90.0,90.0,90.0,90.01803588870001,89.8907089233,89.3177566528,43.8320007324,14.9944610596,3.5700001717000003,0,2,25,1,135,48
15,1530631237261,3150261, RC,0,39.9586186,-88.445067899,0,0.0,0.0,0.0,0.0,0.0,0.0,0.0,0.0,0.0,0.0,0.0,0.0,0.0,1500,1500,0.0,0.0,40.0483145,-88.2331643333,0.0,0.0,0.0,0.0,0.0,0.0,0.0,0.0,0.0,0.0,0.0,0,0.0,0.0,0.0,0.0,90.0,90.0,90.0,90.01803588870001,89.82704925540001,89.3177566528,43.8320007324,14.9944610596,3.5700001717000003,0,2,25,1,128,50
16,1530631237312,3150312, RC,0,39.9586186,-88.445067899,0,0.0,0.0,0.0,0.0,0.0,0.0,0.0,0.0,0.0,0.0,0.0,0.0,0.0,1500,1500,0.0,0.0,40.0483145,-88.2331643333,0.0,0.0,0.0,0.0,0.0,0.0,0.0,0.0,0.0,0.0,0.0,0,0.0,0.0,0.0,0.0,90.0,90.0,90.0,90.01803588870001,89.82704925540001,89.3177566528,43.8320007324,14.9944610596,3.5700001717000003,0,2,25,1,124,52
17,1530631237362,3150362, RC,0,39.9586186,-88.445067899,0,0.0,0.0,0.0,0.0,0.0,0.0,0.0,0.0,0.0,0.0,0.0,0.0,0.0,1500,1500,0.0,0.0,40.0483145,-88.2331643333,0.0,0.0,0.0,0.0,0.0,0.0,0.0,0.0,0.0,0.0,0.0,0,0.0,0.0,0.0,0.0,90.0,90.0,90.0,90.01803588870001,89.82704925540001,89.3177566528,43.8320007324,14.9944610596,3.5700001717000003,0,2,25,1,143,55
18,1530631237412,3150412, RC,0,39.9586186,-88.445067899,0,0.0,0.0,0.0,0.0,0.0,0.0,0.0,0.0,0.0,0.0,0.0,0.0,0.0,1500,1500,0.0,0.0,40.0483145,-88.2331643333,0.0,0.0,0.0,0.0,0.0,0.0,0.0,0.0,0.0,0.0,0.0,0,0.0,0.0,0.0,0.0,90.0,90.0,90.0,90.01803588870001,89.82704925540001,89.3177566528,43.8320007324,14.989819526700002,3.2400000094999997,0,2,25,1,125,57
19,1530631237463,3150463, RC,0,39.9586186,-88.445067899,0,0.0,0.0,0.0,0.0,0.0,0.0,0.0,0.0,0.0,0.0,0.0,0.0,0.0,1500,1500,0.0,0.0,40.0483145,-88.2331643333,0.0,0.0,0.0,0.0,0.0,0.0,0.0,0.0,0.0,0.0,0.0,0,0.0,0.0,0.0,0.0,90.0,90.0,90.0,90.01803588870001,89.82704925540001,89.3177566528,43.8320007324,14.989819526700002,3.2400000094999997,0,2,25,1,128,59
20,1530631237513,3150513, RC,0,39.9586186,-88.445067899,0,0.0,0.0,0.0,0.0,0.0,0.0,0.0,0.0,0.0,0.0,0.0,0.0,0.0,1500,1500,0.0,0.0,40.0483145,-88.2331643333,0.0,0.0,0.0,0.0,0.0,0.0,0.0,0.0,0.0,0.0,0.0,0,0.0,0.0,0.0,0.0,90.0,90.0,90.0,90.01803588870001,89.82704925540001,89.3177566528,43.8320007324,14.989819526700002,3.2400000094999997,0,2,25,1,128,61
21,1530631237563,3150563, RC,0,39.9586186,-88.445067899,0,0.0,0.0,0.0,0.0,0.0,0.0,0.0,0.0,0.0,0.0,0.0,0.0,0.0,1500,1500,0.0,0.0,40.0483145,-88.2331643333,0.0,0.0,0.0,0.0,0.0,0.0,0.0,0.0,0.0,0.0,0.0,0,0.0,0.0,0.0,0.0,90.0,90.0,90.0,90.01803588870001,89.82704925540001,89.3177566528,43.8320007324,14.989819526700002,3.2400000094999997,0,2,25,1,122,64
22,1530631237614,3150614, RC,0,39.9586186,-88.445067899,0,0.0,0.0,0.0,0.0,0.0,0.0,0.0,0.0,0.0,0.0,0.0,0.0,0.0,1500,1500,0.0,0.0,40.0483145,-88.2331643333,0.0,0.0,0.0,0.0,0.0,0.0,0.0,0.0,0.0,0.0,0.0,0,0.0,0.0,0.0,0.0,90.0,90.0,90.0,90.01803588870001,89.82704925540001,89.3177566528,43.8320007324,14.989819526700002,3.2400000094999997,0,2,25,1,130,66
23,1530631237664,3150664, RC,0,39.9586186,-88.445067899,0,0.0,0.0,0.0,0.0,0.0,0.0,0.0,0.0,0.0,0.0,0.0,0.0,0.0,1500,1500,0.0,0.0,40.0483145,-88.2331643333,0.0,0.0,0.0,0.0,0.0,0.0,0.0,0.0,0.0,0.0,0.0,0,0.0,0.0,0.0,0.0,90.0,90.0,90.0,90.01803588870001,89.82704925540001,89.3177566528,43.8320007324,14.989819526700002,3.2400000094999997,0,2,25,1,125,68
24,1530631237714,3150714, RC,0,39.9586186,-88.445067899,0,0.0,0.0,0.0,0.0,0.0,0.0,0.0,0.0,0.0,0.0,0.0,0.0,0.0,1500,1500,0.0,0.0,40.0483145,-88.2331643333,0.0,0.0,0.0,0.0,0.0,0.0,0.0,0.0,0.0,0.0,0.0,0,0.0,0.0,0.0,0.0,90.0,90.0,90.0,90.01803588870001,89.82704925540001,89.3177566528,43.8320007324,14.989819526700002,3.2400000094999997,0,2,25,1,127,70
25,1530631237765,3150765, RC,0,39.9586186,-88.445067899,0,0.0,0.0,0.0,0.0,0.0,0.0,0.0,0.0,0.0,0.0,0.0,0.0,0.0,1500,1500,0.0,0.0,40.0483145,-88.2331643333,0.0,0.0,0.0,0.0,0.0,0.0,0.0,0.0,0.0,0.0,0.0,0,0.0,0.0,0.0,0.0,90.0,90.0,90.0,90.01803588870001,89.82704925540001,89.3177566528,43.8320007324,14.989819526700002,3.2400000094999997,0,2,25,1,119,73
26,1530631237815,3150815, RC,0,39.9586186,-88.445067899,0,0.0,0.0,0.0,0.0,0.0,0.0,0.0,0.0,0.0,0.0,0.0,0.0,0.0,1500,1500,0.0,0.0,40.0483178333,-88.2331623333,0.0,0.0,0.0,0.0,0.0,0.0,0.0,0.0,0.0,0.0,0.0,0,0.0,0.0,0.0,0.0,90.0,90.0,90.0,90.01803588870001,89.82704925540001,89.3177566528,43.8320007324,14.989819526700002,3.2400000094999997,0,2,25,1,121,75
27,1530631237865,3150865, RC,0,39.9586186,-88.445067899,0,0.0,0.0,0.0,0.0,0.0,0.0,0.0,0.0,0.0,0.0,0.0,0.0,0.0,1500,1500,0.0,0.0,40.0483178333,-88.2331623333,0.0,0.0,0.0,0.0,0.0,0.0,0.0,0.0,0.0,0.0,0.0,0,0.0,0.0,0.0,0.0,90.0,90.0,90.0,90.01803588870001,89.82704925540001,89.3177566528,43.8320007324,14.989819526700002,3.2400000094999997,0,2,25,1,131,77
28,1530631237916,3150916, RC,0,39.9586186,-88.445067899,0,0.0,0.0,0.0,0.0,0.0,0.0,0.0,0.0,0.0,0.0,0.0,0.0,0.0,1500,1500,0.0,0.0,40.0483178333,-88.2331623333,0.0,0.0,0.0,0.0,0.0,0.0,0.0,0.0,0.0,0.0,0.0,0,0.0,0.0,0.0,0.0,90.0,90.0,90.0,90.01803588870001,89.82704925540001,89.3177566528,43.8320007324,14.989819526700002,3.2400000094999997,0,2,25,1,132,79
29,1530631237966,3150966, RC,0,39.9586186,-88.445067899,0,0.0,0.0,0.0,0.0,0.0,0.0,0.0,0.0,0.0,0.0,0.0,0.0,0.0,1500,1500,0.0,0.0,40.0483178333,-88.2331623333,0.0,0.0,0.0,0.0,0.0,0.0,0.0,0.0,0.0,0.0,0.0,0,0.0,0.0,0.0,0.0,90.0,90.0,90.0,90.01803588870001,89.82704925540001,89.3177566528,43.8320007324,14.989819526700002,3.2400000094999997,0,2,25,1,127,82
30,1530631238016,3151016, RC,0,39.9586186,-88.445067899,0,0.0,0.0,0.0,0.0,0.0,0.0,0.0,0.0,0.0,0.0,0.0,0.0,0.0,1500,1500,0.0,0.0,40.0483178333,-88.2331623333,0.0,0.0,0.0,0.0,0.0,0.0,0.0,0.0,0.0,0.0,0.0,0,0.0,0.0,0.0,0.0,90.0,90.0,90.0,90.01803588870001,89.82704925540001,89.3177566528,43.8320007324,14.989819526700002,3.2400000094999997,0,2,25,1,138,84
31,1530631238067,3151067, RC,0,39.9586186,-88.445067899,0,0.0,0.0,0.0,0.0,0.0,0.0,0.0,0.0,0.0,0.0,0.0,0.0,0.0,1500,1500,0.0,0.0,40.0483178333,-88.2331623333,0.0,0.0,0.0,0.0,0.0,0.0,0.0,0.0,0.0,0.0,0.0,0,0.0,0.0,0.0,0.0,90.0,90.0,90.0,90.01803588870001,89.82704925540001,89.3177566528,43.8320007324,14.989819526700002,3.2400000094999997,0,2,25,1,127,86
32,1530631238117,3151117, RC,0,39.9586186,-88.445067899,0,0.0,0.0,0.0,0.0,0.0,0.0,0.0,0.0,0.0,0.0,0.0,0.0,0.0,1500,1500,0.0,0.0,40.0483178333,-88.2331623333,0.0,0.0,0.0,0.0,0.0,0.0,0.0,0.0,0.0,0.0,0.0,0,0.0,0.0,0.0,0.0,90.0,90.0,90.0,90.01803588870001,89.82704925540001,89.3177566528,43.8320007324,14.989819526700002,3.2400000094999997,0,2,25,1,126,88
33,1530631238167,3151167, RC,0,39.9586186,-88.445067899,0,0.0,0.0,0.0,0.0,0.0,0.0,0.0,0.0,0.0,0.0,0.0,0.0,0.0,1500,1500,0.0,0.0,40.0483178333,-88.2331623333,0.0,0.0,0.0,0.0,0.0,0.0,0.0,0.0,0.0,0.0,0.0,0,0.0,0.0,0.0,0.0,90.0,90.0,90.0,90.01803588870001,89.82704925540001,89.3177566528,43.8320007324,14.989819526700002,3.2400000094999997,0,2,25,1,132,91
34,1530631238218,3151218, RC,0,39.9586186,-88.445067899,0,0.0,0.0,0.0,0.0,0.0,0.0,0.0,0.0,0.0,0.0,0.0,0.0,0.0,1500,1500,0.0,0.0,40.0483178333,-88.2331623333,0.0,0.0,0.0,0.0,0.0,0.0,0.0,0.0,0.0,0.0,0.0,0,0.0,0.0,0.0,0.0,90.0,90.0,90.0,90.01803588870001,89.82704925540001,89.3177566528,43.8320007324,14.989819526700002,3.2400000094999997,0,2,25,1,125,93
35,1530631238268,3151268, RC,0,39.9586186,-88.445067899,0,0.0,0.0,0.0,0.0,0.0,0.0,0.0,0.0,0.0,0.0,0.0,0.0,0.0,1500,1500,0.0,0.0,40.0483178333,-88.2331623333,0.0,0.0,0.0,0.0,0.0,0.0,0.0,0.0,0.0,0.0,0.0,0,0.0,0.0,0.0,0.0,90.0,90.0,90.0,90.01803588870001,89.82704925540001,89.3177566528,43.8320007324,14.989819526700002,3.2400000094999997,0,2,25,1,127,95
36,1530631238319,3151319, RC,0,39.9586186,-88.445067899,0,0.0,0.0,0.0,0.0,0.0,0.0,0.0,0.0,0.0,0.0,0.0,0.0,0.0,1500,1500,0.0,0.0,40.0483178333,-88.2331623333,0.0,0.0,0.0,0.0,0.0,0.0,0.0,0.0,0.0,0.0,0.0,0,0.0,0.0,0.0,0.0,90.0,90.0,90.0,90.01803588870001,89.82704925540001,89.3177566528,44.9079971313,14.989819526700002,3.2400000094999997,0,2,25,1,126,97
37,1530631238369,3151369, RC,0,39.9586186,-88.445067899,0,0.0,0.0,0.0,0.0,0.0,0.0,0.0,0.0,0.0,0.0,0.0,0.0,0.0,1500,1500,0.0,0.0,40.0483178333,-88.2331623333,0.0,0.0,0.0,0.0,0.0,0.0,0.0,0.0,0.0,0.0,0.0,0,0.0,0.0,0.0,0.0,90.0,90.0,90.0,90.01803588870001,89.82704925540001,89.3177566528,44.9079971313,14.98503685,3.0099999905000003,0,2,25,1,120,100
38,1530631238420,3151420, RC,0,39.9586186,-88.445067899,0,0.0,0.0,0.0,0.0,0.0,0.0,0.0,0.0,0.0,0.0,0.0,0.0,0.0,1500,1500,0.0,0.0,40.0483178333,-88.2331623333,0.0,0.0,0.0,0.0,0.0,0.0,0.0,0.0,0.0,0.0,0.0,0,0.0,0.0,0.0,0.0,90.0,90.0,90.0,90.01803588870001,89.82704925540001,89.3177566528,44.9079971313,14.98503685,3.0099999905000003,0,2,25,1,134,102
39,1530631238470,3151470, RC,0,39.9586186,-88.445067899,0,0.0,0.0,0.0,0.0,0.0,0.0,0.0,0.0,0.0,0.0,0.0,0.0,0.0,1500,1500,0.0,0.0,40.0483178333,-88.2331623333,0.0,0.0,0.0,0.0,0.0,0.0,0.0,0.0,0.0,0.0,0.0,0,0.0,0.0,0.0,0.0,90.0,90.0,90.0,90.01803588870001,89.82704925540001,89.3177566528,44.9079971313,14.98503685,3.0099999905000003,0,2,25,1,115,104
40,1530631238520,3151520, RC,0,39.9586186,-88.445067899,0,0.0,0.0,0.0,0.0,0.0,0.0,0.0,0.0,0.0,0.0,0.0,0.0,0.0,1500,1500,0.0,0.0,40.0483178333,-88.2331623333,0.0,0.0,0.0,0.0,0.0,0.0,0.0,0.0,0.0,0.0,0.0,0,0.0,0.0,0.0,0.0,90.0,90.0,90.0,90.01803588870001,89.82704925540001,89.3177566528,44.9079971313,14.98503685,3.0099999905000003,0,2,25,1,130,106
41,1530631238571,3151571, RC,0,39.9586186,-88.445067899,0,0.0,0.0,0.0,0.0,0.0,0.0,0.0,0.0,0.0,0.0,0.0,0.0,0.0,1500,1500,0.0,0.0,40.0483178333,-88.2331623333,0.0,0.0,0.0,0.0,0.0,0.0,0.0,0.0,0.0,0.0,0.0,0,0.0,0.0,0.0,0.0,90.0,90.0,90.0,90.01803588870001,89.82704925540001,89.3177566528,44.9079971313,14.98503685,3.0099999905000003,0,2,25,1,138,109
42,1530631238621,3151621, RC,0,39.9586186,-88.445067899,0,0.0,0.0,0.0,0.0,0.0,0.0,0.0,0.0,0.0,0.0,0.0,0.0,0.0,1500,1500,0.0,0.0,40.0483178333,-88.2331623333,0.0,0.0,0.0,0.0,0.0,0.0,0.0,0.0,0.0,0.0,0.0,0,0.0,0.0,0.0,0.0,90.0,90.0,90.0,90.01803588870001,89.82704925540001,89.3177566528,44.9079971313,14.98503685,3.0099999905000003,0,2,25,1,137,111
43,1530631238671,3151671, RC,0,39.9586186,-88.445067899,0,0.0,0.0,0.0,0.0,0.0,0.0,0.0,0.0,0.0,0.0,0.0,0.0,0.0,1500,1500,0.0,0.0,40.0483178333,-88.2331623333,0.0,0.0,0.0,0.0,0.0,0.0,0.0,0.0,0.0,0.0,0.0,0,0.0,0.0,0.0,0.0,90.0,90.0,90.0,90.01803588870001,89.82704925540001,89.3177566528,44.9079971313,14.98503685,3.0099999905000003,0,2,25,1,124,113
44,1530631238721,3151721, RC,0,39.9586186,-88.445067899,0,0.0,0.0,0.0,0.0,0.0,0.0,0.0,0.0,0.0,0.0,0.0,0.0,0.0,1500,1500,0.0,0.0,40.0483178333,-88.2331623333,0.0,0.0,0.0,0.0,0.0,0.0,0.0,0.0,0.0,0.0,0.0,0,0.0,0.0,0.0,0.0,90.0,90.0,90.0,90.01803588870001,89.82704925540001,89.3177566528,44.9079971313,14.98503685,3.0099999905000003,0,2,25,1,123,115
45,1530631238772,3151772, RC,0,39.9586186,-88.445067899,0,0.0,0.0,0.0,0.0,0.0,0.0,0.0,0.0,0.0,0.0,0.0,0.0,0.0,1500,1500,0.0,0.0,40.0483178333,-88.2331623333,0.0,0.0,0.0,0.0,0.0,0.0,0.0,0.0,0.0,0.0,0.0,0,0.0,0.0,0.0,0.0,90.0,90.0,90.0,90.01803588870001,89.82704925540001,89.3177566528,44.9079971313,14.98503685,3.0099999905000003,0,2,25,1,129,118
46,1530631238822,3151822, RC,0,39.9586186,-88.445067899,0,0.0,0.0,0.0,0.0,0.0,0.0,0.0,0.0,0.0,0.0,0.0,0.0,0.0,1500,1500,0.0,0.0,40.0483196667,-88.2331638333,0.0,0.0,0.0,0.0,0.0,0.0,0.0,0.0,0.0,0.0,0.0,0,0.0,0.0,0.0,0.0,90.0,90.0,90.0,90.01803588870001,89.82704925540001,89.3177566528,44.9079971313,14.98503685,3.0099999905000003,0,2,25,1,125,120
47,1530631238872,3151872, RC,0,39.9586186,-88.445067899,0,0.0,0.0,0.0,0.0,0.0,0.0,0.0,0.0,0.0,0.0,0.0,0.0,0.0,1500,1500,0.0,0.0,40.0483196667,-88.2331638333,0.0,0.0,0.0,0.0,0.0,0.0,0.0,0.0,0.0,0.0,0.0,0,0.0,0.0,0.0,0.0,90.0,90.0,90.0,90.01803588870001,89.82704925540001,89.3177566528,44.9079971313,14.98503685,3.0099999905000003,0,2,25,1,129,122
48,1530631238923,3151923, RC,0,39.9586186,-88.445067899,0,0.0,0.0,0.0,0.0,0.0,0.0,0.0,0.0,0.0,0.0,0.0,0.0,0.0,1500,1500,0.0,0.0,40.0483196667,-88.2331638333,0.0,0.0,0.0,0.0,0.0,0.0,0.0,0.0,0.0,0.0,0.0,0,0.0,0.0,0.0,0.0,90.0,90.0,90.0,90.01803588870001,89.82704925540001,89.3177566528,44.9079971313,14.98503685,3.0099999905000003,0,2,25,1,129,124
49,1530631238973,3151973, RC,0,39.9586186,-88.445067899,0,0.0,0.0,0.0,0.0,0.0,0.0,0.0,0.0,0.0,0.0,0.0,0.0,0.0,1500,1500,0.0,0.0,40.0483196667,-88.2331638333,0.0,0.0,0.0,0.0,0.0,0.0,0.0,0.0,0.0,0.0,0.0,0,0.0,0.0,0.0,0.0,90.0,90.0,90.0,90.01803588870001,89.82704925540001,89.3177566528,44.9079971313,14.98503685,3.0099999905000003,0,2,25,1,130,127
50,1530631239023,3152023, RC,0,39.9586186,-88.445067899,0,0.0,0.0,0.0,0.0,0.0,0.0,0.0,0.0,0.0,0.0,0.0,0.0,0.0,1500,1500,0.0,0.0,40.0483196667,-88.2331638333,0.0,0.0,0.0,0.0,0.0,0.0,0.0,0.0,0.0,0.0,0.0,0,0.0,0.0,0.0,0.0,90.0,90.0,90.0,90.01803588870001,89.82704925540001,89.3177566528,44.9079971313,14.98503685,3.0099999905000003,0,2,25,1,134,129
51,1530631239074,3152074, RC,0,39.9586186,-88.445067899,0,0.0,0.0,0.0,0.0,0.0,0.0,0.0,0.0,0.0,0.0,0.0,0.0,0.0,1500,1500,0.0,0.0,40.0483196667,-88.2331638333,0.0,0.0,0.0,0.0,0.0,0.0,0.0,0.0,0.0,0.0,0.0,0,0.0,0.0,0.0,0.0,90.0,90.0,90.0,90.01803588870001,89.82704925540001,89.3177566528,44.9079971313,14.98503685,3.0099999905000003,0,2,25,1,124,131
52,1530631239125,3152125, RC,0,39.9586186,-88.445067899,0,0.0,0.0,0.0,0.0,0.0,0.0,0.0,0.0,0.0,0.0,0.0,0.0,0.0,1500,1500,0.0,0.0,40.0483196667,-88.2331638333,0.0,0.0,0.0,0.0,0.0,0.0,0.0,0.0,0.0,0.0,0.0,0,0.0,0.0,0.0,0.0,90.0,90.0,90.0,90.01803588870001,89.82704925540001,89.3177566528,44.9079971313,14.98503685,3.0099999905000003,0,2,25,1,135,133
53,1530631239175,3152175, RC,0,39.9586186,-88.445067899,0,0.0,0.0,0.0,0.0,0.0,0.0,0.0,0.0,0.0,0.0,0.0,0.0,0.0,1500,1500,0.0,0.0,40.0483196667,-88.2331638333,0.0,0.0,0.0,0.0,0.0,0.0,0.0,0.0,0.0,0.0,0.0,0,0.0,0.0,0.0,0.0,90.0,90.0,90.0,90.01803588870001,89.82704925540001,89.3177566528,44.9079971313,14.98503685,3.0099999905000003,0,2,25,1,127,136
54,1530631239226,3152226, RC,0,39.9586186,-88.445067899,0,0.0,0.0,0.0,0.0,0.0,0.0,0.0,0.0,0.0,0.0,0.0,0.0,0.0,1500,1500,0.0,0.0,40.0483196667,-88.2331638333,0.0,0.0,0.0,0.0,0.0,0.0,0.0,0.0,0.0,0.0,0.0,0,0.0,0.0,0.0,0.0,90.0,90.0,90.0,90.01803588870001,89.82704925540001,89.3177566528,44.9079971313,14.98503685,3.0099999905000003,0,2,25,1,136,138
55,1530631239277,3152277, RC,0,39.9586186,-88.445067899,0,0.0,0.0,0.0,0.0,0.0,0.0,0.0,0.0,0.0,0.0,0.0,0.0,0.0,1500,1500,0.0,0.0,40.0483196667,-88.2331638333,0.0,0.0,0.0,0.0,0.0,0.0,0.0,0.0,0.0,0.0,0.0,0,0.0,0.0,0.0,0.0,90.0,90.0,90.0,90.01803588870001,89.82704925540001,89.3177566528,44.9079971313,14.98503685,3.0099999905000003,0,2,25,1,128,140
56,1530631239327,3152327, RC,0,39.9586186,-88.445067899,0,0.0,0.0,0.0,0.0,0.0,0.0,0.0,0.0,0.0,0.0,0.0,0.0,0.0,1500,1500,0.0,0.0,40.0483196667,-88.2331638333,0.0,0.0,0.0,0.0,0.0,0.0,0.0,0.0,0.0,0.0,0.0,0,0.0,0.0,0.0,0.0,90.0,90.0,90.0,90.01803588870001,89.82704925540001,89.3177566528,44.9079971313,14.98503685,3.0099999905000003,0,2,25,1,116,142
57,1530631239378,3152378, RC,0,39.9586186,-88.445067899,0,0.0,0.0,0.0,0.0,0.0,0.0,0.0,0.0,0.0,0.0,0.0,0.0,0.0,1500,1500,0.0,0.0,40.0483196667,-88.2331638333,0.0,0.0,0.0,0.0,0.0,0.0,0.0,0.0,0.0,0.0,0.0,0,0.0,0.0,0.0,0.0,90.0,90.0,90.0,90.01803588870001,89.82704925540001,89.3177566528,44.9079971313,14.980532646199999,3.2400000094999997,0,2,25,1,131,145
58,1530631239429,3152429, RC,0,39.9586186,-88.445067899,0,0.0,0.0,0.0,0.0,0.0,0.0,0.0,0.0,0.0,0.0,0.0,0.0,0.0,1500,1500,0.0,0.0,40.0483196667,-88.2331638333,0.0,0.0,0.0,0.0,0.0,0.0,0.0,0.0,0.0,0.0,0.0,0,0.0,0.0,0.0,0.0,90.0,90.0,90.0,90.01803588870001,89.82704925540001,89.3177566528,44.9079971313,14.980532646199999,3.2400000094999997,0,2,25,1,127,147
59,1530631239479,3152479, RC,0,39.9586186,-88.445067899,0,0.0,0.0,0.0,0.0,0.0,0.0,0.0,0.0,0.0,0.0,0.0,0.0,0.0,1500,1500,0.0,0.0,40.0483196667,-88.2331638333,0.0,0.0,0.0,0.0,0.0,0.0,0.0,0.0,0.0,0.0,0.0,0,0.0,0.0,0.0,0.0,90.0,90.0,90.0,90.01803588870001,89.82704925540001,89.3177566528,44.9079971313,14.980532646199999,3.2400000094999997,0,2,25,1,137,149
60,1530631239530,3152530, RC,0,39.9586186,-88.445067899,0,0.0,0.0,0.0,0.0,0.0,0.0,0.0,0.0,0.0,0.0,0.0,0.0,0.0,1500,1500,0.0,0.0,40.0483196667,-88.2331638333,0.0,0.0,0.0,0.0,0.0,0.0,0.0,0.0,0.0,0.0,0.0,0,0.0,0.0,0.0,0.0,90.0,90.0,90.0,90.01803588870001,89.82704925540001,89.3177566528,44.9079971313,14.980532646199999,3.2400000094999997,0,2,25,1,132,151
61,1530631239580,3152580, RC,0,39.9586186,-88.445067899,0,0.0,0.0,0.0,0.0,0.0,0.0,0.0,0.0,0.0,0.0,0.0,0.0,0.0,1500,1500,0.0,0.0,40.0483196667,-88.2331638333,0.0,0.0,0.0,0.0,0.0,0.0,0.0,0.0,0.0,0.0,0.0,0,0.0,0.0,0.0,0.0,90.0,90.0,90.0,90.01803588870001,89.82704925540001,89.3177566528,44.9079971313,14.980532646199999,3.2400000094999997,0,2,25,1,126,153
62,1530631239631,3152631, RC,0,39.9586186,-88.445067899,0,0.0,0.0,0.0,0.0,0.0,0.0,0.0,0.0,0.0,0.0,0.0,0.0,0.0,1500,1500,0.0,0.0,40.0483196667,-88.2331638333,0.0,0.0,0.0,0.0,0.0,0.0,0.0,0.0,0.0,0.0,0.0,0,0.0,0.0,0.0,0.0,90.0,90.0,90.0,90.01803588870001,89.82704925540001,89.3177566528,44.9079971313,14.980532646199999,3.2400000094999997,0,2,25,1,127,156
63,1530631239682,3152682, RC,0,39.9586186,-88.445067899,0,0.0,0.0,0.0,0.0,0.0,0.0,0.0,0.0,0.0,0.0,0.0,0.0,0.0,1500,1500,0.0,0.0,40.0483196667,-88.2331638333,0.0,0.0,0.0,0.0,0.0,0.0,0.0,0.0,0.0,0.0,0.0,0,0.0,0.0,0.0,0.0,90.0,90.0,90.0,90.01803588870001,89.82704925540001,89.3177566528,44.9079971313,14.980532646199999,3.2400000094999997,0,2,25,1,137,158
64,1530631239732,3152732, RC,0,39.9586186,-88.445067899,0,0.0,0.0,0.0,0.0,0.0,0.0,0.0,0.0,0.0,0.0,0.0,0.0,0.0,1500,1500,0.0,0.0,40.0483196667,-88.2331638333,0.0,0.0,0.0,0.0,0.0,0.0,0.0,0.0,0.0,0.0,0.0,0,0.0,0.0,0.0,0.0,90.0,90.0,90.0,90.01803588870001,89.82704925540001,89.3177566528,44.9079971313,14.980532646199999,3.2400000094999997,0,2,25,1,140,160
65,1530631239783,3152783, RC,0,39.9586186,-88.445067899,0,0.0,0.0,0.0,0.0,0.0,0.0,0.0,0.0,0.0,0.0,0.0,0.0,0.0,1500,1500,0.0,0.0,40.048317,-88.2331635,0.0,0.0,0.0,0.0,0.0,0.0,0.0,0.0,0.0,0.0,0.0,0,0.0,0.0,0.0,0.0,90.0,90.0,90.0,90.01803588870001,89.82704925540001,89.3177566528,44.9079971313,14.980532646199999,3.2400000094999997,0,2,25,1,133,162
66,1530631239833,3152833, RC,0,39.9586186,-88.445067899,0,0.0,0.0,0.0,0.0,0.0,0.0,0.0,0.0,0.0,0.0,0.0,0.0,0.0,1500,1500,0.0,0.0,40.048317,-88.2331635,0.0,0.0,0.0,0.0,0.0,0.0,0.0,0.0,0.0,0.0,0.0,0,0.0,0.0,0.0,0.0,90.0,90.0,90.0,90.01803588870001,89.82704925540001,89.3177566528,44.9079971313,14.980532646199999,3.2400000094999997,0,2,25,1,128,165
67,1530631239884,3152884, RC,0,39.9586186,-88.445067899,0,0.0,0.0,0.0,0.0,0.0,0.0,0.0,0.0,0.0,0.0,0.0,0.0,0.0,1500,1500,0.0,0.0,40.048317,-88.2331635,0.0,0.0,0.0,0.0,0.0,0.0,0.0,0.0,0.0,0.0,0.0,0,0.0,0.0,0.0,0.0,90.0,93.0,90.0,90.01803588870001,89.82704925540001,89.3177566528,44.9079971313,14.980532646199999,3.2400000094999997,0,2,25,1,132,167
68,1530631239935,3152935, RC,0,39.9586186,-88.445067899,0,0.0,0.0,0.0,0.0,0.0,0.0,0.0,0.0,0.0,0.0,0.0,0.0,0.0,1500,1500,0.0,0.0,40.048317,-88.2331635,0.0,0.0,0.0,0.0,0.0,0.0,0.0,0.0,0.0,0.0,0.0,0,0.0,0.0,0.0,0.0,90.0,93.0,90.0,90.01803588870001,89.7633895874,89.3177566528,44.9079971313,14.980532646199999,3.2400000094999997,0,2,25,1,122,169
69,1530631239985,3152985, RC,0,39.9586186,-88.445067899,0,0.0,0.0,0.0,0.0,0.0,0.0,0.0,0.0,0.0,0.0,0.0,0.0,0.0,1500,1500,0.0,0.0,40.048317,-88.2331635,0.0,0.0,0.0,0.0,0.0,0.0,0.0,0.0,0.0,0.0,0.0,0,0.0,0.0,0.0,0.0,90.0,87.0,90.0,90.01803588870001,87.02591705319999,89.3177566528,44.9079971313,14.980532646199999,3.2400000094999997,0,2,25,1,122,171
70,1530631240036,3153036, RC,0,39.9586186,-88.445067899,0,0.0,0.0,0.0,0.0,0.0,0.0,0.0,0.0,0.0,0.0,0.0,0.0,0.0,1500,1500,0.0,0.0,40.048317,-88.2331635,0.0,0.0,0.0,0.0,0.0,0.0,0.0,0.0,0.0,0.0,0.0,0,0.0,0.0,0.0,0.0,90.0,87.0,90.0,90.01803588870001,86.89859771729999,89.3177566528,44.9079971313,14.980532646199999,3.2400000094999997,0,2,25,1,117,174
71,1530631240087,3153087, RC,0,39.9586186,-88.445067899,0,0.0,0.0,0.0,0.0,0.0,0.0,0.0,0.0,0.0,0.0,0.0,0.0,0.0,1500,1500,0.0,0.0,40.048317,-88.2331635,0.0,0.0,0.0,0.0,0.0,0.0,0.0,0.0,0.0,0.0,0.0,0,0.0,0.0,0.0,0.0,90.0,85.0,90.0,90.01803588870001,88.8721160889,89.3177566528,44.9079971313,14.980532646199999,3.2400000094999997,0,2,25,1,114,178
72,1530631240137,3153137, RC,0,39.9586186,-88.445067899,0,0.0,0.0,0.0,0.0,0.0,0.0,0.0,0.0,0.0,0.0,0.0,0.0,0.0,1500,1500,0.0,0.0,40.048317,-88.2331635,0.0,0.0,0.0,0.0,0.0,0.0,0.0,0.0,0.0,0.0,0.0,0,0.0,0.0,0.0,0.0,90.0,85.0,90.0,90.01803588870001,92.62817382809999,89.3177566528,44.9079971313,14.980532646199999,3.2400000094999997,0,2,25,1,130,181
73,1530631240188,3153188, RC,0,39.9586186,-88.445067899,0,0.0,0.0,0.0,0.0,0.0,0.0,0.0,0.0,0.0,0.0,0.0,0.0,0.0,1500,1500,0.0,0.0,40.048317,-88.2331635,0.0,0.0,0.0,0.0,0.0,0.0,0.0,0.0,0.0,0.0,0.0,0,0.0,0.0,0.0,0.0,90.0,82.0,90.0,90.01803588870001,93.1374740601,89.3177566528,44.9079971313,14.980532646199999,3.2400000094999997,0,2,25,1,119,184
74,1530631240238,3153238, RC,0,39.9586186,-88.445067899,0,0.0,0.0,0.0,0.0,0.0,0.0,0.0,0.0,0.0,0.0,0.0,0.0,0.0,1500,1500,0.0,0.0,40.048317,-88.2331635,0.0,0.0,0.0,0.0,0.0,0.0,0.0,0.0,0.0,0.0,0.0,0,0.0,0.0,0.0,0.0,90.0,82.0,90.0,90.01803588870001,94.2197265625,89.3177566528,44.9079971313,14.980532646199999,3.2400000094999997,0,2,25,1,136,186
75,1530631240289,3153289, RC,0,39.9586186,-88.445067899,0,0.0,0.0,0.0,0.0,0.0,0.0,0.0,0.0,0.0,0.0,0.0,0.0,0.0,1500,1500,0.0,0.0,40.048317,-88.2331635,0.0,0.0,0.0,0.0,0.0,0.0,0.0,0.0,0.0,0.0,0.0,0,0.0,0.0,0.0,0.0,90.0,79.0,90.0,90.01803588870001,97.02085876459999,89.3177566528,44.9079971313,14.980532646199999,3.2400000094999997,0,2,25,1,127,189
76,1530631240340,3153340, RC,0,39.9586186,-88.445067899,0,0.0,0.0,0.0,0.0,0.0,0.0,0.0,0.0,0.0,0.0,0.0,0.0,0.0,1500,1500,0.0,0.0,40.048317,-88.2331635,0.0,0.0,0.0,0.0,0.0,0.0,0.0,0.0,0.0,0.0,0.0,0,0.0,0.0,0.0,0.0,90.0,79.0,90.0,90.01803588870001,97.33916473389999,89.3177566528,44.9079971313,14.980532646199999,3.2400000094999997,0,2,25,1,133,191
77,1530631240390,3153390, RC,0,39.9586186,-88.445067899,0,0.0,0.0,0.0,0.0,0.0,0.0,0.0,0.0,0.0,0.0,0.0,0.0,0.0,1500,1500,0.0,0.0,40.048317,-88.2331635,0.0,0.0,0.0,0.0,0.0,0.0,0.0,0.0,0.0,0.0,0.0,0,0.0,0.0,0.0,0.0,90.0,77.0,90.0,90.01803588870001,100.8405685425,89.3177566528,44.9079971313,14.970708847000001,2.3499999046,0,2,25,1,115,194
78,1530631240441,3153441, RC,0,39.9586186,-88.445067899,0,0.0,0.0,0.0,0.0,0.0,0.0,0.0,0.0,0.0,0.0,0.0,0.0,0.0,1500,1500,0.0,0.0,40.048317,-88.2331635,0.0,0.0,0.0,0.0,0.0,0.0,0.0,0.0,0.0,0.0,0.0,0,0.0,0.0,0.0,0.0,90.0,77.0,90.0,90.01803588870001,100.58592224120001,89.3177566528,44.9079971313,14.970708847000001,2.3499999046,0,2,25,1,125,196
79,1530631240491,3153491, RC,0,39.9586186,-88.445067899,0,0.0,0.0,0.0,0.0,0.0,0.0,0.0,0.0,0.0,0.0,0.0,0.0,0.0,1500,1500,0.0,0.0,40.048317,-88.2331635,0.0,0.0,0.0,0.0,0.0,0.0,0.0,0.0,0.0,0.0,0.0,0,0.0,0.0,0.0,0.0,90.0,76.0,90.0,90.01803588870001,102.17747497559999,89.3177566528,44.9079971313,14.970708847000001,2.3499999046,0,2,25,1,132,199
80,1530631240542,3153542, RC,0,39.9586186,-88.445067899,0,0.0,0.0,0.0,0.0,0.0,0.0,0.0,0.0,0.0,0.0,0.0,0.0,0.0,1500,1500,0.0,0.0,40.048317,-88.2331635,0.0,0.0,0.0,0.0,0.0,0.0,0.0,0.0,0.0,0.0,0.0,0,0.0,0.0,0.0,0.0,90.0,76.0,90.0,90.01803588870001,102.4957885742,89.3177566528,44.9079971313,14.970708847000001,2.3499999046,0,2,25,1,129,202
81,1530631240592,3153592, RC,0,39.9586186,-88.445067899,0,0.0,0.0,0.0,0.0,0.0,0.0,0.0,0.0,0.0,0.0,0.0,0.0,0.0,1500,1500,0.0,0.0,40.048317,-88.2331635,0.0,0.0,0.0,0.0,0.0,0.0,0.0,0.0,0.0,0.0,0.0,0,0.0,0.0,0.0,0.0,90.0,76.0,90.0,90.01803588870001,103.0050811768,89.3177566528,44.9079971313,14.970708847000001,2.3499999046,0,2,25,1,120,204
82,1530631240643,3153643, RC,0,39.9586186,-88.445067899,0,0.0,0.0,0.0,0.0,0.0,0.0,0.0,0.0,0.0,0.0,0.0,0.0,0.0,1500,1500,0.0,0.0,40.048317,-88.2331635,0.0,0.0,0.0,0.0,0.0,0.0,0.0,0.0,0.0,0.0,0.0,0,0.0,0.0,0.0,0.0,90.0,76.0,90.0,90.01803588870001,103.8963470459,89.3177566528,44.9079971313,14.970708847000001,2.3499999046,0,2,25,1,130,207
83,1530631240694,3153694, RC,0,39.9586186,-88.445067899,0,0.0,0.0,0.0,0.0,0.0,0.0,0.0,0.0,0.0,0.0,0.0,0.0,0.0,1500,1500,0.0,0.0,40.048317,-88.2331635,0.0,0.0,0.0,0.0,0.0,0.0,0.0,0.0,0.0,0.0,0.0,0,0.0,0.0,0.0,0.0,90.0,75.0,90.0,90.01803588870001,103.9600067139,89.3177566528,44.9079971313,14.970708847000001,2.3499999046,0,2,25,1,131,209
84,1530631240744,3153744, RC,0,39.9586186,-88.445067899,0,0.0,0.0,0.0,0.0,0.0,0.0,0.0,0.0,0.0,0.0,0.0,0.0,0.0,1500,1500,0.0,0.0,40.048317,-88.2331635,0.0,0.0,0.0,0.0,0.0,0.0,0.0,0.0,0.0,0.0,0.0,0,0.0,0.0,0.0,0.0,90.0,75.0,90.0,90.01803588870001,103.9600067139,89.3177566528,44.9079971313,14.970708847000001,2.3499999046,0,2,25,1,116,212
85,1530631240795,3153795, RC,0,39.9586186,-88.445067899,0,0.0,0.0,0.0,0.0,0.0,0.0,0.0,0.0,0.0,0.0,0.0,0.0,0.0,1500,1500,0.0,0.0,40.0483186667,-88.2331628333,0.0,0.0,0.0,0.0,0.0,0.0,0.0,0.0,0.0,0.0,0.0,0,0.0,0.0,0.0,0.0,90.0,73.0,90.0,90.01803588870001,104.72395324709998,89.3177566528,44.9079971313,14.970708847000001,2.3499999046,0,2,25,1,129,214
86,1530631240845,3153845, RC,0,39.9586186,-88.445067899,0,0.0,0.0,0.0,0.0,0.0,0.0,0.0,0.0,0.0,0.0,0.0,0.0,0.0,1500,1500,0.0,0.0,40.0483186667,-88.2331628333,0.0,0.0,0.0,0.0,0.0,0.0,0.0,0.0,0.0,0.0,0.0,0,0.0,0.0,0.0,0.0,90.0,73.0,90.0,90.01803588870001,104.8512802124,89.3177566528,44.9079971313,14.970708847000001,2.3499999046,0,2,25,1,139,217
87,1530631240896,3153896, RC,0,39.9586186,-88.445067899,0,0.0,0.0,0.0,0.0,0.0,0.0,0.0,0.0,0.0,0.0,0.0,0.0,0.0,1500,1500,0.0,0.0,40.0483186667,-88.2331628333,0.0,0.0,0.0,0.0,0.0,0.0,0.0,0.0,0.0,0.0,0.0,0,0.0,0.0,0.0,0.0,90.0,73.0,90.0,90.01803588870001,105.8698654175,89.3177566528,44.9079971313,14.970708847000001,2.3499999046,0,2,25,1,130,219
88,1530631240947,3153947, RC,0,39.9586186,-88.445067899,0,0.0,0.0,0.0,0.0,0.0,0.0,0.0,0.0,0.0,0.0,0.0,0.0,0.0,1500,1500,0.0,0.0,40.0483186667,-88.2331628333,0.0,0.0,0.0,0.0,0.0,0.0,0.0,0.0,0.0,0.0,0.0,0,0.0,0.0,0.0,0.0,90.0,73.0,90.0,90.01803588870001,106.25184631350001,89.3177566528,44.9079971313,14.970708847000001,2.3499999046,0,2,25,1,118,222
89,1530631240997,3153997, RC,0,39.9586186,-88.445067899,0,0.0,0.0,0.0,0.0,0.0,0.0,0.0,0.0,0.0,0.0,0.0,0.0,0.0,1500,1500,0.0,0.0,40.0483186667,-88.2331628333,0.0,0.0,0.0,0.0,0.0,0.0,0.0,0.0,0.0,0.0,0.0,0,0.0,0.0,0.0,0.0,90.0,72.0,90.0,90.01803588870001,106.25184631350001,89.3177566528,44.9079971313,14.970708847000001,2.3499999046,0,2,25,1,125,224
90,1530631241048,3154048, RC,0,39.9586186,-88.445067899,0,0.0,0.0,0.0,0.0,0.0,0.0,0.0,0.0,0.0,0.0,0.0,0.0,0.0,1500,1500,0.0,0.0,40.0483186667,-88.2331628333,0.0,0.0,0.0,0.0,0.0,0.0,0.0,0.0,0.0,0.0,0.0,0,0.0,0.0,0.0,0.0,90.0,72.0,90.0,90.01803588870001,106.25184631350001,89.3177566528,44.9079971313,14.970708847000001,2.3499999046,0,2,25,1,125,227
91,1530631241098,3154098, RC,0,39.9586186,-88.445067899,0,0.0,0.0,0.0,0.0,0.0,0.0,0.0,0.0,0.0,0.0,0.0,0.0,0.0,1500,1500,0.0,0.0,40.0483186667,-88.2331628333,0.0,0.0,0.0,0.0,0.0,0.0,0.0,0.0,0.0,0.0,0.0,0,0.0,0.0,0.0,0.0,90.0,72.0,90.0,90.01803588870001,108.09803771969999,89.3177566528,44.9079971313,14.970708847000001,2.3499999046,0,2,25,1,132,229
92,1530631241149,3154149, RC,0,39.9586186,-88.445067899,0,0.0,0.0,0.0,0.0,0.0,0.0,0.0,0.0,0.0,0.0,0.0,0.0,0.0,1500,1500,0.0,0.0,40.0483186667,-88.2331628333,0.0,0.0,0.0,0.0,0.0,0.0,0.0,0.0,0.0,0.0,0.0,0,0.0,0.0,0.0,0.0,90.0,72.0,90.0,90.01803588870001,108.352684021,89.3177566528,44.9079971313,14.970708847000001,2.3499999046,0,2,25,1,133,232
93,1530631241200,3154200, RC,0,39.9586186,-88.445067899,0,0.0,0.0,0.0,0.0,0.0,0.0,0.0,0.0,0.0,0.0,0.0,0.0,0.0,1500,1500,0.0,0.0,40.0483186667,-88.2331628333,0.0,0.0,0.0,0.0,0.0,0.0,0.0,0.0,0.0,0.0,0.0,0,0.0,0.0,0.0,0.0,90.0,72.0,90.0,90.01803588870001,108.352684021,89.3177566528,44.9079971313,14.970708847000001,2.3499999046,0,2,25,1,117,234
94,1530631241250,3154250, RC,0,39.9586186,-88.445067899,0,0.0,0.0,0.0,0.0,0.0,0.0,0.0,0.0,0.0,0.0,0.0,0.0,0.0,1500,1500,0.0,0.0,40.0483186667,-88.2331628333,0.0,0.0,0.0,0.0,0.0,0.0,0.0,0.0,0.0,0.0,0.0,0,0.0,0.0,0.0,0.0,90.0,72.0,90.0,90.01803588870001,108.352684021,89.3177566528,44.9079971313,14.970708847000001,2.3499999046,0,2,25,1,138,237
95,1530631241301,3154301, RC,0,39.9586186,-88.445067899,0,0.0,0.0,0.0,0.0,0.0,0.0,0.0,0.0,0.0,0.0,0.0,0.0,0.0,1500,1500,0.0,0.0,40.0483186667,-88.2331628333,0.0,0.0,0.0,0.0,0.0,0.0,0.0,0.0,0.0,0.0,0.0,0,0.0,0.0,0.0,0.0,90.0,72.0,90.0,90.01803588870001,108.352684021,89.3177566528,44.9079971313,14.970708847000001,2.3499999046,0,2,25,1,131,239
96,1530631241351,3154351, RC,0,39.9586186,-88.445067899,0,0.0,0.0,0.0,0.0,0.0,0.0,0.0,0.0,0.0,0.0,0.0,0.0,0.0,1500,1500,0.0,0.0,40.0483186667,-88.2331628333,0.0,0.0,0.0,0.0,0.0,0.0,0.0,0.0,0.0,0.0,0.0,0,0.0,0.0,0.0,0.0,90.0,72.0,90.0,90.01803588870001,108.1616973877,89.3177566528,44.9079971313,14.970708847000001,2.3499999046,0,2,25,1,115,242
97,1530631241402,3154402, RC,0,39.9586186,-88.445067899,0,0.0,0.0,0.0,0.0,0.0,0.0,0.0,0.0,0.0,0.0,0.0,0.0,0.0,1500,1500,0.0,0.0,40.0483186667,-88.2331628333,0.0,0.0,0.0,0.0,0.0,0.0,0.0,0.0,0.0,0.0,0.0,0,0.0,0.0,0.0,0.0,90.0,72.0,90.0,90.01803588870001,108.1616973877,89.3177566528,44.9079971313,14.965957641600001,2.6300001144,0,2,25,1,125,244
98,1530631241452,3154452, RC,0,39.9586186,-88.445067899,0,0.0,0.0,0.0,0.0,0.0,0.0,0.0,0.0,0.0,0.0,0.0,0.0,0.0,1500,1500,0.0,0.0,40.0483186667,-88.2331628333,0.0,0.0,0.0,0.0,0.0,0.0,0.0,0.0,0.0,0.0,0.0,0,0.0,0.0,0.0,0.0,90.0,72.0,90.0,90.01803588870001,108.1616973877,89.3177566528,44.9079971313,14.965957641600001,2.6300001144,0,2,25,1,126,247
99,1530631241503,3154503, RC,0,39.9586186,-88.445067899,0,0.0,0.0,0.0,0.0,0.0,0.0,0.0,0.0,0.0,0.0,0.0,0.0,0.0,1500,1500,0.0,0.0,40.0483186667,-88.2331628333,0.0,0.0,0.0,0.0,0.0,0.0,0.0,0.0,0.0,0.0,0.0,0,0.0,0.0,0.0,0.0,90.0,72.0,90.0,90.01803588870001,108.1616973877,89.3177566528,44.9079971313,14.965957641600001,2.6300001144,0,2,25,1,127,249
100,1530631241554,3154554, RC,0,39.9586186,-88.445067899,0,0.0,0.0,0.0,0.0,0.0,0.0,0.0,0.0,0.0,0.0,0.0,0.0,0.0,1500,1500,0.0,0.0,40.0483186667,-88.2331628333,0.0,0.0,0.0,0.0,0.0,0.0,0.0,0.0,0.0,0.0,0.0,0,0.0,0.0,0.0,0.0,90.0,72.0,90.0,90.01803588870001,108.1616973877,89.3177566528,44.9079971313,14.965957641600001,2.6300001144,0,2,25,1,129,252
101,1530631241604,3154604, RC,0,39.9586186,-88.445067899,0,0.0,0.0,0.0,0.0,0.0,0.0,0.0,0.0,0.0,0.0,0.0,0.0,0.0,1500,1500,0.0,0.0,40.0483186667,-88.2331628333,0.0,0.0,0.0,0.0,0.0,0.0,0.0,0.0,0.0,0.0,0.0,0,0.0,0.0,0.0,0.0,90.0,70.0,90.0,90.01803588870001,108.1616973877,89.3177566528,44.9079971313,14.965957641600001,2.6300001144,0,2,25,1,126,254
102,1530631241655,3154655, RC,0,39.9586186,-88.445067899,0,0.0,0.0,0.0,0.0,0.0,0.0,0.0,0.0,0.0,0.0,0.0,0.0,0.0,1500,1500,0.0,0.0,40.0483186667,-88.2331628333,0.0,0.0,0.0,0.0,0.0,0.0,0.0,0.0,0.0,0.0,0.0,0,0.0,0.0,0.0,0.0,90.0,70.0,90.0,90.01803588870001,108.1616973877,89.3177566528,44.9079971313,14.965957641600001,2.6300001144,0,2,25,1,135,257
103,1530631241705,3154705, RC,0,39.9586186,-88.445067899,0,0.0,0.0,0.0,0.0,0.0,0.0,0.0,0.0,0.0,0.0,0.0,0.0,0.0,1500,1500,0.0,0.0,40.0483186667,-88.2331628333,0.0,0.0,0.0,0.0,0.0,0.0,0.0,0.0,0.0,0.0,0.0,0,0.0,0.0,0.0,0.0,90.0,70.0,90.0,90.01803588870001,109.2439498901,89.3177566528,44.9079971313,14.965957641600001,2.6300001144,0,2,25,1,122,259
104,1530631241756,3154756, RC,0,39.9586186,-88.445067899,0,0.0,0.0,0.0,0.0,0.0,0.0,0.0,0.0,0.0,0.0,0.0,0.0,0.0,1500,1500,0.0,0.0,40.0483186667,-88.2331628333,0.0,0.0,0.0,0.0,0.0,0.0,0.0,0.0,0.0,0.0,0.0,0,0.0,0.0,0.0,0.0,90.0,70.0,90.0,90.01803588870001,109.880569458,89.3177566528,44.9079971313,14.965957641600001,2.6300001144,0,2,25,1,136,262
105,1530631241806,3154806, RC,0,39.9586186,-88.445067899,0,0.0,0.0,0.0,0.0,0.0,0.0,0.0,0.0,0.0,0.0,0.0,0.0,0.0,1500,1500,0.0,0.0,40.0483186667,-88.2331628333,0.0,0.0,0.0,0.0,0.0,0.0,0.0,0.0,0.0,0.0,0.0,0,0.0,0.0,0.0,0.0,90.0,70.0,90.0,90.01803588870001,109.94423675540001,89.3177566528,44.9079971313,14.965957641600001,2.6300001144,0,2,25,1,135,264
106,1530631241857,3154857, RC,0,39.9586186,-88.445067899,0,0.0,0.0,0.0,0.0,0.0,0.0,0.0,0.0,0.0,0.0,0.0,0.0,0.0,1500,1500,0.0,0.0,40.0483188333,-88.2331621667,0.0,0.0,0.0,0.0,0.0,0.0,0.0,0.0,0.0,0.0,0.0,0,0.0,0.0,0.0,0.0,90.0,70.0,90.0,90.01803588870001,109.94423675540001,89.3177566528,44.9079971313,14.965957641600001,2.6300001144,0,2,25,1,120,267
107,1530631241908,3154908, RC,0,39.9586186,-88.445067899,0,0.0,0.0,0.0,0.0,0.0,0.0,0.0,0.0,0.0,0.0,0.0,0.0,0.0,1500,1500,0.0,0.0,40.0483188333,-88.2331621667,0.0,0.0,0.0,0.0,0.0,0.0,0.0,0.0,0.0,0.0,0.0,0,0.0,0.0,0.0,0.0,90.0,70.0,90.0,90.01803588870001,109.94423675540001,89.3177566528,44.9079971313,14.965957641600001,2.6300001144,0,2,25,1,138,269
108,1530631241958,3154958, RC,0,39.9586186,-88.445067899,0,0.0,0.0,0.0,0.0,0.0,0.0,0.0,0.0,0.0,0.0,0.0,0.0,0.0,1500,1500,0.0,0.0,40.0483188333,-88.2331621667,0.0,0.0,0.0,0.0,0.0,0.0,0.0,0.0,0.0,0.0,0.0,0,0.0,0.0,0.0,0.0,90.0,70.0,90.0,90.01803588870001,109.94423675540001,89.3177566528,44.9079971313,14.965957641600001,2.6300001144,0,2,25,1,131,272
109,1530631242009,3155009, RC,0,39.9586186,-88.445067899,0,0.0,0.0,0.0,0.0,0.0,0.0,0.0,0.0,0.0,0.0,0.0,0.0,0.0,1500,1500,0.0,0.0,40.0483188333,-88.2331621667,0.0,0.0,0.0,0.0,0.0,0.0,0.0,0.0,0.0,0.0,0.0,0,0.0,0.0,0.0,0.0,90.0,70.0,90.0,90.01803588870001,109.94423675540001,89.3177566528,44.9079971313,14.965957641600001,2.6300001144,0,2,25,1,122,274
110,1530631242059,3155059, RC,0,39.9586186,-88.445067899,0,0.0,0.0,0.0,0.0,0.0,0.0,0.0,0.0,0.0,0.0,0.0,0.0,0.0,1500,1500,0.0,0.0,40.0483188333,-88.2331621667,0.0,0.0,0.0,0.0,0.0,0.0,0.0,0.0,0.0,0.0,0.0,0,0.0,0.0,0.0,0.0,90.0,70.0,90.0,90.01803588870001,110.0078964233,89.3177566528,44.9079971313,14.965957641600001,2.6300001144,0,2,25,1,117,277
111,1530631242110,3155110, RC,0,39.9586186,-88.445067899,0,0.0,0.0,0.0,0.0,0.0,0.0,0.0,0.0,0.0,0.0,0.0,0.0,0.0,1500,1500,0.0,0.0,40.0483188333,-88.2331621667,0.0,0.0,0.0,0.0,0.0,0.0,0.0,0.0,0.0,0.0,0.0,0,0.0,0.0,0.0,0.0,90.0,67.0,90.0,90.01803588870001,109.94423675540001,89.3177566528,44.9079971313,14.965957641600001,2.6300001144,0,2,25,1,123,279
112,1530631242160,3155160, RC,0,39.9586186,-88.445067899,0,0.0,0.0,0.0,0.0,0.0,0.0,0.0,0.0,0.0,0.0,0.0,0.0,0.0,1500,1500,0.0,0.0,40.0483188333,-88.2331621667,0.0,0.0,0.0,0.0,0.0,0.0,0.0,0.0,0.0,0.0,0.0,0,0.0,0.0,0.0,0.0,90.0,67.0,90.0,90.01803588870001,109.81690979,89.3177566528,44.9079971313,14.965957641600001,2.6300001144,0,2,25,1,122,282
113,1530631242211,3155211, RC,0,39.9586186,-88.445067899,0,0.0,0.0,0.0,0.0,0.0,0.0,0.0,0.0,0.0,0.0,0.0,0.0,0.0,1500,1500,0.0,0.0,40.0483188333,-88.2331621667,0.0,0.0,0.0,0.0,0.0,0.0,0.0,0.0,0.0,0.0,0.0,0,0.0,0.0,0.0,0.0,90.0,67.0,90.0,90.01803588870001,112.8090209961,89.3177566528,44.9079971313,14.965957641600001,2.6300001144,0,2,25,1,120,285
114,1530631242262,3155262, RC,0,39.9586186,-88.445067899,0,0.0,0.0,0.0,0.0,0.0,0.0,0.0,0.0,0.0,0.0,0.0,0.0,0.0,1500,1500,0.0,0.0,40.0483188333,-88.2331621667,0.0,0.0,0.0,0.0,0.0,0.0,0.0,0.0,0.0,0.0,0.0,0,0.0,0.0,0.0,0.0,90.0,67.0,90.0,90.01803588870001,113.0000076294,89.3177566528,44.9079971313,14.965957641600001,2.6300001144,0,2,25,1,122,287
115,1530631242312,3155312, RC,0,39.9586186,-88.445067899,0,0.0,0.0,0.0,0.0,0.0,0.0,0.0,0.0,0.0,0.0,0.0,0.0,0.0,1500,1500,0.0,0.0,40.0483188333,-88.2331621667,0.0,0.0,0.0,0.0,0.0,0.0,0.0,0.0,0.0,0.0,0.0,0,0.0,0.0,0.0,0.0,90.0,66.0,90.0,90.01803588870001,112.74536132809999,89.3177566528,44.9079971313,14.965957641600001,2.6300001144,0,2,25,1,115,290
116,1530631242363,3155363, RC,0,39.9586186,-88.445067899,0,0.0,0.0,0.0,0.0,0.0,0.0,0.0,0.0,0.0,0.0,0.0,0.0,0.0,1500,1500,0.0,0.0,40.0483188333,-88.2331621667,0.0,0.0,0.0,0.0,0.0,0.0,0.0,0.0,0.0,0.0,0.0,0,0.0,0.0,0.0,0.0,90.0,66.0,90.0,90.01803588870001,112.93634796139999,89.3177566528,44.9079971313,14.965957641600001,2.6300001144,0,2,25,1,126,292
117,1530631242413,3155413, RC,0,39.9586186,-88.445067899,0,0.0,0.0,0.0,0.0,0.0,0.0,0.0,0.0,0.0,0.0,0.0,0.0,0.0,1500,1500,0.0,0.0,40.0483188333,-88.2331621667,0.0,0.0,0.0,0.0,0.0,0.0,0.0,0.0,0.0,0.0,0.0,0,0.0,0.0,0.0,0.0,90.0,66.0,90.0,90.01803588870001,113.1273269653,89.3177566528,44.9079971313,14.9614534378,3.1200001239999997,0,2,25,1,127,294
118,1530631242464,3155464, RC,0,39.9586186,-88.445067899,0,0.0,0.0,0.0,0.0,0.0,0.0,0.0,0.0,0.0,0.0,0.0,0.0,0.0,1500,1500,0.0,0.0,40.0483188333,-88.2331621667,0.0,0.0,0.0,0.0,0.0,0.0,0.0,0.0,0.0,0.0,0.0,0,0.0,0.0,0.0,0.0,90.0,66.0,90.0,90.01803588870001,113.1909942627,89.3177566528,44.9079971313,14.9614534378,3.1200001239999997,0,2,25,1,133,297
119,1530631242515,3155515, RC,0,39.9586186,-88.445067899,0,0.0,0.0,0.0,0.0,0.0,0.0,0.0,0.0,0.0,0.0,0.0,0.0,0.0,1500,1500,0.0,0.0,40.0483188333,-88.2331621667,0.0,0.0,0.0,0.0,0.0,0.0,0.0,0.0,0.0,0.0,0.0,0,0.0,0.0,0.0,0.0,90.0,66.0,90.0,90.01803588870001,113.1909942627,89.3177566528,44.9079971313,14.9614534378,3.1200001239999997,0,2,25,1,125,300
120,1530631242565,3155565, RC,0,39.9586186,-88.445067899,0,0.0,0.0,0.0,0.0,0.0,0.0,0.0,0.0,0.0,0.0,0.0,0.0,0.0,1500,1500,0.0,0.0,40.0483188333,-88.2331621667,0.0,0.0,0.0,0.0,0.0,0.0,0.0,0.0,0.0,0.0,0.0,0,0.0,0.0,0.0,0.0,90.0,66.0,90.0,90.01803588870001,113.4456481934,89.3177566528,44.9079971313,14.9614534378,3.1200001239999997,0,2,25,1,115,302
121,1530631242616,3155616, RC,0,39.9586186,-88.445067899,0,0.0,0.0,0.0,0.0,0.0,0.0,0.0,0.0,0.0,0.0,0.0,0.0,0.0,1500,1500,0.0,0.0,40.0483188333,-88.2331621667,0.0,0.0,0.0,0.0,0.0,0.0,0.0,0.0,0.0,0.0,0.0,0,0.0,0.0,0.0,0.0,90.0,66.0,90.0,90.01803588870001,113.4456481934,89.3177566528,44.9079971313,14.9614534378,3.1200001239999997,0,2,25,1,135,305
122,1530631242666,3155666, RC,0,39.9586186,-88.445067899,0,0.0,0.0,0.0,0.0,0.0,0.0,0.0,0.0,0.0,0.0,0.0,0.0,0.0,1500,1500,0.0,0.0,40.0483188333,-88.2331621667,0.0,0.0,0.0,0.0,0.0,0.0,0.0,0.0,0.0,0.0,0.0,0,0.0,0.0,0.0,0.0,90.0,66.0,90.0,90.01803588870001,113.4456481934,89.3177566528,44.9079971313,14.9614534378,3.1200001239999997,0,2,25,1,116,307
123,1530631242717,3155717, RC,0,39.9586186,-88.445067899,0,0.0,0.0,0.0,0.0,0.0,0.0,0.0,0.0,0.0,0.0,0.0,0.0,0.0,1500,1500,0.0,0.0,40.0483188333,-88.2331621667,0.0,0.0,0.0,0.0,0.0,0.0,0.0,0.0,0.0,0.0,0.0,0,0.0,0.0,0.0,0.0,90.0,66.0,90.0,90.01803588870001,113.4456481934,89.3177566528,44.9079971313,14.9614534378,3.1200001239999997,0,2,25,1,128,310
124,1530631242767,3155767, RC,0,39.9586186,-88.445067899,0,0.0,0.0,0.0,0.0,0.0,0.0,0.0,0.0,0.0,0.0,0.0,0.0,0.0,1500,1500,0.0,0.0,40.0483188333,-88.2331621667,0.0,0.0,0.0,0.0,0.0,0.0,0.0,0.0,0.0,0.0,0.0,0,0.0,0.0,0.0,0.0,90.0,66.0,90.0,90.01803588870001,113.4456481934,89.3177566528,44.9079971313,14.9614534378,3.1200001239999997,0,2,25,1,128,312
125,1530631242818,3155818, RC,0,39.9586186,-88.445067899,0,0.0,0.0,0.0,0.0,0.0,0.0,0.0,0.0,0.0,0.0,0.0,0.0,0.0,1500,1500,0.0,0.0,40.0483186667,-88.233162,0.0,0.0,0.0,0.0,0.0,0.0,0.0,0.0,0.0,0.0,0.0,0,0.0,0.0,0.0,0.0,90.0,64.0,90.0,90.01803588870001,113.4456481934,89.3177566528,44.9079971313,14.9614534378,3.1200001239999997,0,2,25,1,112,315
126,1530631242869,3155869, RC,0,39.9586186,-88.445067899,0,0.0,0.0,0.0,0.0,0.0,0.0,0.0,0.0,0.0,0.0,0.0,0.0,0.0,1500,1500,0.0,0.0,40.0483186667,-88.233162,0.0,0.0,0.0,0.0,0.0,0.0,0.0,0.0,0.0,0.0,0.0,0,0.0,0.0,0.0,0.0,90.0,64.0,90.0,90.01803588870001,113.8276138306,89.3177566528,44.9079971313,14.9614534378,3.1200001239999997,0,2,25,1,129,317
127,1530631242920,3155920, RC,0,39.9586186,-88.445067899,0,0.0,0.0,0.0,0.0,0.0,0.0,0.0,0.0,0.0,0.0,0.0,0.0,0.0,1500,1500,0.0,0.0,40.0483186667,-88.233162,0.0,0.0,0.0,0.0,0.0,0.0,0.0,0.0,0.0,0.0,0.0,0,0.0,0.0,0.0,0.0,90.0,64.0,90.0,90.01803588870001,115.67381286620001,89.3177566528,44.9079971313,14.9614534378,3.1200001239999997,0,2,25,1,126,320
128,1530631242970,3155970, RC,0,39.9586186,-88.445067899,0,0.0,0.0,0.0,0.0,0.0,0.0,0.0,0.0,0.0,0.0,0.0,0.0,0.0,1500,1500,0.0,0.0,40.0483186667,-88.233162,0.0,0.0,0.0,0.0,0.0,0.0,0.0,0.0,0.0,0.0,0.0,0,0.0,0.0,0.0,0.0,90.0,64.0,90.0,90.01803588870001,115.86479949950001,89.3177566528,44.9079971313,14.9614534378,3.1200001239999997,0,2,25,1,128,322
129,1530631243021,3156021, RC,0,39.9586186,-88.445067899,0,0.0,0.0,0.0,0.0,0.0,0.0,0.0,0.0,0.0,0.0,0.0,0.0,0.0,1500,1500,0.0,0.0,40.0483186667,-88.233162,0.0,0.0,0.0,0.0,0.0,0.0,0.0,0.0,0.0,0.0,0.0,0,0.0,0.0,0.0,0.0,90.0,63.0,90.0,90.01803588870001,115.9284591675,89.3177566528,44.9079971313,14.9614534378,3.1200001239999997,0,2,25,1,125,325
130,1530631243071,3156071, RC,0,39.9586186,-88.445067899,0,0.0,0.0,0.0,0.0,0.0,0.0,0.0,0.0,0.0,0.0,0.0,0.0,0.0,1500,1500,0.0,0.0,40.0483186667,-88.233162,0.0,0.0,0.0,0.0,0.0,0.0,0.0,0.0,0.0,0.0,0.0,0,0.0,0.0,0.0,0.0,90.0,63.0,90.0,90.01803588870001,116.5014190674,89.3177566528,44.9079971313,14.9614534378,3.1200001239999997,0,2,25,1,119,327
131,1530631243122,3156122, RC,0,39.9586186,-88.445067899,0,0.0,0.0,0.0,0.0,0.0,0.0,0.0,0.0,0.0,0.0,0.0,0.0,0.0,1500,1500,0.0,0.0,40.0483186667,-88.233162,0.0,0.0,0.0,0.0,0.0,0.0,0.0,0.0,0.0,0.0,0.0,0,0.0,0.0,0.0,0.0,90.0,63.0,90.0,90.01803588870001,117.0107192993,89.3177566528,44.9079971313,14.9614534378,3.1200001239999997,0,2,25,1,125,330
132,1530631243173,3156173, RC,0,39.9586186,-88.445067899,0,0.0,0.0,0.0,0.0,0.0,0.0,0.0,0.0,0.0,0.0,0.0,0.0,0.0,1500,1500,0.0,0.0,40.0483186667,-88.233162,0.0,0.0,0.0,0.0,0.0,0.0,0.0,0.0,0.0,0.0,0.0,0,0.0,0.0,0.0,0.0,90.0,63.0,90.0,90.01803588870001,117.0107192993,89.3177566528,44.9079971313,14.9614534378,3.1200001239999997,0,2,25,1,120,332
133,1530631243223,3156223, RC,0,39.9586186,-88.445067899,0,0.0,0.0,0.0,0.0,0.0,0.0,0.0,0.0,0.0,0.0,0.0,0.0,0.0,1500,1500,0.0,0.0,40.0483186667,-88.233162,0.0,0.0,0.0,0.0,0.0,0.0,0.0,0.0,0.0,0.0,0.0,0,0.0,0.0,0.0,0.0,90.0,57.0,90.0,90.01803588870001,117.0107192993,89.3177566528,44.9079971313,14.9614534378,3.1200001239999997,0,2,25,1,127,335
134,1530631243274,3156274, RC,0,39.9586186,-88.445067899,0,0.0,0.0,0.0,0.0,0.0,0.0,0.0,0.0,0.0,0.0,0.0,0.0,0.0,1500,1500,0.0,0.0,40.0483186667,-88.233162,0.0,0.0,0.0,0.0,0.0,0.0,0.0,0.0,0.0,0.0,0.0,0,0.0,0.0,0.0,0.0,90.0,57.0,90.0,90.01803588870001,118.2202911377,89.3177566528,44.9079971313,14.9614534378,3.1200001239999997,0,2,25,1,116,337
135,1530631243324,3156324, RC,0,39.9586186,-88.445067899,0,0.0,0.0,0.0,0.0,0.0,0.0,0.0,0.0,0.0,0.0,0.0,0.0,0.0,1500,1500,0.0,0.0,40.0483186667,-88.233162,0.0,0.0,0.0,0.0,0.0,0.0,0.0,0.0,0.0,0.0,0.0,0,0.0,0.0,0.0,0.0,90.0,57.0,90.0,90.01803588870001,122.8039627075,89.3177566528,44.9079971313,14.9614534378,3.1200001239999997,0,2,25,1,122,340
136,1530631243375,3156375, RC,0,39.9586186,-88.445067899,0,0.0,0.0,0.0,0.0,0.0,0.0,0.0,0.0,0.0,0.0,0.0,0.0,0.0,1500,1500,0.0,0.0,40.0483186667,-88.233162,0.0,0.0,0.0,0.0,0.0,0.0,0.0,0.0,0.0,0.0,0.0,0,0.0,0.0,0.0,0.0,90.0,57.0,90.0,90.01803588870001,122.6129760742,89.3177566528,44.9079971313,14.951812744100001,3.1900000572000002,0,2,25,1,120,342
137,1530631243426,3156426, RC,0,39.9586186,-88.445067899,0,0.0,0.0,0.0,0.0,0.0,0.0,0.0,0.0,0.0,0.0,0.0,0.0,0.0,1500,1500,0.0,0.0,40.0483186667,-88.233162,0.0,0.0,0.0,0.0,0.0,0.0,0.0,0.0,0.0,0.0,0.0,0,0.0,0.0,0.0,0.0,90.0,57.0,90.0,90.01803588870001,122.4219894409,89.3177566528,44.9079971313,14.951812744100001,3.1900000572000002,0,2,25,1,112,345
138,1530631243476,3156476, RC,0,39.9586186,-88.445067899,0,0.0,0.0,0.0,0.0,0.0,0.0,0.0,0.0,0.0,0.0,0.0,0.0,0.0,1500,1500,0.0,0.0,40.0483186667,-88.233162,0.0,0.0,0.0,0.0,0.0,0.0,0.0,0.0,0.0,0.0,0.0,0,0.0,0.0,0.0,0.0,90.0,57.0,90.0,90.01803588870001,122.4219894409,89.3177566528,44.9079971313,14.951812744100001,3.1900000572000002,0,2,25,1,129,347
139,1530631243559,3156559, RC,0,39.9586186,-88.445067899,0,0.0,0.0,0.0,0.0,0.0,0.0,0.0,0.0,0.0,0.0,0.0,0.0,0.0,1500,1500,0.0,0.0,40.0483186667,-88.233162,0.0,0.0,0.0,0.0,0.0,0.0,0.0,0.0,0.0,0.0,0.0,0,0.0,0.0,0.0,0.0,90.0,57.0,90.0,90.01803588870001,122.4219894409,89.3177566528,44.3690032959,14.951812744100001,3.1900000572000002,0,2,25,1,124,352
140,1530631243609,3156609, RC,0,39.9586186,-88.445067899,0,0.0,0.0,0.0,0.0,0.0,0.0,0.0,0.0,0.0,0.0,0.0,0.0,0.0,1500,1500,0.0,0.0,40.0483186667,-88.233162,0.0,0.0,0.0,0.0,0.0,0.0,0.0,0.0,0.0,0.0,0.0,0,0.0,0.0,0.0,0.0,90.0,37.0,90.0,90.01803588870001,122.4219894409,89.3177566528,44.3690032959,14.951812744100001,3.1900000572000002,0,2,25,1,127,354
141,1530631243659,3156659, RC,0,39.9586186,-88.445067899,0,0.0,0.0,0.0,0.0,0.0,0.0,0.0,0.0,0.0,0.0,0.0,0.0,0.0,1500,1500,0.0,0.0,40.0483186667,-88.233162,0.0,0.0,0.0,0.0,0.0,0.0,0.0,0.0,0.0,0.0,0.0,0,0.0,0.0,0.0,0.0,90.0,37.0,90.0,90.01803588870001,122.4219894409,89.3177566528,44.3690032959,14.951812744100001,3.1900000572000002,0,2,25,1,122,357
142,1530631243710,3156710, RC,0,39.9586186,-88.445067899,0,0.0,0.0,0.0,0.0,0.0,0.0,0.0,0.0,0.0,0.0,0.0,0.0,0.0,1500,1500,0.0,0.0,40.0483186667,-88.233162,0.0,0.0,0.0,0.0,0.0,0.0,0.0,0.0,0.0,0.0,0.0,0,0.0,0.0,0.0,0.0,90.0,57.0,90.0,90.01803588870001,142.09353637700002,89.3177566528,44.3690032959,14.951812744100001,3.1900000572000002,0,2,25,1,126,359
143,1530631243760,3156760, RC,0,39.9586186,-88.445067899,0,0.0,0.0,0.0,0.0,0.0,0.0,0.0,0.0,0.0,0.0,0.0,0.0,0.0,1500,1500,0.0,0.0,40.0483186667,-88.233162,0.0,0.0,0.0,0.0,0.0,0.0,0.0,0.0,0.0,0.0,0.0,0,0.0,0.0,0.0,0.0,90.0,57.0,90.0,90.01803588870001,146.1679077148,89.3177566528,44.3690032959,14.951812744100001,3.1900000572000002,0,2,25,1,131,362
144,1530631243810,3156810, RC,0,39.9586186,-88.445067899,0,0.0,0.0,0.0,0.0,0.0,0.0,0.0,0.0,0.0,0.0,0.0,0.0,0.0,1500,1500,0.0,0.0,40.0483168333,-88.2331626667,0.0,0.0,0.0,0.0,0.0,0.0,0.0,0.0,0.0,0.0,0.0,0,0.0,0.0,0.0,0.0,90.0,58.0,90.0,90.01803588870001,125.03211975100001,89.3177566528,44.3690032959,14.951812744100001,3.1900000572000002,0,2,25,1,121,364
145,1530631243861,3156861, RC,0,39.9586186,-88.445067899,0,0.0,0.0,0.0,0.0,0.0,0.0,0.0,0.0,0.0,0.0,0.0,0.0,0.0,1500,1500,0.0,0.0,40.0483168333,-88.2331626667,0.0,0.0,0.0,0.0,0.0,0.0,0.0,0.0,0.0,0.0,0.0,0,0.0,0.0,0.0,0.0,90.0,58.0,90.0,90.01803588870001,120.2574768066,89.3177566528,44.3690032959,14.951812744100001,3.1900000572000002,0,2,25,1,128,367
146,1530631243911,3156911, RC,0,39.9586186,-88.445067899,0,0.0,0.0,0.0,0.0,0.0,0.0,0.0,0.0,0.0,0.0,0.0,0.0,0.0,1500,1500,0.0,0.0,40.0483168333,-88.2331626667,0.0,0.0,0.0,0.0,0.0,0.0,0.0,0.0,0.0,0.0,0.0,0,0.0,0.0,0.0,0.0,90.0,60.0,90.0,90.01803588870001,124.5228347778,89.3177566528,44.3690032959,14.951812744100001,3.1900000572000002,0,2,25,1,121,369
147,1530631243962,3156962, RC,0,39.9586186,-88.445067899,0,0.0,0.0,0.0,0.0,0.0,0.0,0.0,0.0,0.0,0.0,0.0,0.0,0.0,1500,1500,0.0,0.0,40.0483168333,-88.2331626667,0.0,0.0,0.0,0.0,0.0,0.0,0.0,0.0,0.0,0.0,0.0,0,0.0,0.0,0.0,0.0,90.0,60.0,90.0,90.01803588870001,121.976348877,89.3177566528,44.3690032959,14.951812744100001,3.1900000572000002,0,2,25,1,117,372
148,1530631244012,3157012, RC,0,39.9586186,-88.445067899,0,0.0,0.0,0.0,0.0,0.0,0.0,0.0,0.0,0.0,0.0,0.0,0.0,0.0,1500,1500,0.0,0.0,40.0483168333,-88.2331626667,0.0,0.0,0.0,0.0,0.0,0.0,0.0,0.0,0.0,0.0,0.0,0,0.0,0.0,0.0,0.0,90.0,63.0,90.0,90.01803588870001,121.3397293091,89.3177566528,44.3690032959,14.951812744100001,3.1900000572000002,0,2,25,1,122,374
149,1530631244063,3157063, RC,0,39.9586186,-88.445067899,0,0.0,0.0,0.0,0.0,0.0,0.0,0.0,0.0,0.0,0.0,0.0,0.0,0.0,1500,1500,0.0,0.0,40.0483168333,-88.2331626667,0.0,0.0,0.0,0.0,0.0,0.0,0.0,0.0,0.0,0.0,0.0,0,0.0,0.0,0.0,0.0,90.0,63.0,90.0,90.01803588870001,120.13014221190001,89.3177566528,44.3690032959,14.951812744100001,3.1900000572000002,0,2,25,1,131,377
150,1530631244113,3157113, RC,0,39.9586186,-88.445067899,0,0.0,0.0,0.0,0.0,0.0,0.0,0.0,0.0,0.0,0.0,0.0,0.0,0.0,1500,1500,0.0,0.0,40.0483168333,-88.2331626667,0.0,0.0,0.0,0.0,0.0,0.0,0.0,0.0,0.0,0.0,0.0,0,0.0,0.0,0.0,0.0,90.0,63.0,90.0,90.01803588870001,116.81973266600001,89.3177566528,44.3690032959,14.951812744100001,3.1900000572000002,0,2,25,1,123,379
151,1530631244164,3157164, RC,0,39.9586186,-88.445067899,0,0.0,0.0,0.0,0.0,0.0,0.0,0.0,0.0,0.0,0.0,0.0,0.0,0.0,1500,1500,0.0,0.0,40.0483168333,-88.2331626667,0.0,0.0,0.0,0.0,0.0,0.0,0.0,0.0,0.0,0.0,0.0,0,0.0,0.0,0.0,0.0,90.0,63.0,90.0,90.01803588870001,115.86479949950001,89.3177566528,44.3690032959,14.951812744100001,3.1900000572000002,0,2,25,1,119,382
152,1530631244214,3157214, RC,0,39.9586186,-88.445067899,0,0.0,0.0,0.0,0.0,0.0,0.0,0.0,0.0,0.0,0.0,0.0,0.0,0.0,1500,1500,0.0,0.0,40.0483168333,-88.2331626667,0.0,0.0,0.0,0.0,0.0,0.0,0.0,0.0,0.0,0.0,0.0,0,0.0,0.0,0.0,0.0,90.0,63.0,90.0,90.01803588870001,116.3740844727,89.3177566528,44.3690032959,14.951812744100001,3.1900000572000002,0,2,25,1,109,384
153,1530631244265,3157265, RC,0,39.9586186,-88.445067899,0,0.0,0.0,0.0,0.0,0.0,0.0,0.0,0.0,0.0,0.0,0.0,0.0,0.0,1500,1500,0.0,0.0,40.0483168333,-88.2331626667,0.0,0.0,0.0,0.0,0.0,0.0,0.0,0.0,0.0,0.0,0.0,0,0.0,0.0,0.0,0.0,90.0,63.0,90.0,90.01803588870001,116.88338470459999,89.3177566528,44.3690032959,14.951812744100001,3.1900000572000002,0,2,25,1,126,387
154,1530631244315,3157315, RC,0,39.9586186,-88.445067899,0,0.0,0.0,0.0,0.0,0.0,0.0,0.0,0.0,0.0,0.0,0.0,0.0,0.0,1500,1500,0.0,0.0,40.0483168333,-88.2331626667,0.0,0.0,0.0,0.0,0.0,0.0,0.0,0.0,0.0,0.0,0.0,0,0.0,0.0,0.0,0.0,90.0,63.0,90.0,90.01803588870001,116.9470443726,89.3177566528,44.3690032959,14.951812744100001,3.1900000572000002,0,2,25,1,120,389
155,1530631244366,3157366, RC,0,39.9586186,-88.445067899,0,0.0,0.0,0.0,0.0,0.0,0.0,0.0,0.0,0.0,0.0,0.0,0.0,0.0,1500,1500,0.0,0.0,40.0483168333,-88.2331626667,0.0,0.0,0.0,0.0,0.0,0.0,0.0,0.0,0.0,0.0,0.0,0,0.0,0.0,0.0,0.0,90.0,63.0,90.0,90.01803588870001,116.9470443726,89.3177566528,44.3690032959,14.9472379684,2.7899999619,0,2,25,1,126,392
156,1530631244417,3157417, RC,0,39.9586186,-88.445067899,0,0.0,0.0,0.0,0.0,0.0,0.0,0.0,0.0,0.0,0.0,0.0,0.0,0.0,1500,1500,0.0,0.0,40.0483168333,-88.2331626667,0.0,0.0,0.0,0.0,0.0,0.0,0.0,0.0,0.0,0.0,0.0,0,0.0,0.0,0.0,0.0,90.0,63.0,90.0,90.01803588870001,116.9470443726,89.3177566528,44.3690032959,14.9472379684,2.7899999619,0,2,25,1,121,394
157,1530631244467,3157467, RC,0,39.9586186,-88.445067899,0,0.0,0.0,0.0,0.0,0.0,0.0,0.0,0.0,0.0,0.0,0.0,0.0,0.0,1500,1500,0.0,0.0,40.0483168333,-88.2331626667,0.0,0.0,0.0,0.0,0.0,0.0,0.0,0.0,0.0,0.0,0.0,0,0.0,0.0,0.0,0.0,90.0,63.0,90.0,90.01803588870001,116.88338470459999,89.3177566528,44.3690032959,14.9472379684,2.7899999619,0,2,25,1,123,397
158,1530631244518,3157518, RC,0,39.9586186,-88.445067899,0,0.0,0.0,0.0,0.0,0.0,0.0,0.0,0.0,0.0,0.0,0.0,0.0,0.0,1500,1500,0.0,0.0,40.0483168333,-88.2331626667,0.0,0.0,0.0,0.0,0.0,0.0,0.0,0.0,0.0,0.0,0.0,0,0.0,0.0,0.0,0.0,90.0,63.0,90.0,90.01803588870001,116.88338470459999,89.3177566528,44.3690032959,14.9472379684,2.7899999619,0,2,25,1,129,399
159,1530631244568,3157568, RC,0,39.9586186,-88.445067899,0,0.0,0.0,0.0,0.0,0.0,0.0,0.0,0.0,0.0,0.0,0.0,0.0,0.0,1500,1500,0.0,0.0,40.0483168333,-88.2331626667,0.0,0.0,0.0,0.0,0.0,0.0,0.0,0.0,0.0,0.0,0.0,0,0.0,0.0,0.0,0.0,90.0,63.0,90.0,90.01803588870001,116.88338470459999,89.3177566528,44.3690032959,14.9472379684,2.7899999619,0,2,25,1,111,402
160,1530631244619,3157619, RC,0,39.9586186,-88.445067899,0,0.0,0.0,0.0,0.0,0.0,0.0,0.0,0.0,0.0,0.0,0.0,0.0,0.0,1500,1500,0.0,0.0,40.0483168333,-88.2331626667,0.0,0.0,0.0,0.0,0.0,0.0,0.0,0.0,0.0,0.0,0.0,0,0.0,0.0,0.0,0.0,90.0,63.0,90.0,90.01803588870001,116.88338470459999,89.3177566528,44.3690032959,14.9472379684,2.7899999619,0,2,25,1,132,404
161,1530631244670,3157670, RC,0,39.9586186,-88.445067899,0,0.0,0.0,0.0,0.0,0.0,0.0,0.0,0.0,0.0,0.0,0.0,0.0,0.0,1500,1500,0.0,0.0,40.0483168333,-88.2331626667,0.0,0.0,0.0,0.0,0.0,0.0,0.0,0.0,0.0,0.0,0.0,0,0.0,0.0,0.0,0.0,90.0,63.0,90.0,90.01803588870001,116.88338470459999,89.3177566528,44.3690032959,14.9472379684,2.7899999619,0,2,25,1,132,407
162,1530631244720,3157720, RC,0,39.9586186,-88.445067899,0,0.0,0.0,0.0,0.0,0.0,0.0,0.0,0.0,0.0,0.0,0.0,0.0,0.0,1500,1500,0.0,0.0,40.0483168333,-88.2331626667,0.0,0.0,0.0,0.0,0.0,0.0,0.0,0.0,0.0,0.0,0.0,0,0.0,0.0,0.0,0.0,90.0,63.0,90.0,90.01803588870001,116.88338470459999,89.3177566528,44.3690032959,14.9472379684,2.7899999619,0,2,25,1,132,409
163,1530631244771,3157771, RC,0,39.9586186,-88.445067899,0,0.0,0.0,0.0,0.0,0.0,0.0,0.0,0.0,0.0,0.0,0.0,0.0,0.0,1500,1500,0.0,0.0,40.0483168333,-88.2331626667,0.0,0.0,0.0,0.0,0.0,0.0,0.0,0.0,0.0,0.0,0.0,0,0.0,0.0,0.0,0.0,90.0,63.0,90.0,90.01803588870001,116.88338470459999,89.3177566528,44.3690032959,14.9472379684,2.7899999619,0,2,25,1,120,412
164,1530631244821,3157821, RC,0,39.9586186,-88.445067899,0,0.0,0.0,0.0,0.0,0.0,0.0,0.0,0.0,0.0,0.0,0.0,0.0,0.0,1500,1500,0.0,0.0,40.048317,-88.2331616667,0.0,0.0,0.0,0.0,0.0,0.0,0.0,0.0,0.0,0.0,0.0,0,0.0,0.0,0.0,0.0,90.0,63.0,90.0,90.01803588870001,116.88338470459999,89.3177566528,44.3690032959,14.9472379684,2.7899999619,0,2,25,1,128,414
165,1530631244872,3157872, RC,0,39.9586186,-88.445067899,0,0.0,0.0,0.0,0.0,0.0,0.0,0.0,0.0,0.0,0.0,0.0,0.0,0.0,1500,1500,0.0,0.0,40.048317,-88.2331616667,0.0,0.0,0.0,0.0,0.0,0.0,0.0,0.0,0.0,0.0,0.0,0,0.0,0.0,0.0,0.0,90.0,63.0,90.0,90.01803588870001,116.88338470459999,89.3177566528,44.3690032959,14.9472379684,2.7899999619,0,2,25,1,121,417
166,1530631244922,3157922, RC,0,39.9586186,-88.445067899,0,0.0,0.0,0.0,0.0,0.0,0.0,0.0,0.0,0.0,0.0,0.0,0.0,0.0,1500,1500,0.0,0.0,40.048317,-88.2331616667,0.0,0.0,0.0,0.0,0.0,0.0,0.0,0.0,0.0,0.0,0.0,0,0.0,0.0,0.0,0.0,90.0,60.0,90.0,90.01803588870001,116.88338470459999,89.3177566528,44.3690032959,14.9472379684,2.7899999619,0,2,25,1,130,419
167,1530631244973,3157973, RC,0,39.9586186,-88.445067899,0,0.0,0.0,0.0,0.0,0.0,0.0,0.0,0.0,0.0,0.0,0.0,0.0,0.0,1500,1500,0.0,0.0,40.048317,-88.2331616667,0.0,0.0,0.0,0.0,0.0,0.0,0.0,0.0,0.0,0.0,0.0,0,0.0,0.0,0.0,0.0,90.0,60.0,90.0,90.01803588870001,117.6473312378,89.3177566528,44.3690032959,14.9472379684,2.7899999619,0,2,25,1,110,422
