,(0)linux time (ms),    (1)uptime  (ms),      (2)drive mode,(3)mpc step counter,(4)mpc origin latitude  (deg),(5)mpc origin longitude  (deg),(6)closest trajectory point index to robot,(7)mpc error x (W;E)  (m),(8)mpc error y (W;E)  (m),(9)abs mpc error (m),(10)input [x] for mhe (m),(11)input [y] for mhe (m),(12)input [speed] for mhe (m/s),(13)input [vyaw] for mhe (rad/s),(14)mhe output x  (m),(15)mhe output y  (m),(16)mhe output speed  (m/s),(17)mhe output yaw  (rad),(18)mpc reference heading (rad),(19)mpc turn rate command (rad/s),(20)turn rate command as PWM,(21)throttle command as PWM,(22)primary gps latitude (deg),(23)primary gps longitude (deg),(24)secondary gps latitude  (deg),(25)secondary gps longitude (deg),(26)accelerometer x (m/s^2),(27)accelerometer y (m/s^2),(28)accelerometer z (m/s^2),(29)gyro yaw rate (rad/s),(30)gyro pitch rate   (rad/s),(31)gyro roll rate (rad/s),      (32)yaw (rad),  (33)pitch   (rad),     (34)roll (rad),(35)sonar1 measurement (m),(36)ultrasonic sensor measurement (m),(37)primary gps time (s),(38)normalized turn rate command,(39)normalized throttle command,(40)speed calculation from encoder left (m/s),(41)speed calculation from encoder right (m/s),(42)front gimbal target angle (degrees from straight down),(43)left gimbal target angle  (degrees from straight down),(44)right gimbal target angle  (degrees from straight down),(45)front gimbal measured angle  (degrees from straight down),(46)left gimbal measured angle    (degrees from straight down),(47)right gimbal measured angle  (degrees from straight down),(48)internal temperature (C),(49)battery voltage (V),(50)primary gps type,(51)secondary gps type,    (52)MPC R value, (53)MPC Q[0] value,Unnamed: 54,weed_num,start
0,1530629349232,1262232, RC,0,39.9586186,-88.445067899,0,0.0,0.0,0.0,0.0,0.0,0.0,0.0,0.0,0.0,0.0,0.0,0.0,0.0,1500,1500,0.0,0.0,40.0482781667,-88.232773,0.0,0.0,0.0,0.0,0.0,0.0,0.0,0.0,0.0,0.0,0.0,0,0.0,0.0,0.0,0.0,90.0,90.0,90.0,89.3814163208,91.8642349243,89.3177566528,31.4580001831,15.5044708252,1.7999999522999999,0,2,25,1,62,4
1,1530629349283,1262283, RC,0,39.9586186,-88.445067899,0,0.0,0.0,0.0,0.0,0.0,0.0,0.0,0.0,0.0,0.0,0.0,0.0,0.0,1500,1500,0.0,0.0,40.0482781667,-88.232773,0.0,0.0,0.0,0.0,0.0,0.0,0.0,0.0,0.0,0.0,0.0,0,0.0,0.0,0.0,0.0,90.0,90.0,90.0,89.3814163208,89.5724029541,89.1904296875,31.4580001831,15.5044708252,1.7999999522999999,0,2,25,1,73,7
2,1530629349333,1262333, RC,0,39.9586186,-88.445067899,0,0.0,0.0,0.0,0.0,0.0,0.0,0.0,0.0,0.0,0.0,0.0,0.0,0.0,1500,1500,0.0,0.0,40.0482781667,-88.232773,0.0,0.0,0.0,0.0,0.0,0.0,0.0,0.0,0.0,0.0,0.0,0,0.0,0.0,0.0,0.0,90.0,90.0,90.0,89.3814163208,87.5352172852,89.12677001950001,31.4580001831,15.5044708252,1.7999999522999999,0,2,25,1,74,9
3,1530629349383,1262383, RC,0,39.9586186,-88.445067899,0,0.0,0.0,0.0,0.0,0.0,0.0,0.0,0.0,0.0,0.0,0.0,0.0,0.0,1500,1500,0.0,0.0,40.0482781667,-88.232773,0.0,0.0,0.0,0.0,0.0,0.0,0.0,0.0,0.0,0.0,0.0,0,0.0,0.0,0.0,0.0,90.0,90.0,90.0,89.3814163208,89.3814163208,89.0631027222,31.4580001831,15.5044708252,1.7999999522999999,0,2,25,1,76,11
4,1530629349434,1262434, RC,0,39.9586186,-88.445067899,0,0.0,0.0,0.0,0.0,0.0,0.0,0.0,0.0,0.0,0.0,0.0,0.0,0.0,1500,1500,0.0,0.0,40.0482781667,-88.232773,0.0,0.0,0.0,0.0,0.0,0.0,0.0,0.0,0.0,0.0,0.0,0,0.0,0.0,0.0,0.0,90.0,90.0,90.0,89.3814163208,89.3814163208,88.9994430542,31.4580001831,15.5044708252,1.7999999522999999,0,2,25,1,79,13
5,1530629349484,1262484, RC,0,39.9586186,-88.445067899,0,0.0,0.0,0.0,0.0,0.0,0.0,0.0,0.0,0.0,0.0,0.0,0.0,0.0,1500,1500,0.0,0.0,40.0482781667,-88.232773,0.0,0.0,0.0,0.0,0.0,0.0,0.0,0.0,0.0,0.0,0.0,0,0.0,0.0,0.0,0.0,90.0,90.0,90.0,89.3814163208,89.3814163208,88.9994430542,31.4580001831,15.5044708252,1.7999999522999999,0,2,25,1,84,16
6,1530629349534,1262534, RC,0,39.9586186,-88.445067899,0,0.0,0.0,0.0,0.0,0.0,0.0,0.0,0.0,0.0,0.0,0.0,0.0,0.0,1500,1500,0.0,0.0,40.0482781667,-88.232773,0.0,0.0,0.0,0.0,0.0,0.0,0.0,0.0,0.0,0.0,0.0,0,0.0,0.0,0.0,0.0,90.0,90.0,90.0,89.3814163208,89.3814163208,88.9994430542,31.4580001831,15.5044708252,1.7999999522999999,0,2,25,1,96,18
7,1530629349585,1262585, RC,0,39.9586186,-88.445067899,0,0.0,0.0,0.0,0.0,0.0,0.0,0.0,0.0,0.0,0.0,0.0,0.0,0.0,1500,1500,0.0,0.0,40.0482781667,-88.232773,0.0,0.0,0.0,0.0,0.0,0.0,0.0,0.0,0.0,0.0,0.0,0,0.0,0.0,0.0,0.0,90.0,90.0,90.0,89.3814163208,89.3814163208,88.9994430542,31.4580001831,15.5044708252,1.7999999522999999,0,2,25,1,124,20
8,1530629349635,1262635, RC,0,39.9586186,-88.445067899,0,0.0,0.0,0.0,0.0,0.0,0.0,0.0,0.0,0.0,0.0,0.0,0.0,0.0,1500,1500,0.0,0.0,40.0482781667,-88.232773,0.0,0.0,0.0,0.0,0.0,0.0,0.0,0.0,0.0,0.0,0.0,0,0.0,0.0,0.0,0.0,90.0,90.0,90.0,89.3814163208,89.44507598879999,88.93578338620001,31.4580001831,15.5044708252,1.7999999522999999,0,2,25,1,153,22
9,1530629349685,1262685, RC,0,39.9586186,-88.445067899,0,0.0,0.0,0.0,0.0,0.0,0.0,0.0,0.0,0.0,0.0,0.0,0.0,0.0,1500,1500,0.0,0.0,40.0482781667,-88.232773,0.0,0.0,0.0,0.0,0.0,0.0,0.0,0.0,0.0,0.0,0.0,0,0.0,0.0,0.0,0.0,90.0,90.0,90.0,89.3814163208,89.44507598879999,88.93578338620001,31.4580001831,15.5044708252,1.7999999522999999,0,2,25,1,194,25
10,1530629349736,1262736, RC,0,39.9586186,-88.445067899,0,0.0,0.0,0.0,0.0,0.0,0.0,0.0,0.0,0.0,0.0,0.0,0.0,0.0,1500,1500,0.0,0.0,40.0482781667,-88.232773,0.0,0.0,0.0,0.0,0.0,0.0,0.0,0.0,0.0,0.0,0.0,0,0.0,0.0,0.0,0.0,90.0,90.0,90.0,89.3814163208,89.44507598879999,88.93578338620001,31.4580001831,15.5044708252,1.7999999522999999,0,2,25,1,192,27
11,1530629349786,1262786, RC,0,39.9586186,-88.445067899,0,0.0,0.0,0.0,0.0,0.0,0.0,0.0,0.0,0.0,0.0,0.0,0.0,0.0,1500,1500,0.0,0.0,40.0482781667,-88.232773,0.0,0.0,0.0,0.0,0.0,0.0,0.0,0.0,0.0,0.0,0.0,0,0.0,0.0,0.0,0.0,90.0,90.0,90.0,89.3814163208,89.44507598879999,88.93578338620001,31.4580001831,15.5044708252,1.7999999522999999,0,2,25,1,229,29
12,1530629349836,1262836, RC,0,39.9586186,-88.445067899,0,0.0,0.0,0.0,0.0,0.0,0.0,0.0,0.0,0.0,0.0,0.0,0.0,0.0,1500,1500,0.0,0.0,40.0482803333,-88.2327736667,0.0,0.0,0.0,0.0,0.0,0.0,0.0,0.0,0.0,0.0,0.0,0,0.0,0.0,0.0,0.0,90.0,90.0,90.0,89.3814163208,89.44507598879999,88.93578338620001,31.4580001831,15.4998264313,3.2799999713999997,0,2,25,1,228,31
13,1530629349887,1262887, RC,0,39.9586186,-88.445067899,0,0.0,0.0,0.0,0.0,0.0,0.0,0.0,0.0,0.0,0.0,0.0,0.0,0.0,1500,1500,0.0,0.0,40.0482803333,-88.2327736667,0.0,0.0,0.0,0.0,0.0,0.0,0.0,0.0,0.0,0.0,0.0,0,0.0,0.0,0.0,0.0,90.0,90.0,90.0,89.3814163208,89.44507598879999,88.93578338620001,31.4580001831,15.4998264313,3.2799999713999997,0,2,25,1,211,33
14,1530629349937,1262937, RC,0,39.9586186,-88.445067899,0,0.0,0.0,0.0,0.0,0.0,0.0,0.0,0.0,0.0,0.0,0.0,0.0,0.0,1500,1500,0.0,0.0,40.0482803333,-88.2327736667,0.0,0.0,0.0,0.0,0.0,0.0,0.0,0.0,0.0,0.0,0.0,0,0.0,0.0,0.0,0.0,90.0,90.0,90.0,89.3814163208,89.44507598879999,88.93578338620001,31.4580001831,15.4998264313,3.2799999713999997,0,2,25,1,199,36
15,1530629349987,1262987, RC,0,39.9586186,-88.445067899,0,0.0,0.0,0.0,0.0,0.0,0.0,0.0,0.0,0.0,0.0,0.0,0.0,0.0,1500,1500,0.0,0.0,40.0482803333,-88.2327736667,0.0,0.0,0.0,0.0,0.0,0.0,0.0,0.0,0.0,0.0,0.0,0,0.0,0.0,0.0,0.0,90.0,90.0,90.0,89.3814163208,89.44507598879999,88.93578338620001,31.4580001831,15.4998264313,3.2799999713999997,0,2,25,1,205,38
16,1530629350038,1263038, RC,0,39.9586186,-88.445067899,0,0.0,0.0,0.0,0.0,0.0,0.0,0.0,0.0,0.0,0.0,0.0,0.0,0.0,1500,1500,0.0,0.0,40.0482803333,-88.2327736667,0.0,0.0,0.0,0.0,0.0,0.0,0.0,0.0,0.0,0.0,0.0,0,0.0,0.0,0.0,0.0,90.0,90.0,90.0,89.3814163208,89.44507598879999,88.93578338620001,31.4580001831,15.4998264313,3.2799999713999997,0,2,25,1,203,40
17,1530629350088,1263088, RC,0,39.9586186,-88.445067899,0,0.0,0.0,0.0,0.0,0.0,0.0,0.0,0.0,0.0,0.0,0.0,0.0,0.0,1500,1500,0.0,0.0,40.0482803333,-88.2327736667,0.0,0.0,0.0,0.0,0.0,0.0,0.0,0.0,0.0,0.0,0.0,0,0.0,0.0,0.0,0.0,90.0,90.0,90.0,89.3814163208,89.44507598879999,88.93578338620001,31.4580001831,15.4998264313,3.2799999713999997,0,2,25,1,220,42
18,1530629350138,1263138, RC,0,39.9586186,-88.445067899,0,0.0,0.0,0.0,0.0,0.0,0.0,0.0,0.0,0.0,0.0,0.0,0.0,0.0,1500,1500,0.0,0.0,40.0482803333,-88.2327736667,0.0,0.0,0.0,0.0,0.0,0.0,0.0,0.0,0.0,0.0,0.0,0,0.0,0.0,0.0,0.0,90.0,90.0,90.0,89.3814163208,89.44507598879999,88.93578338620001,31.4580001831,15.4998264313,3.2799999713999997,0,2,25,1,225,45
19,1530629350189,1263189, RC,0,39.9586186,-88.445067899,0,0.0,0.0,0.0,0.0,0.0,0.0,0.0,0.0,0.0,0.0,0.0,0.0,0.0,1500,1500,0.0,0.0,40.0482803333,-88.2327736667,0.0,0.0,0.0,0.0,0.0,0.0,0.0,0.0,0.0,0.0,0.0,0,0.0,0.0,0.0,0.0,90.0,90.0,85.0,89.3814163208,89.44507598879999,88.93578338620001,31.4580001831,15.4998264313,3.2799999713999997,0,2,25,1,234,47
20,1530629350239,1263239, RC,0,39.9586186,-88.445067899,0,0.0,0.0,0.0,0.0,0.0,0.0,0.0,0.0,0.0,0.0,0.0,0.0,0.0,1500,1500,0.0,0.0,40.0482803333,-88.2327736667,0.0,0.0,0.0,0.0,0.0,0.0,0.0,0.0,0.0,0.0,0.0,0,0.0,0.0,0.0,0.0,90.0,90.0,85.0,89.3814163208,89.44507598879999,88.93578338620001,31.4580001831,15.4998264313,3.2799999713999997,0,2,25,1,229,49
21,1530629350289,1263289, RC,0,39.9586186,-88.445067899,0,0.0,0.0,0.0,0.0,0.0,0.0,0.0,0.0,0.0,0.0,0.0,0.0,0.0,1500,1500,0.0,0.0,40.0482803333,-88.2327736667,0.0,0.0,0.0,0.0,0.0,0.0,0.0,0.0,0.0,0.0,0.0,0,0.0,0.0,0.0,0.0,90.0,90.0,85.0,89.3814163208,89.44507598879999,90.3363494873,31.4580001831,15.4998264313,3.2799999713999997,0,2,25,1,236,52
22,1530629350340,1263340, RC,0,39.9586186,-88.445067899,0,0.0,0.0,0.0,0.0,0.0,0.0,0.0,0.0,0.0,0.0,0.0,0.0,0.0,1500,1500,0.0,0.0,40.0482803333,-88.2327736667,0.0,0.0,0.0,0.0,0.0,0.0,0.0,0.0,0.0,0.0,0.0,0,0.0,0.0,0.0,0.0,90.0,90.0,85.0,89.3814163208,89.44507598879999,93.8377532959,31.4580001831,15.4998264313,3.2799999713999997,0,2,25,1,202,54
23,1530629350390,1263390, RC,0,39.9586186,-88.445067899,0,0.0,0.0,0.0,0.0,0.0,0.0,0.0,0.0,0.0,0.0,0.0,0.0,0.0,1500,1500,0.0,0.0,40.0482803333,-88.2327736667,0.0,0.0,0.0,0.0,0.0,0.0,0.0,0.0,0.0,0.0,0.0,0,0.0,0.0,0.0,0.0,90.0,90.0,75.0,89.3814163208,89.25408935549999,94.4107131958,31.4580001831,15.4998264313,3.2799999713999997,0,2,25,1,158,56
24,1530629350440,1263440, RC,0,39.9586186,-88.445067899,0,0.0,0.0,0.0,0.0,0.0,0.0,0.0,0.0,0.0,0.0,0.0,0.0,0.0,1500,1500,0.0,0.0,40.0482803333,-88.2327736667,0.0,0.0,0.0,0.0,0.0,0.0,0.0,0.0,0.0,0.0,0.0,0,0.0,0.0,0.0,0.0,90.0,90.0,75.0,89.3814163208,89.0631027222,96.51155853270001,31.4580001831,15.4998264313,3.2799999713999997,0,2,25,1,153,58
25,1530629350493,1263493, RC,0,39.9586186,-88.445067899,0,0.0,0.0,0.0,0.0,0.0,0.0,0.0,0.0,0.0,0.0,0.0,0.0,0.0,1500,1500,0.0,0.0,40.0482803333,-88.2327736667,0.0,0.0,0.0,0.0,0.0,0.0,0.0,0.0,0.0,0.0,0.0,0,0.0,0.0,0.0,0.0,90.0,90.0,75.0,89.3177566528,89.0631027222,105.233253479,31.995998382600003,15.4998264313,3.2799999713999997,0,2,25,1,108,61
26,1530629350543,1263543, RC,0,39.9586186,-88.445067899,0,0.0,0.0,0.0,0.0,0.0,0.0,0.0,0.0,0.0,0.0,0.0,0.0,0.0,1500,1500,0.0,0.0,40.0482803333,-88.2327736667,0.0,0.0,0.0,0.0,0.0,0.0,0.0,0.0,0.0,0.0,0.0,0,0.0,0.0,0.0,0.0,90.0,90.0,75.0,89.3814163208,89.0631027222,105.42423248290001,31.995998382600003,15.4998264313,3.2799999713999997,0,2,25,1,110,63
27,1530629350594,1263594, RC,0,39.9586186,-88.445067899,0,0.0,0.0,0.0,0.0,0.0,0.0,0.0,0.0,0.0,0.0,0.0,0.0,0.0,1500,1500,0.0,0.0,40.0482803333,-88.2327736667,0.0,0.0,0.0,0.0,0.0,0.0,0.0,0.0,0.0,0.0,0.0,0,0.0,0.0,0.0,0.0,90.0,90.0,69.0,89.3177566528,89.0631027222,105.3605728149,31.995998382600003,15.4998264313,3.2799999713999997,0,2,25,1,104,65
28,1530629350644,1263644, RC,0,39.9586186,-88.445067899,0,0.0,0.0,0.0,0.0,0.0,0.0,0.0,0.0,0.0,0.0,0.0,0.0,0.0,1500,1500,0.0,0.0,40.0482803333,-88.2327736667,0.0,0.0,0.0,0.0,0.0,0.0,0.0,0.0,0.0,0.0,0.0,0,0.0,0.0,0.0,0.0,90.0,90.0,69.0,89.3814163208,89.0631027222,105.3605728149,31.995998382600003,15.4998264313,3.2799999713999997,0,2,25,1,77,67
29,1530629350694,1263694, RC,0,39.9586186,-88.445067899,0,0.0,0.0,0.0,0.0,0.0,0.0,0.0,0.0,0.0,0.0,0.0,0.0,0.0,1500,1500,0.0,0.0,40.0482803333,-88.2327736667,0.0,0.0,0.0,0.0,0.0,0.0,0.0,0.0,0.0,0.0,0.0,0,0.0,0.0,0.0,0.0,90.0,90.0,69.0,89.3177566528,89.0631027222,108.5436706543,31.995998382600003,15.4998264313,3.2799999713999997,0,2,25,1,78,69
30,1530629350745,1263745, RC,0,39.9586186,-88.445067899,0,0.0,0.0,0.0,0.0,0.0,0.0,0.0,0.0,0.0,0.0,0.0,0.0,0.0,1500,1500,0.0,0.0,40.0482803333,-88.2327736667,0.0,0.0,0.0,0.0,0.0,0.0,0.0,0.0,0.0,0.0,0.0,0,0.0,0.0,0.0,0.0,90.0,90.0,69.0,89.3177566528,89.0631027222,111.21747589110001,31.995998382600003,15.4998264313,3.2799999713999997,0,2,25,1,68,72
31,1530629350795,1263795, RC,0,39.9586186,-88.445067899,0,0.0,0.0,0.0,0.0,0.0,0.0,0.0,0.0,0.0,0.0,0.0,0.0,0.0,1500,1500,0.0,0.0,40.0482803333,-88.2327736667,0.0,0.0,0.0,0.0,0.0,0.0,0.0,0.0,0.0,0.0,0.0,0,0.0,0.0,0.0,0.0,90.0,90.0,67.0,89.3177566528,89.0631027222,111.3448028564,31.995998382600003,15.495193481400001,3.4000000954000003,0,2,25,1,66,74
32,1530629350845,1263845, RC,0,39.9586186,-88.445067899,0,0.0,0.0,0.0,0.0,0.0,0.0,0.0,0.0,0.0,0.0,0.0,0.0,0.0,1500,1500,0.0,0.0,40.0482823333,-88.2327736667,0.0,0.0,0.0,0.0,0.0,0.0,0.0,0.0,0.0,0.0,0.0,0,0.0,0.0,0.0,0.0,90.0,90.0,67.0,89.3177566528,89.0631027222,111.2811355591,31.995998382600003,15.495193481400001,3.4000000954000003,0,2,25,1,73,76
33,1530629350896,1263896, RC,0,39.9586186,-88.445067899,0,0.0,0.0,0.0,0.0,0.0,0.0,0.0,0.0,0.0,0.0,0.0,0.0,0.0,1500,1500,0.0,0.0,40.0482823333,-88.2327736667,0.0,0.0,0.0,0.0,0.0,0.0,0.0,0.0,0.0,0.0,0.0,0,0.0,0.0,0.0,0.0,90.0,90.0,67.0,89.3177566528,89.0631027222,111.2811355591,31.995998382600003,15.495193481400001,3.4000000954000003,0,2,25,1,75,78
34,1530629350946,1263946, RC,0,39.9586186,-88.445067899,0,0.0,0.0,0.0,0.0,0.0,0.0,0.0,0.0,0.0,0.0,0.0,0.0,0.0,1500,1500,0.0,0.0,40.0482823333,-88.2327736667,0.0,0.0,0.0,0.0,0.0,0.0,0.0,0.0,0.0,0.0,0.0,0,0.0,0.0,0.0,0.0,90.0,90.0,67.0,89.3177566528,89.0631027222,111.9814147949,31.995998382600003,15.495193481400001,3.4000000954000003,0,2,25,1,64,80
35,1530629350996,1263996, RC,0,39.9586186,-88.445067899,0,0.0,0.0,0.0,0.0,0.0,0.0,0.0,0.0,0.0,0.0,0.0,0.0,0.0,1500,1500,0.0,0.0,40.0482823333,-88.2327736667,0.0,0.0,0.0,0.0,0.0,0.0,0.0,0.0,0.0,0.0,0.0,0,0.0,0.0,0.0,0.0,90.0,90.0,67.0,89.3177566528,89.0631027222,112.1087417603,31.995998382600003,15.495193481400001,3.4000000954000003,0,2,25,1,70,83
36,1530629351047,1264047, RC,0,39.9586186,-88.445067899,0,0.0,0.0,0.0,0.0,0.0,0.0,0.0,0.0,0.0,0.0,0.0,0.0,0.0,1500,1500,0.0,0.0,40.0482823333,-88.2327736667,0.0,0.0,0.0,0.0,0.0,0.0,0.0,0.0,0.0,0.0,0.0,0,0.0,0.0,0.0,0.0,90.0,90.0,67.0,89.3177566528,89.0631027222,112.17240142819999,31.995998382600003,15.495193481400001,3.4000000954000003,0,2,25,1,70,85
37,1530629351097,1264097, RC,0,39.9586186,-88.445067899,0,0.0,0.0,0.0,0.0,0.0,0.0,0.0,0.0,0.0,0.0,0.0,0.0,0.0,1500,1500,0.0,0.0,40.0482823333,-88.2327736667,0.0,0.0,0.0,0.0,0.0,0.0,0.0,0.0,0.0,0.0,0.0,0,0.0,0.0,0.0,0.0,90.0,90.0,64.0,89.3177566528,89.12677001950001,112.17240142819999,31.995998382600003,15.495193481400001,3.4000000954000003,0,2,25,1,80,87
38,1530629351147,1264147, RC,0,39.9586186,-88.445067899,0,0.0,0.0,0.0,0.0,0.0,0.0,0.0,0.0,0.0,0.0,0.0,0.0,0.0,1500,1500,0.0,0.0,40.0482823333,-88.2327736667,0.0,0.0,0.0,0.0,0.0,0.0,0.0,0.0,0.0,0.0,0.0,0,0.0,0.0,0.0,0.0,90.0,90.0,64.0,89.3177566528,89.12677001950001,112.93634796139999,31.995998382600003,15.495193481400001,3.4000000954000003,0,2,25,1,67,89
39,1530629351198,1264198, RC,0,39.9586186,-88.445067899,0,0.0,0.0,0.0,0.0,0.0,0.0,0.0,0.0,0.0,0.0,0.0,0.0,0.0,1500,1500,0.0,0.0,40.0482823333,-88.2327736667,0.0,0.0,0.0,0.0,0.0,0.0,0.0,0.0,0.0,0.0,0.0,0,0.0,0.0,0.0,0.0,90.0,90.0,64.0,89.3177566528,89.0631027222,115.80113220209999,31.995998382600003,15.495193481400001,3.4000000954000003,0,2,25,1,68,91
40,1530629351248,1264248, RC,0,39.9586186,-88.445067899,0,0.0,0.0,0.0,0.0,0.0,0.0,0.0,0.0,0.0,0.0,0.0,0.0,0.0,1500,1500,0.0,0.0,40.0482823333,-88.2327736667,0.0,0.0,0.0,0.0,0.0,0.0,0.0,0.0,0.0,0.0,0.0,0,0.0,0.0,0.0,0.0,90.0,90.0,64.0,89.3177566528,89.12677001950001,115.9284591675,31.995998382600003,15.495193481400001,3.4000000954000003,0,2,25,1,65,94
41,1530629351298,1264298, RC,0,39.9586186,-88.445067899,0,0.0,0.0,0.0,0.0,0.0,0.0,0.0,0.0,0.0,0.0,0.0,0.0,0.0,1500,1500,0.0,0.0,40.0482823333,-88.2327736667,0.0,0.0,0.0,0.0,0.0,0.0,0.0,0.0,0.0,0.0,0.0,0,0.0,0.0,0.0,0.0,90.0,90.0,63.0,89.3177566528,89.12677001950001,115.9284591675,31.995998382600003,15.495193481400001,3.4000000954000003,0,2,25,1,68,96
42,1530629351349,1264349, RC,0,39.9586186,-88.445067899,0,0.0,0.0,0.0,0.0,0.0,0.0,0.0,0.0,0.0,0.0,0.0,0.0,0.0,1500,1500,0.0,0.0,40.0482823333,-88.2327736667,0.0,0.0,0.0,0.0,0.0,0.0,0.0,0.0,0.0,0.0,0.0,0,0.0,0.0,0.0,0.0,90.0,90.0,63.0,89.3177566528,89.12677001950001,115.9284591675,31.995998382600003,15.495193481400001,3.4000000954000003,0,2,25,1,58,98
43,1530629351399,1264399, RC,0,39.9586186,-88.445067899,0,0.0,0.0,0.0,0.0,0.0,0.0,0.0,0.0,0.0,0.0,0.0,0.0,0.0,1500,1500,0.0,0.0,40.0482823333,-88.2327736667,0.0,0.0,0.0,0.0,0.0,0.0,0.0,0.0,0.0,0.0,0.0,0,0.0,0.0,0.0,0.0,90.0,90.0,63.0,89.3177566528,89.12677001950001,115.9284591675,31.995998382600003,15.495193481400001,3.4000000954000003,0,2,25,1,62,100
44,1530629351449,1264449, RC,0,39.9586186,-88.445067899,0,0.0,0.0,0.0,0.0,0.0,0.0,0.0,0.0,0.0,0.0,0.0,0.0,0.0,1500,1500,0.0,0.0,40.0482823333,-88.2327736667,0.0,0.0,0.0,0.0,0.0,0.0,0.0,0.0,0.0,0.0,0.0,0,0.0,0.0,0.0,0.0,90.0,90.0,63.0,89.3177566528,89.12677001950001,115.9284591675,31.995998382600003,15.495193481400001,3.4000000954000003,0,2,25,1,55,102
45,1530629351500,1264500, RC,0,39.9586186,-88.445067899,0,0.0,0.0,0.0,0.0,0.0,0.0,0.0,0.0,0.0,0.0,0.0,0.0,0.0,1500,1500,0.0,0.0,40.0482823333,-88.2327736667,0.0,0.0,0.0,0.0,0.0,0.0,0.0,0.0,0.0,0.0,0.0,0,0.0,0.0,0.0,0.0,90.0,90.0,63.0,89.3177566528,89.12677001950001,115.9284591675,31.995998382600003,15.495193481400001,3.4000000954000003,0,2,25,1,62,105
46,1530629351550,1264550, RC,0,39.9586186,-88.445067899,0,0.0,0.0,0.0,0.0,0.0,0.0,0.0,0.0,0.0,0.0,0.0,0.0,0.0,1500,1500,0.0,0.0,40.0482823333,-88.2327736667,0.0,0.0,0.0,0.0,0.0,0.0,0.0,0.0,0.0,0.0,0.0,0,0.0,0.0,0.0,0.0,90.0,90.0,63.0,89.3177566528,89.12677001950001,115.9284591675,31.995998382600003,15.495193481400001,3.4000000954000003,0,2,25,1,57,107
47,1530629351600,1264600, RC,0,39.9586186,-88.445067899,0,0.0,0.0,0.0,0.0,0.0,0.0,0.0,0.0,0.0,0.0,0.0,0.0,0.0,1500,1500,0.0,0.0,40.0482823333,-88.2327736667,0.0,0.0,0.0,0.0,0.0,0.0,0.0,0.0,0.0,0.0,0.0,0,0.0,0.0,0.0,0.0,90.0,90.0,63.0,89.3177566528,89.12677001950001,115.9284591675,31.995998382600003,15.495193481400001,3.4000000954000003,0,2,25,1,63,109
48,1530629351651,1264651, RC,0,39.9586186,-88.445067899,0,0.0,0.0,0.0,0.0,0.0,0.0,0.0,0.0,0.0,0.0,0.0,0.0,0.0,1500,1500,0.0,0.0,40.0482823333,-88.2327736667,0.0,0.0,0.0,0.0,0.0,0.0,0.0,0.0,0.0,0.0,0.0,0,0.0,0.0,0.0,0.0,90.0,90.0,63.0,89.3177566528,89.12677001950001,115.9284591675,31.995998382600003,15.495193481400001,3.4000000954000003,0,2,25,1,61,111
49,1530629351701,1264701, RC,0,39.9586186,-88.445067899,0,0.0,0.0,0.0,0.0,0.0,0.0,0.0,0.0,0.0,0.0,0.0,0.0,0.0,1500,1500,0.0,0.0,40.0482823333,-88.2327736667,0.0,0.0,0.0,0.0,0.0,0.0,0.0,0.0,0.0,0.0,0.0,0,0.0,0.0,0.0,0.0,90.0,90.0,63.0,89.3177566528,89.12677001950001,115.9284591675,31.995998382600003,15.495193481400001,3.4000000954000003,0,2,25,1,58,114
50,1530629351751,1264751, RC,0,39.9586186,-88.445067899,0,0.0,0.0,0.0,0.0,0.0,0.0,0.0,0.0,0.0,0.0,0.0,0.0,0.0,1500,1500,0.0,0.0,40.0482823333,-88.2327736667,0.0,0.0,0.0,0.0,0.0,0.0,0.0,0.0,0.0,0.0,0.0,0,0.0,0.0,0.0,0.0,90.0,90.0,63.0,89.3177566528,89.12677001950001,115.9284591675,31.995998382600003,15.495193481400001,3.4000000954000003,0,2,25,1,66,117
51,1530629351802,1264802, RC,0,39.9586186,-88.445067899,0,0.0,0.0,0.0,0.0,0.0,0.0,0.0,0.0,0.0,0.0,0.0,0.0,0.0,1500,1500,0.0,0.0,40.0482823333,-88.2327736667,0.0,0.0,0.0,0.0,0.0,0.0,0.0,0.0,0.0,0.0,0.0,0,0.0,0.0,0.0,0.0,90.0,90.0,58.0,89.3177566528,89.12677001950001,115.9284591675,31.995998382600003,15.4905424118,3.3499999045999997,0,2,25,1,59,121
52,1530629351852,1264852, RC,0,39.9586186,-88.445067899,0,0.0,0.0,0.0,0.0,0.0,0.0,0.0,0.0,0.0,0.0,0.0,0.0,0.0,1500,1500,0.0,0.0,40.0482828333,-88.2327691667,0.0,0.0,0.0,0.0,0.0,0.0,0.0,0.0,0.0,0.0,0.0,0,0.0,0.0,0.0,0.0,90.0,90.0,58.0,89.3177566528,89.12677001950001,116.81973266600001,31.995998382600003,15.4905424118,3.3499999045999997,0,2,25,1,58,124
53,1530629351902,1264902, RC,0,39.9586186,-88.445067899,0,0.0,0.0,0.0,0.0,0.0,0.0,0.0,0.0,0.0,0.0,0.0,0.0,0.0,1500,1500,0.0,0.0,40.0482828333,-88.2327691667,0.0,0.0,0.0,0.0,0.0,0.0,0.0,0.0,0.0,0.0,0.0,0,0.0,0.0,0.0,0.0,90.0,90.0,57.0,89.3177566528,89.12677001950001,120.38480377200001,31.995998382600003,15.4905424118,3.3499999045999997,0,2,25,1,61,126
54,1530629351953,1264953, RC,0,39.9586186,-88.445067899,0,0.0,0.0,0.0,0.0,0.0,0.0,0.0,0.0,0.0,0.0,0.0,0.0,0.0,1500,1500,0.0,0.0,40.0482828333,-88.2327691667,0.0,0.0,0.0,0.0,0.0,0.0,0.0,0.0,0.0,0.0,0.0,0,0.0,0.0,0.0,0.0,90.0,90.0,57.0,89.3177566528,89.12677001950001,121.1487426758,31.995998382600003,15.4905424118,3.3499999045999997,0,2,25,1,59,129
55,1530629352003,1265003, RC,0,39.9586186,-88.445067899,0,0.0,0.0,0.0,0.0,0.0,0.0,0.0,0.0,0.0,0.0,0.0,0.0,0.0,1500,1500,0.0,0.0,40.0482828333,-88.2327691667,0.0,0.0,0.0,0.0,0.0,0.0,0.0,0.0,0.0,0.0,0.0,0,0.0,0.0,0.0,0.0,90.0,90.0,57.0,89.3177566528,89.12677001950001,122.1673278809,31.995998382600003,15.4905424118,3.3499999045999997,0,2,25,1,48,131
56,1530629352053,1265053, RC,0,39.9586186,-88.445067899,0,0.0,0.0,0.0,0.0,0.0,0.0,0.0,0.0,0.0,0.0,0.0,0.0,0.0,1500,1500,0.0,0.0,40.0482828333,-88.2327691667,0.0,0.0,0.0,0.0,0.0,0.0,0.0,0.0,0.0,0.0,0.0,0,0.0,0.0,0.0,0.0,90.0,90.0,57.0,89.3177566528,89.12677001950001,123.56790161129999,31.995998382600003,15.4905424118,3.3499999045999997,0,2,25,1,50,134
57,1530629352104,1265104, RC,0,39.9586186,-88.445067899,0,0.0,0.0,0.0,0.0,0.0,0.0,0.0,0.0,0.0,0.0,0.0,0.0,0.0,1500,1500,0.0,0.0,40.0482828333,-88.2327691667,0.0,0.0,0.0,0.0,0.0,0.0,0.0,0.0,0.0,0.0,0.0,0,0.0,0.0,0.0,0.0,90.0,90.0,57.0,89.3177566528,89.12677001950001,123.56790161129999,31.995998382600003,15.4905424118,3.3499999045999997,0,2,25,1,57,137
58,1530629352154,1265154, RC,0,39.9586186,-88.445067899,0,0.0,0.0,0.0,0.0,0.0,0.0,0.0,0.0,0.0,0.0,0.0,0.0,0.0,1500,1500,0.0,0.0,40.0482828333,-88.2327691667,0.0,0.0,0.0,0.0,0.0,0.0,0.0,0.0,0.0,0.0,0.0,0,0.0,0.0,0.0,0.0,90.0,90.0,57.0,89.3177566528,89.12677001950001,123.56790161129999,31.995998382600003,15.4905424118,3.3499999045999997,0,2,25,1,46,139
59,1530629352204,1265204, RC,0,39.9586186,-88.445067899,0,0.0,0.0,0.0,0.0,0.0,0.0,0.0,0.0,0.0,0.0,0.0,0.0,0.0,1500,1500,0.0,0.0,40.0482828333,-88.2327691667,0.0,0.0,0.0,0.0,0.0,0.0,0.0,0.0,0.0,0.0,0.0,0,0.0,0.0,0.0,0.0,90.0,90.0,57.0,89.3177566528,89.12677001950001,123.56790161129999,31.995998382600003,15.4905424118,3.3499999045999997,0,2,25,1,54,141
60,1530629352255,1265255, RC,0,39.9586186,-88.445067899,0,0.0,0.0,0.0,0.0,0.0,0.0,0.0,0.0,0.0,0.0,0.0,0.0,0.0,1500,1500,0.0,0.0,40.0482828333,-88.2327691667,0.0,0.0,0.0,0.0,0.0,0.0,0.0,0.0,0.0,0.0,0.0,0,0.0,0.0,0.0,0.0,90.0,90.0,57.0,89.3177566528,89.12677001950001,123.504234314,31.995998382600003,15.4905424118,3.3499999045999997,0,2,25,1,54,144
61,1530629352305,1265305, RC,0,39.9586186,-88.445067899,0,0.0,0.0,0.0,0.0,0.0,0.0,0.0,0.0,0.0,0.0,0.0,0.0,0.0,1500,1500,0.0,0.0,40.0482828333,-88.2327691667,0.0,0.0,0.0,0.0,0.0,0.0,0.0,0.0,0.0,0.0,0.0,0,0.0,0.0,0.0,0.0,90.0,90.0,57.0,89.3177566528,89.12677001950001,123.440574646,31.995998382600003,15.4905424118,3.3499999045999997,0,2,25,1,53,146
62,1530629352355,1265355, RC,0,39.9586186,-88.445067899,0,0.0,0.0,0.0,0.0,0.0,0.0,0.0,0.0,0.0,0.0,0.0,0.0,0.0,1500,1500,0.0,0.0,40.0482828333,-88.2327691667,0.0,0.0,0.0,0.0,0.0,0.0,0.0,0.0,0.0,0.0,0.0,0,0.0,0.0,0.0,0.0,90.0,90.0,57.0,89.3177566528,89.12677001950001,123.1222610474,31.995998382600003,15.4905424118,3.3499999045999997,0,2,25,1,47,148
63,1530629352406,1265406, RC,0,39.9586186,-88.445067899,0,0.0,0.0,0.0,0.0,0.0,0.0,0.0,0.0,0.0,0.0,0.0,0.0,0.0,1500,1500,0.0,0.0,40.0482828333,-88.2327691667,0.0,0.0,0.0,0.0,0.0,0.0,0.0,0.0,0.0,0.0,0.0,0,0.0,0.0,0.0,0.0,90.0,90.0,58.0,89.3177566528,89.12677001950001,122.48564910889999,31.995998382600003,15.4905424118,3.3499999045999997,0,2,25,1,54,150
64,1530629352456,1265456, RC,0,39.9586186,-88.445067899,0,0.0,0.0,0.0,0.0,0.0,0.0,0.0,0.0,0.0,0.0,0.0,0.0,0.0,1500,1500,0.0,0.0,40.0482828333,-88.2327691667,0.0,0.0,0.0,0.0,0.0,0.0,0.0,0.0,0.0,0.0,0.0,0,0.0,0.0,0.0,0.0,90.0,90.0,58.0,89.3177566528,89.12677001950001,122.0400161743,31.995998382600003,15.4905424118,3.3499999045999997,0,2,25,1,52,152
65,1530629352506,1265506, RC,0,39.9586186,-88.445067899,0,0.0,0.0,0.0,0.0,0.0,0.0,0.0,0.0,0.0,0.0,0.0,0.0,0.0,1500,1500,0.0,0.0,40.0482828333,-88.2327691667,0.0,0.0,0.0,0.0,0.0,0.0,0.0,0.0,0.0,0.0,0.0,0,0.0,0.0,0.0,0.0,90.0,90.0,58.0,89.3177566528,89.12677001950001,121.6580352783,31.995998382600003,15.4905424118,3.3499999045999997,0,2,25,1,62,154
66,1530629352557,1265557, RC,0,39.9586186,-88.445067899,0,0.0,0.0,0.0,0.0,0.0,0.0,0.0,0.0,0.0,0.0,0.0,0.0,0.0,1500,1500,0.0,0.0,40.0482828333,-88.2327691667,0.0,0.0,0.0,0.0,0.0,0.0,0.0,0.0,0.0,0.0,0.0,0,0.0,0.0,0.0,0.0,90.0,90.0,58.0,89.3177566528,89.12677001950001,121.59437561040001,31.995998382600003,15.4905424118,3.3499999045999997,0,2,25,1,61,156
67,1530629352607,1265607, RC,0,39.9586186,-88.445067899,0,0.0,0.0,0.0,0.0,0.0,0.0,0.0,0.0,0.0,0.0,0.0,0.0,0.0,1500,1500,0.0,0.0,40.0482828333,-88.2327691667,0.0,0.0,0.0,0.0,0.0,0.0,0.0,0.0,0.0,0.0,0.0,0,0.0,0.0,0.0,0.0,90.0,90.0,60.0,89.3177566528,89.12677001950001,121.5307159424,31.995998382600003,15.4905424118,3.3499999045999997,0,2,25,1,57,158
68,1530629352657,1265657, RC,0,39.9586186,-88.445067899,0,0.0,0.0,0.0,0.0,0.0,0.0,0.0,0.0,0.0,0.0,0.0,0.0,0.0,1500,1500,0.0,0.0,40.0482828333,-88.2327691667,0.0,0.0,0.0,0.0,0.0,0.0,0.0,0.0,0.0,0.0,0.0,0,0.0,0.0,0.0,0.0,90.0,90.0,60.0,89.3177566528,89.12677001950001,121.2760620117,31.995998382600003,15.4905424118,3.3499999045999997,0,2,25,1,58,160
69,1530629352708,1265708, RC,0,39.9586186,-88.445067899,0,0.0,0.0,0.0,0.0,0.0,0.0,0.0,0.0,0.0,0.0,0.0,0.0,0.0,1500,1500,0.0,0.0,40.0482828333,-88.2327691667,0.0,0.0,0.0,0.0,0.0,0.0,0.0,0.0,0.0,0.0,0.0,0,0.0,0.0,0.0,0.0,90.0,90.0,60.0,89.3177566528,89.12677001950001,120.13014221190001,31.995998382600003,15.4905424118,3.3499999045999997,0,2,25,1,61,162
70,1530629352758,1265758, RC,0,39.9586186,-88.445067899,0,0.0,0.0,0.0,0.0,0.0,0.0,0.0,0.0,0.0,0.0,0.0,0.0,0.0,1500,1500,0.0,0.0,40.0482828333,-88.2327691667,0.0,0.0,0.0,0.0,0.0,0.0,0.0,0.0,0.0,0.0,0.0,0,0.0,0.0,0.0,0.0,90.0,90.0,60.0,89.3177566528,89.12677001950001,119.3662033081,31.995998382600003,15.4905424118,3.3499999045999997,0,2,25,1,52,164
71,1530629352808,1265808, RC,0,39.9586186,-88.445067899,0,0.0,0.0,0.0,0.0,0.0,0.0,0.0,0.0,0.0,0.0,0.0,0.0,0.0,1500,1500,0.0,0.0,40.048285666700004,-88.2327665,0.0,0.0,0.0,0.0,0.0,0.0,0.0,0.0,0.0,0.0,0.0,0,0.0,0.0,0.0,0.0,90.0,90.0,60.0,89.3177566528,89.12677001950001,119.3025436401,31.995998382600003,15.4860782623,3.4600000381,0,2,25,1,57,166
72,1530629352859,1265859, RC,0,39.9586186,-88.445067899,0,0.0,0.0,0.0,0.0,0.0,0.0,0.0,0.0,0.0,0.0,0.0,0.0,0.0,1500,1500,0.0,0.0,40.048285666700004,-88.2327665,0.0,0.0,0.0,0.0,0.0,0.0,0.0,0.0,0.0,0.0,0.0,0,0.0,0.0,0.0,0.0,90.0,90.0,60.0,89.3177566528,89.12677001950001,119.2388916016,31.995998382600003,15.4860782623,3.4600000381,0,2,25,1,55,168
73,1530629352909,1265909, RC,0,39.9586186,-88.445067899,0,0.0,0.0,0.0,0.0,0.0,0.0,0.0,0.0,0.0,0.0,0.0,0.0,0.0,1500,1500,0.0,0.0,40.048285666700004,-88.2327665,0.0,0.0,0.0,0.0,0.0,0.0,0.0,0.0,0.0,0.0,0.0,0,0.0,0.0,0.0,0.0,90.0,90.0,60.0,89.3177566528,89.12677001950001,119.2388916016,31.995998382600003,15.4860782623,3.4600000381,0,2,25,1,57,170
74,1530629352960,1265960, RC,0,39.9586186,-88.445067899,0,0.0,0.0,0.0,0.0,0.0,0.0,0.0,0.0,0.0,0.0,0.0,0.0,0.0,1500,1500,0.0,0.0,40.048285666700004,-88.2327665,0.0,0.0,0.0,0.0,0.0,0.0,0.0,0.0,0.0,0.0,0.0,0,0.0,0.0,0.0,0.0,90.0,90.0,60.0,89.3177566528,89.12677001950001,119.2388916016,31.995998382600003,15.4860782623,3.4600000381,0,2,25,1,53,172
75,1530629353010,1266010, RC,0,39.9586186,-88.445067899,0,0.0,0.0,0.0,0.0,0.0,0.0,0.0,0.0,0.0,0.0,0.0,0.0,0.0,1500,1500,0.0,0.0,40.048285666700004,-88.2327665,0.0,0.0,0.0,0.0,0.0,0.0,0.0,0.0,0.0,0.0,0.0,0,0.0,0.0,0.0,0.0,90.0,90.0,60.0,89.3177566528,89.12677001950001,119.2388916016,31.995998382600003,15.4860782623,3.4600000381,0,2,25,1,64,174
76,1530629353060,1266060, RC,0,39.9586186,-88.445067899,0,0.0,0.0,0.0,0.0,0.0,0.0,0.0,0.0,0.0,0.0,0.0,0.0,0.0,1500,1500,0.0,0.0,40.048285666700004,-88.2327665,0.0,0.0,0.0,0.0,0.0,0.0,0.0,0.0,0.0,0.0,0.0,0,0.0,0.0,0.0,0.0,90.0,90.0,60.0,89.3177566528,89.12677001950001,119.2388916016,31.995998382600003,15.4860782623,3.4600000381,0,2,25,1,57,176
77,1530629353110,1266110, RC,0,39.9586186,-88.445067899,0,0.0,0.0,0.0,0.0,0.0,0.0,0.0,0.0,0.0,0.0,0.0,0.0,0.0,1500,1500,0.0,0.0,40.048285666700004,-88.2327665,0.0,0.0,0.0,0.0,0.0,0.0,0.0,0.0,0.0,0.0,0.0,0,0.0,0.0,0.0,0.0,90.0,90.0,60.0,89.3177566528,89.12677001950001,119.2388916016,31.995998382600003,15.4860782623,3.4600000381,0,2,25,1,55,178
78,1530629353161,1266161, RC,0,39.9586186,-88.445067899,0,0.0,0.0,0.0,0.0,0.0,0.0,0.0,0.0,0.0,0.0,0.0,0.0,0.0,1500,1500,0.0,0.0,40.048285666700004,-88.2327665,0.0,0.0,0.0,0.0,0.0,0.0,0.0,0.0,0.0,0.0,0.0,0,0.0,0.0,0.0,0.0,90.0,90.0,60.0,89.3177566528,89.12677001950001,119.2388916016,31.995998382600003,15.4860782623,3.4600000381,0,2,25,1,61,180
79,1530629353211,1266211, RC,0,39.9586186,-88.445067899,0,0.0,0.0,0.0,0.0,0.0,0.0,0.0,0.0,0.0,0.0,0.0,0.0,0.0,1500,1500,0.0,0.0,40.048285666700004,-88.2327665,0.0,0.0,0.0,0.0,0.0,0.0,0.0,0.0,0.0,0.0,0.0,0,0.0,0.0,0.0,0.0,90.0,90.0,60.0,89.3177566528,89.12677001950001,119.2388916016,31.995998382600003,15.4860782623,3.4600000381,0,2,25,1,60,182
80,1530629353261,1266261, RC,0,39.9586186,-88.445067899,0,0.0,0.0,0.0,0.0,0.0,0.0,0.0,0.0,0.0,0.0,0.0,0.0,0.0,1500,1500,0.0,0.0,40.048285666700004,-88.2327665,0.0,0.0,0.0,0.0,0.0,0.0,0.0,0.0,0.0,0.0,0.0,0,0.0,0.0,0.0,0.0,90.0,90.0,60.0,89.3177566528,89.12677001950001,119.2388916016,31.995998382600003,15.4860782623,3.4600000381,0,2,25,1,56,184
81,1530629353312,1266312, RC,0,39.9586186,-88.445067899,0,0.0,0.0,0.0,0.0,0.0,0.0,0.0,0.0,0.0,0.0,0.0,0.0,0.0,1500,1500,0.0,0.0,40.048285666700004,-88.2327665,0.0,0.0,0.0,0.0,0.0,0.0,0.0,0.0,0.0,0.0,0.0,0,0.0,0.0,0.0,0.0,90.0,90.0,60.0,89.25408935549999,89.12677001950001,119.2388916016,31.995998382600003,15.4860782623,3.4600000381,0,2,25,1,62,186
82,1530629353362,1266362, RC,0,39.9586186,-88.445067899,0,0.0,0.0,0.0,0.0,0.0,0.0,0.0,0.0,0.0,0.0,0.0,0.0,0.0,1500,1500,0.0,0.0,40.048285666700004,-88.2327665,0.0,0.0,0.0,0.0,0.0,0.0,0.0,0.0,0.0,0.0,0.0,0,0.0,0.0,0.0,0.0,90.0,90.0,60.0,89.25408935549999,89.12677001950001,119.2388916016,31.995998382600003,15.4860782623,3.4600000381,0,2,25,1,57,188
83,1530629353412,1266412, RC,0,39.9586186,-88.445067899,0,0.0,0.0,0.0,0.0,0.0,0.0,0.0,0.0,0.0,0.0,0.0,0.0,0.0,1500,1500,0.0,0.0,40.048285666700004,-88.2327665,0.0,0.0,0.0,0.0,0.0,0.0,0.0,0.0,0.0,0.0,0.0,0,0.0,0.0,0.0,0.0,90.0,90.0,60.0,89.25408935549999,89.12677001950001,119.2388916016,31.995998382600003,15.4860782623,3.4600000381,0,2,25,1,57,190
84,1530629353463,1266463, RC,0,39.9586186,-88.445067899,0,0.0,0.0,0.0,0.0,0.0,0.0,0.0,0.0,0.0,0.0,0.0,0.0,0.0,1500,1500,0.0,0.0,40.048285666700004,-88.2327665,0.0,0.0,0.0,0.0,0.0,0.0,0.0,0.0,0.0,0.0,0.0,0,0.0,0.0,0.0,0.0,90.0,90.0,60.0,89.25408935549999,89.12677001950001,119.2388916016,31.995998382600003,15.4860782623,3.4600000381,0,2,25,1,52,192
85,1530629353513,1266513, RC,0,39.9586186,-88.445067899,0,0.0,0.0,0.0,0.0,0.0,0.0,0.0,0.0,0.0,0.0,0.0,0.0,0.0,1500,1500,0.0,0.0,40.048285666700004,-88.2327665,0.0,0.0,0.0,0.0,0.0,0.0,0.0,0.0,0.0,0.0,0.0,0,0.0,0.0,0.0,0.0,90.0,90.0,60.0,89.25408935549999,89.12677001950001,119.2388916016,31.995998382600003,15.4860782623,3.4600000381,0,2,25,1,63,194
86,1530629353563,1266563, RC,0,39.9586186,-88.445067899,0,0.0,0.0,0.0,0.0,0.0,0.0,0.0,0.0,0.0,0.0,0.0,0.0,0.0,1500,1500,0.0,0.0,40.048285666700004,-88.2327665,0.0,0.0,0.0,0.0,0.0,0.0,0.0,0.0,0.0,0.0,0.0,0,0.0,0.0,0.0,0.0,90.0,90.0,60.0,89.25408935549999,89.12677001950001,119.2388916016,31.995998382600003,15.4860782623,3.4600000381,0,2,25,1,59,196
87,1530629353614,1266614, RC,0,39.9586186,-88.445067899,0,0.0,0.0,0.0,0.0,0.0,0.0,0.0,0.0,0.0,0.0,0.0,0.0,0.0,1500,1500,0.0,0.0,40.048285666700004,-88.2327665,0.0,0.0,0.0,0.0,0.0,0.0,0.0,0.0,0.0,0.0,0.0,0,0.0,0.0,0.0,0.0,90.0,90.0,60.0,89.25408935549999,89.12677001950001,119.2388916016,31.995998382600003,15.4860782623,3.4600000381,0,2,25,1,62,198
88,1530629353664,1266664, RC,0,39.9586186,-88.445067899,0,0.0,0.0,0.0,0.0,0.0,0.0,0.0,0.0,0.0,0.0,0.0,0.0,0.0,1500,1500,0.0,0.0,40.048285666700004,-88.2327665,0.0,0.0,0.0,0.0,0.0,0.0,0.0,0.0,0.0,0.0,0.0,0,0.0,0.0,0.0,0.0,90.0,90.0,60.0,89.25408935549999,89.12677001950001,119.2388916016,31.995998382600003,15.4860782623,3.4600000381,0,2,25,1,60,200
89,1530629353714,1266714, RC,0,39.9586186,-88.445067899,0,0.0,0.0,0.0,0.0,0.0,0.0,0.0,0.0,0.0,0.0,0.0,0.0,0.0,1500,1500,0.0,0.0,40.048285666700004,-88.2327665,0.0,0.0,0.0,0.0,0.0,0.0,0.0,0.0,0.0,0.0,0.0,0,0.0,0.0,0.0,0.0,90.0,90.0,60.0,89.25408935549999,89.12677001950001,119.2388916016,31.995998382600003,15.4860782623,3.4600000381,0,2,25,1,54,202
90,1530629353765,1266765, RC,0,39.9586186,-88.445067899,0,0.0,0.0,0.0,0.0,0.0,0.0,0.0,0.0,0.0,0.0,0.0,0.0,0.0,1500,1500,0.0,0.0,40.048285666700004,-88.2327665,0.0,0.0,0.0,0.0,0.0,0.0,0.0,0.0,0.0,0.0,0.0,0,0.0,0.0,0.0,0.0,90.0,90.0,60.0,89.25408935549999,89.12677001950001,119.2388916016,31.995998382600003,15.4860782623,3.4600000381,0,2,25,1,53,204
91,1530629353815,1266815, RC,0,39.9586186,-88.445067899,0,0.0,0.0,0.0,0.0,0.0,0.0,0.0,0.0,0.0,0.0,0.0,0.0,0.0,1500,1500,0.0,0.0,40.048287333299996,-88.2327626667,0.0,0.0,0.0,0.0,0.0,0.0,0.0,0.0,0.0,0.0,0.0,0,0.0,0.0,0.0,0.0,90.0,81.0,60.0,89.25408935549999,89.12677001950001,119.2388916016,31.995998382600003,15.4815425873,3.4499998093,0,2,25,1,58,206
92,1530629353865,1266865, RC,0,39.9586186,-88.445067899,0,0.0,0.0,0.0,0.0,0.0,0.0,0.0,0.0,0.0,0.0,0.0,0.0,0.0,1500,1500,0.0,0.0,40.048287333299996,-88.2327626667,0.0,0.0,0.0,0.0,0.0,0.0,0.0,0.0,0.0,0.0,0.0,0,0.0,0.0,0.0,0.0,90.0,81.0,60.0,89.3177566528,95.3019790649,119.2388916016,31.995998382600003,15.4815425873,3.4499998093,0,2,25,1,57,208
93,1530629353916,1266916, RC,0,39.9586186,-88.445067899,0,0.0,0.0,0.0,0.0,0.0,0.0,0.0,0.0,0.0,0.0,0.0,0.0,0.0,1500,1500,0.0,0.0,40.048287333299996,-88.2327626667,0.0,0.0,0.0,0.0,0.0,0.0,0.0,0.0,0.0,0.0,0.0,0,0.0,0.0,0.0,0.0,90.0,75.0,60.0,89.3177566528,98.8670501709,119.2388916016,31.995998382600003,15.4815425873,3.4499998093,0,2,25,1,64,210
94,1530629353966,1266966, RC,0,39.9586186,-88.445067899,0,0.0,0.0,0.0,0.0,0.0,0.0,0.0,0.0,0.0,0.0,0.0,0.0,0.0,1500,1500,0.0,0.0,40.048287333299996,-88.2327626667,0.0,0.0,0.0,0.0,0.0,0.0,0.0,0.0,0.0,0.0,0.0,0,0.0,0.0,0.0,0.0,90.0,75.0,60.0,89.25408935549999,100.96789550780001,119.2388916016,31.995998382600003,15.4815425873,3.4499998093,0,2,25,1,63,212
95,1530629354016,1267016, RC,0,39.9586186,-88.445067899,0,0.0,0.0,0.0,0.0,0.0,0.0,0.0,0.0,0.0,0.0,0.0,0.0,0.0,1500,1500,0.0,0.0,40.048287333299996,-88.2327626667,0.0,0.0,0.0,0.0,0.0,0.0,0.0,0.0,0.0,0.0,0.0,0,0.0,0.0,0.0,0.0,90.0,67.0,60.0,89.25408935549999,105.42423248290001,119.2388916016,31.995998382600003,15.4815425873,3.4499998093,0,2,25,1,55,214
96,1530629354067,1267067, RC,0,39.9586186,-88.445067899,0,0.0,0.0,0.0,0.0,0.0,0.0,0.0,0.0,0.0,0.0,0.0,0.0,0.0,1500,1500,0.0,0.0,40.048287333299996,-88.2327626667,0.0,0.0,0.0,0.0,0.0,0.0,0.0,0.0,0.0,0.0,0.0,0,0.0,0.0,0.0,0.0,90.0,67.0,60.0,89.25408935549999,112.74536132809999,119.2388916016,31.995998382600003,15.4815425873,3.4499998093,0,2,25,1,57,216
97,1530629354118,1267118, RC,0,39.9586186,-88.445067899,0,0.0,0.0,0.0,0.0,0.0,0.0,0.0,0.0,0.0,0.0,0.0,0.0,0.0,1500,1500,0.0,0.0,40.048287333299996,-88.2327626667,0.0,0.0,0.0,0.0,0.0,0.0,0.0,0.0,0.0,0.0,0.0,0,0.0,0.0,0.0,0.0,90.0,63.0,60.0,89.25408935549999,113.3183135986,119.2388916016,31.995998382600003,15.4815425873,3.4499998093,0,2,25,1,61,218
98,1530629354168,1267168, RC,0,39.9586186,-88.445067899,0,0.0,0.0,0.0,0.0,0.0,0.0,0.0,0.0,0.0,0.0,0.0,0.0,0.0,1500,1500,0.0,0.0,40.048287333299996,-88.2327626667,0.0,0.0,0.0,0.0,0.0,0.0,0.0,0.0,0.0,0.0,0.0,0,0.0,0.0,0.0,0.0,90.0,63.0,60.0,89.25408935549999,113.7639541626,119.2388916016,31.995998382600003,15.4815425873,3.4499998093,0,2,25,1,58,220
99,1530629354219,1267219, RC,0,39.9586186,-88.445067899,0,0.0,0.0,0.0,0.0,0.0,0.0,0.0,0.0,0.0,0.0,0.0,0.0,0.0,1500,1500,0.0,0.0,40.048287333299996,-88.2327626667,0.0,0.0,0.0,0.0,0.0,0.0,0.0,0.0,0.0,0.0,0.0,0,0.0,0.0,0.0,0.0,90.0,61.0,60.0,89.25408935549999,116.24677276610001,119.2388916016,31.995998382600003,15.4815425873,3.4499998093,0,2,25,1,62,222
100,1530629354269,1267269, RC,0,39.9586186,-88.445067899,0,0.0,0.0,0.0,0.0,0.0,0.0,0.0,0.0,0.0,0.0,0.0,0.0,0.0,1500,1500,0.0,0.0,40.048287333299996,-88.2327626667,0.0,0.0,0.0,0.0,0.0,0.0,0.0,0.0,0.0,0.0,0.0,0,0.0,0.0,0.0,0.0,90.0,61.0,60.0,89.25408935549999,116.81973266600001,119.2388916016,31.995998382600003,15.4815425873,3.4499998093,0,2,25,1,62,224
101,1530629354320,1267320, RC,0,39.9586186,-88.445067899,0,0.0,0.0,0.0,0.0,0.0,0.0,0.0,0.0,0.0,0.0,0.0,0.0,0.0,1500,1500,0.0,0.0,40.048287333299996,-88.2327626667,0.0,0.0,0.0,0.0,0.0,0.0,0.0,0.0,0.0,0.0,0.0,0,0.0,0.0,0.0,0.0,90.0,61.0,60.0,89.25408935549999,118.0929718018,119.2388916016,31.995998382600003,15.4815425873,3.4499998093,0,2,25,1,58,226
102,1530629354370,1267370, RC,0,39.9586186,-88.445067899,0,0.0,0.0,0.0,0.0,0.0,0.0,0.0,0.0,0.0,0.0,0.0,0.0,0.0,1500,1500,0.0,0.0,40.048287333299996,-88.2327626667,0.0,0.0,0.0,0.0,0.0,0.0,0.0,0.0,0.0,0.0,0.0,0,0.0,0.0,0.0,0.0,90.0,61.0,60.0,89.25408935549999,118.15663146969999,119.2388916016,31.995998382600003,15.4815425873,3.4499998093,0,2,25,1,59,228
103,1530629354421,1267421, RC,0,39.9586186,-88.445067899,0,0.0,0.0,0.0,0.0,0.0,0.0,0.0,0.0,0.0,0.0,0.0,0.0,0.0,1500,1500,0.0,0.0,40.048287333299996,-88.2327626667,0.0,0.0,0.0,0.0,0.0,0.0,0.0,0.0,0.0,0.0,0.0,0,0.0,0.0,0.0,0.0,90.0,60.0,60.0,89.25408935549999,118.15663146969999,119.2388916016,31.995998382600003,15.4815425873,3.4499998093,0,2,25,1,57,230
104,1530629354472,1267472, RC,0,39.9586186,-88.445067899,0,0.0,0.0,0.0,0.0,0.0,0.0,0.0,0.0,0.0,0.0,0.0,0.0,0.0,1500,1500,0.0,0.0,40.048287333299996,-88.2327626667,0.0,0.0,0.0,0.0,0.0,0.0,0.0,0.0,0.0,0.0,0.0,0,0.0,0.0,0.0,0.0,90.0,60.0,60.0,89.25408935549999,118.53860473629999,119.2388916016,31.995998382600003,15.4815425873,3.4499998093,0,2,25,1,55,232
105,1530629354522,1267522, RC,0,39.9586186,-88.445067899,0,0.0,0.0,0.0,0.0,0.0,0.0,0.0,0.0,0.0,0.0,0.0,0.0,0.0,1500,1500,0.0,0.0,40.048287333299996,-88.2327626667,0.0,0.0,0.0,0.0,0.0,0.0,0.0,0.0,0.0,0.0,0.0,0,0.0,0.0,0.0,0.0,90.0,57.0,60.0,89.25408935549999,119.4935302734,119.2388916016,31.995998382600003,15.4815425873,3.4499998093,0,2,25,1,59,234
106,1530629354573,1267573, RC,0,39.9586186,-88.445067899,0,0.0,0.0,0.0,0.0,0.0,0.0,0.0,0.0,0.0,0.0,0.0,0.0,0.0,1500,1500,0.0,0.0,40.048287333299996,-88.2327626667,0.0,0.0,0.0,0.0,0.0,0.0,0.0,0.0,0.0,0.0,0.0,0,0.0,0.0,0.0,0.0,90.0,57.0,60.0,89.25408935549999,120.8940887451,119.2388916016,31.995998382600003,15.4815425873,3.4499998093,0,2,25,1,60,236
107,1530629354623,1267623, RC,0,39.9586186,-88.445067899,0,0.0,0.0,0.0,0.0,0.0,0.0,0.0,0.0,0.0,0.0,0.0,0.0,0.0,1500,1500,0.0,0.0,40.048287333299996,-88.2327626667,0.0,0.0,0.0,0.0,0.0,0.0,0.0,0.0,0.0,0.0,0.0,0,0.0,0.0,0.0,0.0,90.0,57.0,60.0,89.25408935549999,122.6766281128,119.2388916016,31.995998382600003,15.4815425873,3.4499998093,0,2,25,1,59,238
108,1530629354674,1267674, RC,0,39.9586186,-88.445067899,0,0.0,0.0,0.0,0.0,0.0,0.0,0.0,0.0,0.0,0.0,0.0,0.0,0.0,1500,1500,0.0,0.0,40.048287333299996,-88.2327626667,0.0,0.0,0.0,0.0,0.0,0.0,0.0,0.0,0.0,0.0,0.0,0,0.0,0.0,0.0,0.0,90.0,57.0,60.0,89.25408935549999,122.6766281128,119.2388916016,31.995998382600003,15.4815425873,3.4499998093,0,2,25,1,57,240
109,1530629354724,1267724, RC,0,39.9586186,-88.445067899,0,0.0,0.0,0.0,0.0,0.0,0.0,0.0,0.0,0.0,0.0,0.0,0.0,0.0,1500,1500,0.0,0.0,40.048287333299996,-88.2327626667,0.0,0.0,0.0,0.0,0.0,0.0,0.0,0.0,0.0,0.0,0.0,0,0.0,0.0,0.0,0.0,90.0,57.0,60.0,89.25408935549999,122.6766281128,119.2388916016,31.995998382600003,15.4815425873,3.4499998093,0,2,25,1,61,242
110,1530629354775,1267775, RC,0,39.9586186,-88.445067899,0,0.0,0.0,0.0,0.0,0.0,0.0,0.0,0.0,0.0,0.0,0.0,0.0,0.0,1500,1500,0.0,0.0,40.048287333299996,-88.2327626667,0.0,0.0,0.0,0.0,0.0,0.0,0.0,0.0,0.0,0.0,0.0,0,0.0,0.0,0.0,0.0,90.0,57.0,60.0,89.25408935549999,122.6766281128,119.2388916016,31.995998382600003,15.4815425873,3.4499998093,0,2,25,1,57,244
111,1530629354826,1267826, RC,0,39.9586186,-88.445067899,0,0.0,0.0,0.0,0.0,0.0,0.0,0.0,0.0,0.0,0.0,0.0,0.0,0.0,1500,1500,0.0,0.0,40.048287333299996,-88.2327566667,0.0,0.0,0.0,0.0,0.0,0.0,0.0,0.0,0.0,0.0,0.0,0,0.0,0.0,0.0,0.0,90.0,57.0,60.0,89.25408935549999,122.6766281128,119.2388916016,31.995998382600003,15.476941108699998,3.2300000191000002,0,2,25,1,56,246
112,1530629354876,1267876, RC,0,39.9586186,-88.445067899,0,0.0,0.0,0.0,0.0,0.0,0.0,0.0,0.0,0.0,0.0,0.0,0.0,0.0,1500,1500,0.0,0.0,40.048287333299996,-88.2327566667,0.0,0.0,0.0,0.0,0.0,0.0,0.0,0.0,0.0,0.0,0.0,0,0.0,0.0,0.0,0.0,90.0,58.0,60.0,89.25408935549999,122.6129760742,119.2388916016,31.995998382600003,15.476941108699998,3.2300000191000002,0,2,25,1,58,248
113,1530629354927,1267927, RC,0,39.9586186,-88.445067899,0,0.0,0.0,0.0,0.0,0.0,0.0,0.0,0.0,0.0,0.0,0.0,0.0,0.0,1500,1500,0.0,0.0,40.048287333299996,-88.2327566667,0.0,0.0,0.0,0.0,0.0,0.0,0.0,0.0,0.0,0.0,0.0,0,0.0,0.0,0.0,0.0,90.0,58.0,60.0,89.25408935549999,122.6129760742,119.2388916016,31.995998382600003,15.476941108699998,3.2300000191000002,0,2,25,1,59,250
114,1530629354977,1267977, RC,0,39.9586186,-88.445067899,0,0.0,0.0,0.0,0.0,0.0,0.0,0.0,0.0,0.0,0.0,0.0,0.0,0.0,1500,1500,0.0,0.0,40.048287333299996,-88.2327566667,0.0,0.0,0.0,0.0,0.0,0.0,0.0,0.0,0.0,0.0,0.0,0,0.0,0.0,0.0,0.0,90.0,60.0,60.0,89.25408935549999,122.2310028076,119.2388916016,31.995998382600003,15.476941108699998,3.2300000191000002,0,2,25,1,56,252
115,1530629355028,1268028, RC,0,39.9586186,-88.445067899,0,0.0,0.0,0.0,0.0,0.0,0.0,0.0,0.0,0.0,0.0,0.0,0.0,0.0,1500,1500,0.0,0.0,40.048287333299996,-88.2327566667,0.0,0.0,0.0,0.0,0.0,0.0,0.0,0.0,0.0,0.0,0.0,0,0.0,0.0,0.0,0.0,90.0,60.0,60.0,89.25408935549999,121.59437561040001,119.2388916016,31.995998382600003,15.476941108699998,3.2300000191000002,0,2,25,1,56,254
116,1530629355078,1268078, RC,0,39.9586186,-88.445067899,0,0.0,0.0,0.0,0.0,0.0,0.0,0.0,0.0,0.0,0.0,0.0,0.0,0.0,1500,1500,0.0,0.0,40.048287333299996,-88.2327566667,0.0,0.0,0.0,0.0,0.0,0.0,0.0,0.0,0.0,0.0,0.0,0,0.0,0.0,0.0,0.0,90.0,60.0,60.0,89.25408935549999,120.00283050540001,119.2388916016,31.995998382600003,15.476941108699998,3.2300000191000002,0,2,25,1,55,256
117,1530629355129,1268129, RC,0,39.9586186,-88.445067899,0,0.0,0.0,0.0,0.0,0.0,0.0,0.0,0.0,0.0,0.0,0.0,0.0,0.0,1500,1500,0.0,0.0,40.048287333299996,-88.2327566667,0.0,0.0,0.0,0.0,0.0,0.0,0.0,0.0,0.0,0.0,0.0,0,0.0,0.0,0.0,0.0,90.0,60.0,60.0,89.25408935549999,118.856918335,119.2388916016,31.995998382600003,15.476941108699998,3.2300000191000002,0,2,25,1,57,259
118,1530629355180,1268180, RC,0,39.9586186,-88.445067899,0,0.0,0.0,0.0,0.0,0.0,0.0,0.0,0.0,0.0,0.0,0.0,0.0,0.0,1500,1500,0.0,0.0,40.048287333299996,-88.2327566667,0.0,0.0,0.0,0.0,0.0,0.0,0.0,0.0,0.0,0.0,0.0,0,0.0,0.0,0.0,0.0,90.0,60.0,60.0,89.25408935549999,119.1115570068,119.2388916016,31.995998382600003,15.476941108699998,3.2300000191000002,0,2,25,1,57,261
119,1530629355230,1268230, RC,0,39.9586186,-88.445067899,0,0.0,0.0,0.0,0.0,0.0,0.0,0.0,0.0,0.0,0.0,0.0,0.0,0.0,1500,1500,0.0,0.0,40.048287333299996,-88.2327566667,0.0,0.0,0.0,0.0,0.0,0.0,0.0,0.0,0.0,0.0,0.0,0,0.0,0.0,0.0,0.0,90.0,60.0,60.0,89.25408935549999,119.0479049683,119.2388916016,31.995998382600003,15.476941108699998,3.2300000191000002,0,2,25,1,52,263
120,1530629355281,1268281, RC,0,39.9586186,-88.445067899,0,0.0,0.0,0.0,0.0,0.0,0.0,0.0,0.0,0.0,0.0,0.0,0.0,0.0,1500,1500,0.0,0.0,40.048287333299996,-88.2327566667,0.0,0.0,0.0,0.0,0.0,0.0,0.0,0.0,0.0,0.0,0.0,0,0.0,0.0,0.0,0.0,90.0,60.0,60.0,89.25408935549999,119.0479049683,119.2388916016,31.995998382600003,15.476941108699998,3.2300000191000002,0,2,25,1,55,265
121,1530629355331,1268331, RC,0,39.9586186,-88.445067899,0,0.0,0.0,0.0,0.0,0.0,0.0,0.0,0.0,0.0,0.0,0.0,0.0,0.0,1500,1500,0.0,0.0,40.048287333299996,-88.2327566667,0.0,0.0,0.0,0.0,0.0,0.0,0.0,0.0,0.0,0.0,0.0,0,0.0,0.0,0.0,0.0,90.0,60.0,60.0,89.25408935549999,119.0479049683,119.2388916016,31.995998382600003,15.476941108699998,3.2300000191000002,0,2,25,1,59,267
122,1530629355383,1268383, RC,0,39.9586186,-88.445067899,0,0.0,0.0,0.0,0.0,0.0,0.0,0.0,0.0,0.0,0.0,0.0,0.0,0.0,1500,1500,0.0,0.0,40.048287333299996,-88.2327566667,0.0,0.0,0.0,0.0,0.0,0.0,0.0,0.0,0.0,0.0,0.0,0,0.0,0.0,0.0,0.0,90.0,60.0,60.0,89.25408935549999,119.0479049683,119.2388916016,31.995998382600003,15.476941108699998,3.2300000191000002,0,2,25,1,58,269
123,1530629355433,1268433, RC,0,39.9586186,-88.445067899,0,0.0,0.0,0.0,0.0,0.0,0.0,0.0,0.0,0.0,0.0,0.0,0.0,0.0,1500,1500,0.0,0.0,40.048287333299996,-88.2327566667,0.0,0.0,0.0,0.0,0.0,0.0,0.0,0.0,0.0,0.0,0.0,0,0.0,0.0,0.0,0.0,90.0,60.0,60.0,89.25408935549999,119.0479049683,119.2388916016,31.995998382600003,15.476941108699998,3.2300000191000002,0,2,25,1,56,271
124,1530629355484,1268484, RC,0,39.9586186,-88.445067899,0,0.0,0.0,0.0,0.0,0.0,0.0,0.0,0.0,0.0,0.0,0.0,0.0,0.0,1500,1500,0.0,0.0,40.048287333299996,-88.2327566667,0.0,0.0,0.0,0.0,0.0,0.0,0.0,0.0,0.0,0.0,0.0,0,0.0,0.0,0.0,0.0,90.0,60.0,60.0,89.25408935549999,118.9842300415,119.2388916016,31.995998382600003,15.476941108699998,3.2300000191000002,0,2,25,1,57,273
125,1530629355535,1268535, RC,0,39.9586186,-88.445067899,0,0.0,0.0,0.0,0.0,0.0,0.0,0.0,0.0,0.0,0.0,0.0,0.0,0.0,1500,1500,0.0,0.0,40.048287333299996,-88.2327566667,0.0,0.0,0.0,0.0,0.0,0.0,0.0,0.0,0.0,0.0,0.0,0,0.0,0.0,0.0,0.0,90.0,60.0,60.0,89.25408935549999,118.9842300415,119.2388916016,31.995998382600003,15.476941108699998,3.2300000191000002,0,2,25,1,57,275
126,1530629355585,1268585, RC,0,39.9586186,-88.445067899,0,0.0,0.0,0.0,0.0,0.0,0.0,0.0,0.0,0.0,0.0,0.0,0.0,0.0,1500,1500,0.0,0.0,40.048287333299996,-88.2327566667,0.0,0.0,0.0,0.0,0.0,0.0,0.0,0.0,0.0,0.0,0.0,0,0.0,0.0,0.0,0.0,90.0,60.0,60.0,89.25408935549999,118.9842300415,119.2388916016,31.995998382600003,15.476941108699998,3.2300000191000002,0,2,25,1,53,277
127,1530629355636,1268636, RC,0,39.9586186,-88.445067899,0,0.0,0.0,0.0,0.0,0.0,0.0,0.0,0.0,0.0,0.0,0.0,0.0,0.0,1500,1500,0.0,0.0,40.048287333299996,-88.2327566667,0.0,0.0,0.0,0.0,0.0,0.0,0.0,0.0,0.0,0.0,0.0,0,0.0,0.0,0.0,0.0,90.0,60.0,60.0,89.25408935549999,118.9842300415,119.2388916016,31.995998382600003,15.476941108699998,3.2300000191000002,0,2,25,1,56,279
128,1530629355702,1268702, RC,0,39.9586186,-88.445067899,0,0.0,0.0,0.0,0.0,0.0,0.0,0.0,0.0,0.0,0.0,0.0,0.0,0.0,1500,1500,0.0,0.0,40.048287333299996,-88.2327566667,0.0,0.0,0.0,0.0,0.0,0.0,0.0,0.0,0.0,0.0,0.0,0,0.0,0.0,0.0,0.0,90.0,60.0,60.0,89.25408935549999,118.9842300415,119.2388916016,31.995998382600003,15.476941108699998,3.2300000191000002,0,2,25,1,58,281
129,1530629355752,1268752, RC,0,39.9586186,-88.445067899,0,0.0,0.0,0.0,0.0,0.0,0.0,0.0,0.0,0.0,0.0,0.0,0.0,0.0,1500,1500,0.0,0.0,40.048287333299996,-88.2327566667,0.0,0.0,0.0,0.0,0.0,0.0,0.0,0.0,0.0,0.0,0.0,0,0.0,0.0,0.0,0.0,90.0,60.0,60.0,89.25408935549999,118.9842300415,119.2388916016,31.995998382600003,15.476941108699998,3.2300000191000002,0,2,25,1,59,283
130,1530629355803,1268803, RC,0,39.9586186,-88.445067899,0,0.0,0.0,0.0,0.0,0.0,0.0,0.0,0.0,0.0,0.0,0.0,0.0,0.0,1500,1500,0.0,0.0,40.0482865,-88.2327556667,0.0,0.0,0.0,0.0,0.0,0.0,0.0,0.0,0.0,0.0,0.0,0,0.0,0.0,0.0,0.0,90.0,60.0,60.0,89.25408935549999,118.9842300415,119.2388916016,31.995998382600003,15.4723939896,3.5099999905000003,0,2,25,1,60,285
131,1530629355854,1268854, RC,0,39.9586186,-88.445067899,0,0.0,0.0,0.0,0.0,0.0,0.0,0.0,0.0,0.0,0.0,0.0,0.0,0.0,1500,1500,0.0,0.0,40.0482865,-88.2327556667,0.0,0.0,0.0,0.0,0.0,0.0,0.0,0.0,0.0,0.0,0.0,0,0.0,0.0,0.0,0.0,90.0,60.0,60.0,89.25408935549999,118.9842300415,119.2388916016,31.995998382600003,15.4723939896,3.5099999905000003,0,2,25,1,60,287
132,1530629355905,1268905, RC,0,39.9586186,-88.445067899,0,0.0,0.0,0.0,0.0,0.0,0.0,0.0,0.0,0.0,0.0,0.0,0.0,0.0,1500,1500,0.0,0.0,40.0482865,-88.2327556667,0.0,0.0,0.0,0.0,0.0,0.0,0.0,0.0,0.0,0.0,0.0,0,0.0,0.0,0.0,0.0,90.0,60.0,60.0,89.25408935549999,118.9842300415,119.2388916016,31.995998382600003,15.4723939896,3.5099999905000003,0,2,25,1,62,289
133,1530629355955,1268955, RC,0,39.9586186,-88.445067899,0,0.0,0.0,0.0,0.0,0.0,0.0,0.0,0.0,0.0,0.0,0.0,0.0,0.0,1500,1500,0.0,0.0,40.0482865,-88.2327556667,0.0,0.0,0.0,0.0,0.0,0.0,0.0,0.0,0.0,0.0,0.0,0,0.0,0.0,0.0,0.0,90.0,60.0,60.0,89.25408935549999,118.9842300415,119.2388916016,31.995998382600003,15.4723939896,3.5099999905000003,0,2,25,1,55,291
134,1530629356006,1269006, RC,0,39.9586186,-88.445067899,0,0.0,0.0,0.0,0.0,0.0,0.0,0.0,0.0,0.0,0.0,0.0,0.0,0.0,1500,1500,0.0,0.0,40.0482865,-88.2327556667,0.0,0.0,0.0,0.0,0.0,0.0,0.0,0.0,0.0,0.0,0.0,0,0.0,0.0,0.0,0.0,90.0,60.0,60.0,89.25408935549999,118.9842300415,119.2388916016,31.995998382600003,15.4723939896,3.5099999905000003,0,2,25,1,64,293
135,1530629356056,1269056, RC,0,39.9586186,-88.445067899,0,0.0,0.0,0.0,0.0,0.0,0.0,0.0,0.0,0.0,0.0,0.0,0.0,0.0,1500,1500,0.0,0.0,40.0482865,-88.2327556667,0.0,0.0,0.0,0.0,0.0,0.0,0.0,0.0,0.0,0.0,0.0,0,0.0,0.0,0.0,0.0,90.0,60.0,60.0,89.25408935549999,119.0479049683,119.2388916016,31.995998382600003,15.4723939896,3.5099999905000003,0,2,25,1,59,295
136,1530629356107,1269107, RC,0,39.9586186,-88.445067899,0,0.0,0.0,0.0,0.0,0.0,0.0,0.0,0.0,0.0,0.0,0.0,0.0,0.0,1500,1500,0.0,0.0,40.0482865,-88.2327556667,0.0,0.0,0.0,0.0,0.0,0.0,0.0,0.0,0.0,0.0,0.0,0,0.0,0.0,0.0,0.0,90.0,60.0,60.0,89.25408935549999,118.9842300415,119.2388916016,31.995998382600003,15.4723939896,3.5099999905000003,0,2,25,1,58,297
137,1530629356158,1269158, RC,0,39.9586186,-88.445067899,0,0.0,0.0,0.0,0.0,0.0,0.0,0.0,0.0,0.0,0.0,0.0,0.0,0.0,1500,1500,0.0,0.0,40.0482865,-88.2327556667,0.0,0.0,0.0,0.0,0.0,0.0,0.0,0.0,0.0,0.0,0.0,0,0.0,0.0,0.0,0.0,90.0,60.0,60.0,89.25408935549999,118.9842300415,119.2388916016,31.995998382600003,15.4723939896,3.5099999905000003,0,2,25,1,62,299
138,1530629356208,1269208, RC,0,39.9586186,-88.445067899,0,0.0,0.0,0.0,0.0,0.0,0.0,0.0,0.0,0.0,0.0,0.0,0.0,0.0,1500,1500,0.0,0.0,40.0482865,-88.2327556667,0.0,0.0,0.0,0.0,0.0,0.0,0.0,0.0,0.0,0.0,0.0,0,0.0,0.0,0.0,0.0,90.0,60.0,60.0,89.25408935549999,118.9842300415,119.2388916016,31.995998382600003,15.4723939896,3.5099999905000003,0,2,25,1,58,301
139,1530629356259,1269259, RC,0,39.9586186,-88.445067899,0,0.0,0.0,0.0,0.0,0.0,0.0,0.0,0.0,0.0,0.0,0.0,0.0,0.0,1500,1500,0.0,0.0,40.0482865,-88.2327556667,0.0,0.0,0.0,0.0,0.0,0.0,0.0,0.0,0.0,0.0,0.0,0,0.0,0.0,0.0,0.0,90.0,60.0,60.0,89.25408935549999,118.9842300415,119.2388916016,31.995998382600003,15.4723939896,3.5099999905000003,0,2,25,1,67,303
140,1530629356309,1269309, RC,0,39.9586186,-88.445067899,0,0.0,0.0,0.0,0.0,0.0,0.0,0.0,0.0,0.0,0.0,0.0,0.0,0.0,1500,1500,0.0,0.0,40.0482865,-88.2327556667,0.0,0.0,0.0,0.0,0.0,0.0,0.0,0.0,0.0,0.0,0.0,0,0.0,0.0,0.0,0.0,90.0,60.0,60.0,89.25408935549999,119.0479049683,119.2388916016,31.995998382600003,15.4723939896,3.5099999905000003,0,2,25,1,61,305
141,1530629356360,1269360, RC,0,39.9586186,-88.445067899,0,0.0,0.0,0.0,0.0,0.0,0.0,0.0,0.0,0.0,0.0,0.0,0.0,0.0,1500,1500,0.0,0.0,40.0482865,-88.2327556667,0.0,0.0,0.0,0.0,0.0,0.0,0.0,0.0,0.0,0.0,0.0,0,0.0,0.0,0.0,0.0,90.0,60.0,60.0,89.25408935549999,118.9842300415,119.2388916016,31.995998382600003,15.4723939896,3.5099999905000003,0,2,25,1,65,307
142,1530629356410,1269410, RC,0,39.9586186,-88.445067899,0,0.0,0.0,0.0,0.0,0.0,0.0,0.0,0.0,0.0,0.0,0.0,0.0,0.0,1500,1500,0.0,0.0,40.0482865,-88.2327556667,0.0,0.0,0.0,0.0,0.0,0.0,0.0,0.0,0.0,0.0,0.0,0,0.0,0.0,0.0,0.0,90.0,60.0,60.0,89.25408935549999,118.9842300415,119.2388916016,31.995998382600003,15.4723939896,3.5099999905000003,0,2,25,1,61,309
143,1530629356461,1269461, RC,0,39.9586186,-88.445067899,0,0.0,0.0,0.0,0.0,0.0,0.0,0.0,0.0,0.0,0.0,0.0,0.0,0.0,1500,1500,0.0,0.0,40.0482865,-88.2327556667,0.0,0.0,0.0,0.0,0.0,0.0,0.0,0.0,0.0,0.0,0.0,0,0.0,0.0,0.0,0.0,90.0,60.0,60.0,89.25408935549999,118.9842300415,119.2388916016,31.995998382600003,15.4723939896,3.5099999905000003,0,2,25,1,59,311
144,1530629356512,1269512, RC,0,39.9586186,-88.445067899,0,0.0,0.0,0.0,0.0,0.0,0.0,0.0,0.0,0.0,0.0,0.0,0.0,0.0,1500,1500,0.0,0.0,40.0482865,-88.2327556667,0.0,0.0,0.0,0.0,0.0,0.0,0.0,0.0,0.0,0.0,0.0,0,0.0,0.0,0.0,0.0,90.0,60.0,60.0,89.25408935549999,118.9842300415,119.2388916016,31.995998382600003,15.4723939896,3.5099999905000003,0,2,25,1,63,313
145,1530629356562,1269562, RC,0,39.9586186,-88.445067899,0,0.0,0.0,0.0,0.0,0.0,0.0,0.0,0.0,0.0,0.0,0.0,0.0,0.0,1500,1500,0.0,0.0,40.0482865,-88.2327556667,0.0,0.0,0.0,0.0,0.0,0.0,0.0,0.0,0.0,0.0,0.0,0,0.0,0.0,0.0,0.0,90.0,60.0,60.0,89.25408935549999,119.0479049683,119.2388916016,31.995998382600003,15.4723939896,3.5099999905000003,0,2,25,1,62,315
146,1530629356613,1269613, RC,0,39.9586186,-88.445067899,0,0.0,0.0,0.0,0.0,0.0,0.0,0.0,0.0,0.0,0.0,0.0,0.0,0.0,1500,1500,0.0,0.0,40.0482865,-88.2327556667,0.0,0.0,0.0,0.0,0.0,0.0,0.0,0.0,0.0,0.0,0.0,0,0.0,0.0,0.0,0.0,90.0,60.0,60.0,89.25408935549999,119.0479049683,119.2388916016,31.995998382600003,15.4723939896,3.5099999905000003,0,2,25,1,65,317
147,1530629356663,1269663, RC,0,39.9586186,-88.445067899,0,0.0,0.0,0.0,0.0,0.0,0.0,0.0,0.0,0.0,0.0,0.0,0.0,0.0,1500,1500,0.0,0.0,40.0482865,-88.2327556667,0.0,0.0,0.0,0.0,0.0,0.0,0.0,0.0,0.0,0.0,0.0,0,0.0,0.0,0.0,0.0,90.0,60.0,60.0,89.25408935549999,119.0479049683,119.2388916016,31.995998382600003,15.4723939896,3.5099999905000003,0,2,25,1,64,319
148,1530629356714,1269714, RC,0,39.9586186,-88.445067899,0,0.0,0.0,0.0,0.0,0.0,0.0,0.0,0.0,0.0,0.0,0.0,0.0,0.0,1500,1500,0.0,0.0,40.0482865,-88.2327556667,0.0,0.0,0.0,0.0,0.0,0.0,0.0,0.0,0.0,0.0,0.0,0,0.0,0.0,0.0,0.0,90.0,60.0,60.0,89.25408935549999,119.0479049683,119.2388916016,31.995998382600003,15.4723939896,3.5099999905000003,0,2,25,1,69,321
149,1530629356764,1269764, RC,0,39.9586186,-88.445067899,0,0.0,0.0,0.0,0.0,0.0,0.0,0.0,0.0,0.0,0.0,0.0,0.0,0.0,1500,1500,0.0,0.0,40.0482865,-88.2327556667,0.0,0.0,0.0,0.0,0.0,0.0,0.0,0.0,0.0,0.0,0.0,0,0.0,0.0,0.0,0.0,90.0,60.0,60.0,89.25408935549999,119.0479049683,119.2388916016,31.995998382600003,15.4723939896,3.5099999905000003,0,2,25,1,63,323
150,1530629356815,1269815, RC,0,39.9586186,-88.445067899,0,0.0,0.0,0.0,0.0,0.0,0.0,0.0,0.0,0.0,0.0,0.0,0.0,0.0,1500,1500,0.0,0.0,40.048285,-88.232755,0.0,0.0,0.0,0.0,0.0,0.0,0.0,0.0,0.0,0.0,0.0,0,0.0,0.0,0.0,0.0,90.0,60.0,60.0,89.25408935549999,119.0479049683,119.2388916016,31.995998382600003,15.4675998688,3.0099999905000003,0,2,25,1,65,325
151,1530629356865,1269865, RC,0,39.9586186,-88.445067899,0,0.0,0.0,0.0,0.0,0.0,0.0,0.0,0.0,0.0,0.0,0.0,0.0,0.0,1500,1500,0.0,0.0,40.048285,-88.232755,0.0,0.0,0.0,0.0,0.0,0.0,0.0,0.0,0.0,0.0,0.0,0,0.0,0.0,0.0,0.0,90.0,60.0,60.0,89.25408935549999,119.2388916016,119.2388916016,31.995998382600003,15.4675998688,3.0099999905000003,0,2,25,1,65,327
152,1530629356916,1269916, RC,0,39.9586186,-88.445067899,0,0.0,0.0,0.0,0.0,0.0,0.0,0.0,0.0,0.0,0.0,0.0,0.0,0.0,1500,1500,0.0,0.0,40.048285,-88.232755,0.0,0.0,0.0,0.0,0.0,0.0,0.0,0.0,0.0,0.0,0.0,0,0.0,0.0,0.0,0.0,90.0,60.0,60.0,89.25408935549999,119.3662033081,119.2388916016,31.995998382600003,15.4675998688,3.0099999905000003,0,2,25,1,63,329
153,1530629356967,1269967, RC,0,39.9586186,-88.445067899,0,0.0,0.0,0.0,0.0,0.0,0.0,0.0,0.0,0.0,0.0,0.0,0.0,0.0,1500,1500,0.0,0.0,40.048285,-88.232755,0.0,0.0,0.0,0.0,0.0,0.0,0.0,0.0,0.0,0.0,0.0,0,0.0,0.0,0.0,0.0,90.0,60.0,60.0,89.25408935549999,119.3662033081,119.2388916016,31.995998382600003,15.4675998688,3.0099999905000003,0,2,25,1,64,331
154,1530629357017,1270017, RC,0,39.9586186,-88.445067899,0,0.0,0.0,0.0,0.0,0.0,0.0,0.0,0.0,0.0,0.0,0.0,0.0,0.0,1500,1500,0.0,0.0,40.048285,-88.232755,0.0,0.0,0.0,0.0,0.0,0.0,0.0,0.0,0.0,0.0,0.0,0,0.0,0.0,0.0,0.0,90.0,60.0,60.0,89.25408935549999,119.1115570068,119.2388916016,31.995998382600003,15.4675998688,3.0099999905000003,0,2,25,1,62,333
155,1530629357068,1270068, RC,0,39.9586186,-88.445067899,0,0.0,0.0,0.0,0.0,0.0,0.0,0.0,0.0,0.0,0.0,0.0,0.0,0.0,1500,1500,0.0,0.0,40.048285,-88.232755,0.0,0.0,0.0,0.0,0.0,0.0,0.0,0.0,0.0,0.0,0.0,0,0.0,0.0,0.0,0.0,90.0,60.0,60.0,89.25408935549999,119.1115570068,119.2388916016,31.995998382600003,15.4675998688,3.0099999905000003,0,2,25,1,64,335
156,1530629357118,1270118, RC,0,39.9586186,-88.445067899,0,0.0,0.0,0.0,0.0,0.0,0.0,0.0,0.0,0.0,0.0,0.0,0.0,0.0,1500,1500,0.0,0.0,40.048285,-88.232755,0.0,0.0,0.0,0.0,0.0,0.0,0.0,0.0,0.0,0.0,0.0,0,0.0,0.0,0.0,0.0,90.0,60.0,60.0,89.25408935549999,119.1115570068,119.2388916016,31.995998382600003,15.4675998688,3.0099999905000003,0,2,25,1,62,337
157,1530629357169,1270169, RC,0,39.9586186,-88.445067899,0,0.0,0.0,0.0,0.0,0.0,0.0,0.0,0.0,0.0,0.0,0.0,0.0,0.0,1500,1500,0.0,0.0,40.048285,-88.232755,0.0,0.0,0.0,0.0,0.0,0.0,0.0,0.0,0.0,0.0,0.0,0,0.0,0.0,0.0,0.0,90.0,60.0,60.0,89.25408935549999,119.1115570068,119.2388916016,31.995998382600003,15.4675998688,3.0099999905000003,0,2,25,1,65,339
158,1530629357219,1270219, RC,0,39.9586186,-88.445067899,0,0.0,0.0,0.0,0.0,0.0,0.0,0.0,0.0,0.0,0.0,0.0,0.0,0.0,1500,1500,0.0,0.0,40.048285,-88.232755,0.0,0.0,0.0,0.0,0.0,0.0,0.0,0.0,0.0,0.0,0.0,0,0.0,0.0,0.0,0.0,90.0,60.0,60.0,89.25408935549999,119.1115570068,119.2388916016,31.995998382600003,15.4675998688,3.0099999905000003,0,2,25,1,58,341
159,1530629357270,1270270, RC,0,39.9586186,-88.445067899,0,0.0,0.0,0.0,0.0,0.0,0.0,0.0,0.0,0.0,0.0,0.0,0.0,0.0,1500,1500,0.0,0.0,40.048285,-88.232755,0.0,0.0,0.0,0.0,0.0,0.0,0.0,0.0,0.0,0.0,0.0,0,0.0,0.0,0.0,0.0,90.0,60.0,60.0,89.25408935549999,119.1115570068,119.2388916016,31.995998382600003,15.4675998688,3.0099999905000003,0,2,25,1,62,343
160,1530629357321,1270321, RC,0,39.9586186,-88.445067899,0,0.0,0.0,0.0,0.0,0.0,0.0,0.0,0.0,0.0,0.0,0.0,0.0,0.0,1500,1500,0.0,0.0,40.048285,-88.232755,0.0,0.0,0.0,0.0,0.0,0.0,0.0,0.0,0.0,0.0,0.0,0,0.0,0.0,0.0,0.0,90.0,60.0,60.0,89.25408935549999,119.1115570068,119.2388916016,31.995998382600003,15.4675998688,3.0099999905000003,0,2,25,1,62,345
161,1530629357371,1270371, RC,0,39.9586186,-88.445067899,0,0.0,0.0,0.0,0.0,0.0,0.0,0.0,0.0,0.0,0.0,0.0,0.0,0.0,1500,1500,0.0,0.0,40.048285,-88.232755,0.0,0.0,0.0,0.0,0.0,0.0,0.0,0.0,0.0,0.0,0.0,0,0.0,0.0,0.0,0.0,90.0,60.0,60.0,89.25408935549999,119.1115570068,119.2388916016,31.995998382600003,15.4675998688,3.0099999905000003,0,2,25,1,60,347
162,1530629357422,1270422, RC,0,39.9586186,-88.445067899,0,0.0,0.0,0.0,0.0,0.0,0.0,0.0,0.0,0.0,0.0,0.0,0.0,0.0,1500,1500,0.0,0.0,40.048285,-88.232755,0.0,0.0,0.0,0.0,0.0,0.0,0.0,0.0,0.0,0.0,0.0,0,0.0,0.0,0.0,0.0,90.0,60.0,60.0,89.25408935549999,119.1115570068,119.2388916016,31.995998382600003,15.4675998688,3.0099999905000003,0,2,25,1,66,349
163,1530629357472,1270472, RC,0,39.9586186,-88.445067899,0,0.0,0.0,0.0,0.0,0.0,0.0,0.0,0.0,0.0,0.0,0.0,0.0,0.0,1500,1500,0.0,0.0,40.048285,-88.232755,0.0,0.0,0.0,0.0,0.0,0.0,0.0,0.0,0.0,0.0,0.0,0,0.0,0.0,0.0,0.0,90.0,60.0,60.0,89.25408935549999,119.1115570068,119.2388916016,31.995998382600003,15.4675998688,3.0099999905000003,0,2,25,1,59,351
164,1530629357523,1270523, RC,0,39.9586186,-88.445067899,0,0.0,0.0,0.0,0.0,0.0,0.0,0.0,0.0,0.0,0.0,0.0,0.0,0.0,1500,1500,0.0,0.0,40.048285,-88.232755,0.0,0.0,0.0,0.0,0.0,0.0,0.0,0.0,0.0,0.0,0.0,0,0.0,0.0,0.0,0.0,90.0,60.0,60.0,89.25408935549999,119.1115570068,119.2388916016,31.995998382600003,15.4675998688,3.0099999905000003,0,2,25,1,56,353
165,1530629357573,1270573, RC,0,39.9586186,-88.445067899,0,0.0,0.0,0.0,0.0,0.0,0.0,0.0,0.0,0.0,0.0,0.0,0.0,0.0,1500,1500,0.0,0.0,40.048285,-88.232755,0.0,0.0,0.0,0.0,0.0,0.0,0.0,0.0,0.0,0.0,0.0,0,0.0,0.0,0.0,0.0,90.0,60.0,60.0,89.25408935549999,119.1115570068,119.2388916016,31.995998382600003,15.4675998688,3.0099999905000003,0,2,25,1,60,355
