,(0)linux time (ms),    (1)uptime  (ms),      (2)drive mode,(3)mpc step counter,(4)mpc origin latitude  (deg),(5)mpc origin longitude  (deg),(6)closest trajectory point index to robot,(7)mpc error x (W;E)  (m),(8)mpc error y (W;E)  (m),(9)abs mpc error (m),(10)input [x] for mhe (m),(11)input [y] for mhe (m),(12)input [speed] for mhe (m/s),(13)input [vyaw] for mhe (rad/s),(14)mhe output x  (m),(15)mhe output y  (m),(16)mhe output speed  (m/s),(17)mhe output yaw  (rad),(18)mpc reference heading (rad),(19)mpc turn rate command (rad/s),(20)turn rate command as PWM,(21)throttle command as PWM,(22)primary gps latitude (deg),(23)primary gps longitude (deg),(24)secondary gps latitude  (deg),(25)secondary gps longitude (deg),(26)accelerometer x (m/s^2),(27)accelerometer y (m/s^2),(28)accelerometer z (m/s^2),(29)gyro yaw rate (rad/s),(30)gyro pitch rate   (rad/s),(31)gyro roll rate (rad/s),      (32)yaw (rad),  (33)pitch   (rad),     (34)roll (rad),(35)sonar1 measurement (m),(36)ultrasonic sensor measurement (m),(37)primary gps time (s),(38)normalized turn rate command,(39)normalized throttle command,(40)speed calculation from encoder left (m/s),(41)speed calculation from encoder right (m/s),(42)front gimbal target angle (degrees from straight down),(43)left gimbal target angle  (degrees from straight down),(44)right gimbal target angle  (degrees from straight down),(45)front gimbal measured angle  (degrees from straight down),(46)left gimbal measured angle    (degrees from straight down),(47)right gimbal measured angle  (degrees from straight down),(48)internal temperature (C),(49)battery voltage (V),(50)primary gps type,(51)secondary gps type,    (52)MPC R value, (53)MPC Q[0] value,Unnamed: 54,weed_num,start
0,1530628379767,292767, RC,0,39.9586186,-88.445067899,0,0.0,0.0,0.0,0.0,0.0,0.0,0.0,0.0,0.0,0.0,0.0,0.0,0.0,1500,1500,0.0,0.0,40.0482576667,-88.2331576667,0.0,0.0,0.0,0.0,0.0,0.0,0.0,0.0,0.0,0.0,0.0,0,0.0,0.0,0.0,0.0,90.0,90.0,90.0,88.681137085,88.1718444824,90.0816955566,19.0839996338,16.0048847198,2.629999876,0,2,25,1,118,1
1,1530628379817,292817, RC,0,39.9586186,-88.445067899,0,0.0,0.0,0.0,0.0,0.0,0.0,0.0,0.0,0.0,0.0,0.0,0.0,0.0,1500,1500,0.0,0.0,40.0482576667,-88.2331576667,0.0,0.0,0.0,0.0,0.0,0.0,0.0,0.0,0.0,0.0,0.0,0,0.0,0.0,0.0,0.0,90.0,90.0,90.0,88.681137085,88.2991638184,86.580291748,19.0839996338,16.0048847198,2.629999876,0,2,25,1,54,4
2,1530628379868,292868, RC,0,39.9586186,-88.445067899,0,0.0,0.0,0.0,0.0,0.0,0.0,0.0,0.0,0.0,0.0,0.0,0.0,0.0,1500,1500,0.0,0.0,40.048259,-88.2331576667,0.0,0.0,0.0,0.0,0.0,0.0,0.0,0.0,0.0,0.0,0.0,0,0.0,0.0,0.0,0.0,90.0,90.0,90.0,88.681137085,88.235496521,88.1081771851,19.0839996338,16.0048847198,2.629999876,0,2,25,1,102,6
3,1530628379918,292918, RC,0,39.9586186,-88.445067899,0,0.0,0.0,0.0,0.0,0.0,0.0,0.0,0.0,0.0,0.0,0.0,0.0,0.0,1500,1500,0.0,0.0,40.048259,-88.2331576667,0.0,0.0,0.0,0.0,0.0,0.0,0.0,0.0,0.0,0.0,0.0,0,0.0,0.0,0.0,0.0,90.0,90.0,90.0,88.681137085,88.235496521,88.6174697876,19.0839996338,16.0048847198,2.629999876,0,2,25,1,103,8
4,1530628379968,292968, RC,0,39.9586186,-88.445067899,0,0.0,0.0,0.0,0.0,0.0,0.0,0.0,0.0,0.0,0.0,0.0,0.0,0.0,1500,1500,0.0,0.0,40.048259,-88.2331576667,0.0,0.0,0.0,0.0,0.0,0.0,0.0,0.0,0.0,0.0,0.0,0,0.0,0.0,0.0,0.0,90.0,90.0,90.0,88.681137085,88.235496521,88.6174697876,19.0839996338,16.0048847198,2.629999876,0,2,25,1,135,12
5,1530628380019,293019, RC,0,39.9586186,-88.445067899,0,0.0,0.0,0.0,0.0,0.0,0.0,0.0,0.0,0.0,0.0,0.0,0.0,0.0,1500,1500,0.0,0.0,40.048259,-88.2331576667,0.0,0.0,0.0,0.0,0.0,0.0,0.0,0.0,0.0,0.0,0.0,0,0.0,0.0,0.0,0.0,90.0,90.0,90.0,88.681137085,88.235496521,88.6174697876,19.0839996338,16.0048847198,2.629999876,0,2,25,1,152,15
6,1530628380069,293069, RC,0,39.9586186,-88.445067899,0,0.0,0.0,0.0,0.0,0.0,0.0,0.0,0.0,0.0,0.0,0.0,0.0,0.0,1500,1500,0.0,0.0,40.048259,-88.2331576667,0.0,0.0,0.0,0.0,0.0,0.0,0.0,0.0,0.0,0.0,0.0,0,0.0,0.0,0.0,0.0,90.0,90.0,90.0,88.681137085,88.2991638184,88.6174697876,19.0839996338,16.0048847198,2.629999876,0,2,25,1,169,17
7,1530628380119,293119, RC,0,39.9586186,-88.445067899,0,0.0,0.0,0.0,0.0,0.0,0.0,0.0,0.0,0.0,0.0,0.0,0.0,0.0,1500,1500,0.0,0.0,40.048259,-88.2331576667,0.0,0.0,0.0,0.0,0.0,0.0,0.0,0.0,0.0,0.0,0.0,0,0.0,0.0,0.0,0.0,90.0,90.0,90.0,88.681137085,88.235496521,88.6174697876,19.0839996338,16.0048847198,2.629999876,0,2,25,1,170,19
8,1530628380170,293170, RC,0,39.9586186,-88.445067899,0,0.0,0.0,0.0,0.0,0.0,0.0,0.0,0.0,0.0,0.0,0.0,0.0,0.0,1500,1500,0.0,0.0,40.048259,-88.2331576667,0.0,0.0,0.0,0.0,0.0,0.0,0.0,0.0,0.0,0.0,0.0,0,0.0,0.0,0.0,0.0,90.0,90.0,90.0,88.681137085,88.235496521,88.6174697876,19.0839996338,16.0048847198,2.629999876,0,2,25,1,174,21
9,1530628380220,293220, RC,0,39.9586186,-88.445067899,0,0.0,0.0,0.0,0.0,0.0,0.0,0.0,0.0,0.0,0.0,0.0,0.0,0.0,1500,1500,0.0,0.0,40.048259,-88.2331576667,0.0,0.0,0.0,0.0,0.0,0.0,0.0,0.0,0.0,0.0,0.0,0,0.0,0.0,0.0,0.0,90.0,90.0,90.0,88.681137085,88.235496521,88.6174697876,19.0839996338,16.0048847198,2.629999876,0,2,25,1,174,23
10,1530628380271,293271, RC,0,39.9586186,-88.445067899,0,0.0,0.0,0.0,0.0,0.0,0.0,0.0,0.0,0.0,0.0,0.0,0.0,0.0,1500,1500,0.0,0.0,40.048259,-88.2331576667,0.0,0.0,0.0,0.0,0.0,0.0,0.0,0.0,0.0,0.0,0.0,0,0.0,0.0,0.0,0.0,90.0,90.0,90.0,88.681137085,88.2991638184,88.6174697876,19.0839996338,16.0048847198,2.629999876,0,2,25,1,171,26
11,1530628380321,293321, RC,0,39.9586186,-88.445067899,0,0.0,0.0,0.0,0.0,0.0,0.0,0.0,0.0,0.0,0.0,0.0,0.0,0.0,1500,1500,0.0,0.0,40.048259,-88.2331576667,0.0,0.0,0.0,0.0,0.0,0.0,0.0,0.0,0.0,0.0,0.0,0,0.0,0.0,0.0,0.0,90.0,90.0,90.0,88.681137085,88.2991638184,88.6174697876,19.0839996338,16.0048847198,2.629999876,0,2,25,1,159,28
12,1530628380371,293371, RC,0,39.9586186,-88.445067899,0,0.0,0.0,0.0,0.0,0.0,0.0,0.0,0.0,0.0,0.0,0.0,0.0,0.0,1500,1500,0.0,0.0,40.048259,-88.2331576667,0.0,0.0,0.0,0.0,0.0,0.0,0.0,0.0,0.0,0.0,0.0,0,0.0,0.0,0.0,0.0,90.0,90.0,90.0,88.681137085,88.2991638184,88.6174697876,19.0839996338,16.0048847198,2.629999876,0,2,25,1,164,30
13,1530628380422,293422, RC,0,39.9586186,-88.445067899,0,0.0,0.0,0.0,0.0,0.0,0.0,0.0,0.0,0.0,0.0,0.0,0.0,0.0,1500,1500,0.0,0.0,40.048259,-88.2331576667,0.0,0.0,0.0,0.0,0.0,0.0,0.0,0.0,0.0,0.0,0.0,0,0.0,0.0,0.0,0.0,90.0,90.0,90.0,88.681137085,88.2991638184,88.6174697876,19.0839996338,16.0048847198,2.629999876,0,2,25,1,159,32
14,1530628380472,293472, RC,0,39.9586186,-88.445067899,0,0.0,0.0,0.0,0.0,0.0,0.0,0.0,0.0,0.0,0.0,0.0,0.0,0.0,1500,1500,0.0,0.0,40.048259,-88.2331576667,0.0,0.0,0.0,0.0,0.0,0.0,0.0,0.0,0.0,0.0,0.0,0,0.0,0.0,0.0,0.0,90.0,90.0,90.0,88.681137085,88.2991638184,88.6174697876,19.0839996338,16.0048847198,2.629999876,0,2,25,1,162,34
15,1530628380523,293523, RC,0,39.9586186,-88.445067899,0,0.0,0.0,0.0,0.0,0.0,0.0,0.0,0.0,0.0,0.0,0.0,0.0,0.0,1500,1500,0.0,0.0,40.048259,-88.2331576667,0.0,0.0,0.0,0.0,0.0,0.0,0.0,0.0,0.0,0.0,0.0,0,0.0,0.0,0.0,0.0,90.0,90.0,90.0,88.681137085,88.2991638184,88.6174697876,19.0839996338,16.0048847198,2.629999876,0,2,25,1,157,36
16,1530628380573,293573, RC,0,39.9586186,-88.445067899,0,0.0,0.0,0.0,0.0,0.0,0.0,0.0,0.0,0.0,0.0,0.0,0.0,0.0,1500,1500,0.0,0.0,40.048259,-88.2331576667,0.0,0.0,0.0,0.0,0.0,0.0,0.0,0.0,0.0,0.0,0.0,0,0.0,0.0,0.0,0.0,90.0,90.0,90.0,88.74479675290002,88.2991638184,88.6174697876,19.0839996338,16.0048847198,2.629999876,0,2,25,1,143,38
17,1530628380623,293623, RC,0,39.9586186,-88.445067899,0,0.0,0.0,0.0,0.0,0.0,0.0,0.0,0.0,0.0,0.0,0.0,0.0,0.0,1500,1500,0.0,0.0,40.048259,-88.2331576667,0.0,0.0,0.0,0.0,0.0,0.0,0.0,0.0,0.0,0.0,0.0,0,0.0,0.0,0.0,0.0,90.0,90.0,90.0,88.74479675290002,88.2991638184,88.6174697876,19.0839996338,16.0048847198,2.629999876,0,2,25,1,139,40
18,1530628380674,293674, RC,0,39.9586186,-88.445067899,0,0.0,0.0,0.0,0.0,0.0,0.0,0.0,0.0,0.0,0.0,0.0,0.0,0.0,1500,1500,0.0,0.0,40.048259,-88.2331576667,0.0,0.0,0.0,0.0,0.0,0.0,0.0,0.0,0.0,0.0,0.0,0,0.0,0.0,0.0,0.0,90.0,90.0,90.0,88.74479675290002,88.2991638184,88.6174697876,19.0839996338,16.000226974500002,3.2300000191000002,0,2,25,1,152,43
19,1530628380724,293724, RC,0,39.9586186,-88.445067899,0,0.0,0.0,0.0,0.0,0.0,0.0,0.0,0.0,0.0,0.0,0.0,0.0,0.0,1500,1500,0.0,0.0,40.048259,-88.2331576667,0.0,0.0,0.0,0.0,0.0,0.0,0.0,0.0,0.0,0.0,0.0,0,0.0,0.0,0.0,0.0,90.0,90.0,90.0,88.74479675290002,88.2991638184,88.6174697876,19.0839996338,16.000226974500002,3.2300000191000002,0,2,25,1,148,45
20,1530628380774,293774, RC,0,39.9586186,-88.445067899,0,0.0,0.0,0.0,0.0,0.0,0.0,0.0,0.0,0.0,0.0,0.0,0.0,0.0,1500,1500,0.0,0.0,40.048259,-88.2331576667,0.0,0.0,0.0,0.0,0.0,0.0,0.0,0.0,0.0,0.0,0.0,0,0.0,0.0,0.0,0.0,90.0,90.0,90.0,88.74479675290002,88.36282348629999,88.6174697876,19.0839996338,16.000226974500002,3.2300000191000002,0,2,25,1,155,47
21,1530628380825,293825, RC,0,39.9586186,-88.445067899,0,0.0,0.0,0.0,0.0,0.0,0.0,0.0,0.0,0.0,0.0,0.0,0.0,0.0,1500,1500,0.0,0.0,40.0482575,-88.2331568333,0.0,0.0,0.0,0.0,0.0,0.0,0.0,0.0,0.0,0.0,0.0,0,0.0,0.0,0.0,0.0,90.0,90.0,90.0,88.74479675290002,88.36282348629999,88.6174697876,19.0839996338,16.000226974500002,3.2300000191000002,0,2,25,1,139,49
22,1530628380875,293875, RC,0,39.9586186,-88.445067899,0,0.0,0.0,0.0,0.0,0.0,0.0,0.0,0.0,0.0,0.0,0.0,0.0,0.0,1500,1500,0.0,0.0,40.0482575,-88.2331568333,0.0,0.0,0.0,0.0,0.0,0.0,0.0,0.0,0.0,0.0,0.0,0,0.0,0.0,0.0,0.0,90.0,90.0,90.0,88.74479675290002,88.36282348629999,88.6174697876,19.0839996338,16.000226974500002,3.2300000191000002,0,2,25,1,143,51
23,1530628380925,293925, RC,0,39.9586186,-88.445067899,0,0.0,0.0,0.0,0.0,0.0,0.0,0.0,0.0,0.0,0.0,0.0,0.0,0.0,1500,1500,0.0,0.0,40.0482575,-88.2331568333,0.0,0.0,0.0,0.0,0.0,0.0,0.0,0.0,0.0,0.0,0.0,0,0.0,0.0,0.0,0.0,90.0,90.0,90.0,88.74479675290002,88.36282348629999,88.6174697876,19.0839996338,16.000226974500002,3.2300000191000002,0,2,25,1,134,53
24,1530628380976,293976, RC,0,39.9586186,-88.445067899,0,0.0,0.0,0.0,0.0,0.0,0.0,0.0,0.0,0.0,0.0,0.0,0.0,0.0,1500,1500,0.0,0.0,40.0482575,-88.2331568333,0.0,0.0,0.0,0.0,0.0,0.0,0.0,0.0,0.0,0.0,0.0,0,0.0,0.0,0.0,0.0,90.0,90.0,90.0,88.74479675290002,88.36282348629999,88.6174697876,19.0839996338,16.000226974500002,3.2300000191000002,0,2,25,1,136,55
25,1530628381026,294026, RC,0,39.9586186,-88.445067899,0,0.0,0.0,0.0,0.0,0.0,0.0,0.0,0.0,0.0,0.0,0.0,0.0,0.0,1500,1500,0.0,0.0,40.0482575,-88.2331568333,0.0,0.0,0.0,0.0,0.0,0.0,0.0,0.0,0.0,0.0,0.0,0,0.0,0.0,0.0,0.0,90.0,90.0,90.0,88.74479675290002,88.36282348629999,88.6174697876,19.0839996338,16.000226974500002,3.2300000191000002,0,2,25,1,145,58
26,1530628381077,294077, RC,0,39.9586186,-88.445067899,0,0.0,0.0,0.0,0.0,0.0,0.0,0.0,0.0,0.0,0.0,0.0,0.0,0.0,1500,1500,0.0,0.0,40.0482575,-88.2331568333,0.0,0.0,0.0,0.0,0.0,0.0,0.0,0.0,0.0,0.0,0.0,0,0.0,0.0,0.0,0.0,90.0,90.0,90.0,88.74479675290002,88.36282348629999,88.6174697876,19.0839996338,16.000226974500002,3.2300000191000002,0,2,25,1,155,60
27,1530628381127,294127, RC,0,39.9586186,-88.445067899,0,0.0,0.0,0.0,0.0,0.0,0.0,0.0,0.0,0.0,0.0,0.0,0.0,0.0,1500,1500,0.0,0.0,40.0482575,-88.2331568333,0.0,0.0,0.0,0.0,0.0,0.0,0.0,0.0,0.0,0.0,0.0,0,0.0,0.0,0.0,0.0,90.0,90.0,90.0,88.74479675290002,88.36282348629999,88.6174697876,19.0839996338,16.000226974500002,3.2300000191000002,0,2,25,1,132,62
28,1530628381177,294177, RC,0,39.9586186,-88.445067899,0,0.0,0.0,0.0,0.0,0.0,0.0,0.0,0.0,0.0,0.0,0.0,0.0,0.0,1500,1500,0.0,0.0,40.0482575,-88.2331568333,0.0,0.0,0.0,0.0,0.0,0.0,0.0,0.0,0.0,0.0,0.0,0,0.0,0.0,0.0,0.0,90.0,90.0,90.0,88.74479675290002,88.36282348629999,88.6174697876,19.0839996338,16.000226974500002,3.2300000191000002,0,2,25,1,147,64
29,1530628381228,294228, RC,0,39.9586186,-88.445067899,0,0.0,0.0,0.0,0.0,0.0,0.0,0.0,0.0,0.0,0.0,0.0,0.0,0.0,1500,1500,0.0,0.0,40.0482575,-88.2331568333,0.0,0.0,0.0,0.0,0.0,0.0,0.0,0.0,0.0,0.0,0.0,0,0.0,0.0,0.0,0.0,90.0,90.0,90.0,88.74479675290002,88.36282348629999,88.6174697876,19.0839996338,16.000226974500002,3.2300000191000002,0,2,25,1,136,66
30,1530628381278,294278, RC,0,39.9586186,-88.445067899,0,0.0,0.0,0.0,0.0,0.0,0.0,0.0,0.0,0.0,0.0,0.0,0.0,0.0,1500,1500,0.0,0.0,40.0482575,-88.2331568333,0.0,0.0,0.0,0.0,0.0,0.0,0.0,0.0,0.0,0.0,0.0,0,0.0,0.0,0.0,0.0,90.0,90.0,90.0,88.74479675290002,88.36282348629999,88.6174697876,19.0839996338,16.000226974500002,3.2300000191000002,0,2,25,1,142,68
31,1530628381328,294328, RC,0,39.9586186,-88.445067899,0,0.0,0.0,0.0,0.0,0.0,0.0,0.0,0.0,0.0,0.0,0.0,0.0,0.0,1500,1500,0.0,0.0,40.0482575,-88.2331568333,0.0,0.0,0.0,0.0,0.0,0.0,0.0,0.0,0.0,0.0,0.0,0,0.0,0.0,0.0,0.0,90.0,90.0,90.0,88.74479675290002,88.36282348629999,88.6174697876,19.0839996338,16.000226974500002,3.2300000191000002,0,2,25,1,142,70
32,1530628381379,294379, RC,0,39.9586186,-88.445067899,0,0.0,0.0,0.0,0.0,0.0,0.0,0.0,0.0,0.0,0.0,0.0,0.0,0.0,1500,1500,0.0,0.0,40.0482575,-88.2331568333,0.0,0.0,0.0,0.0,0.0,0.0,0.0,0.0,0.0,0.0,0.0,0,0.0,0.0,0.0,0.0,90.0,90.0,90.0,88.74479675290002,88.4264831543,88.6174697876,19.0839996338,16.000226974500002,3.2300000191000002,0,2,25,1,136,73
33,1530628381429,294429, RC,0,39.9586186,-88.445067899,0,0.0,0.0,0.0,0.0,0.0,0.0,0.0,0.0,0.0,0.0,0.0,0.0,0.0,1500,1500,0.0,0.0,40.0482575,-88.2331568333,0.0,0.0,0.0,0.0,0.0,0.0,0.0,0.0,0.0,0.0,0.0,0,0.0,0.0,0.0,0.0,90.0,90.0,90.0,88.74479675290002,88.4264831543,88.6174697876,19.0839996338,16.000226974500002,3.2300000191000002,0,2,25,1,143,75
34,1530628381479,294479, RC,0,39.9586186,-88.445067899,0,0.0,0.0,0.0,0.0,0.0,0.0,0.0,0.0,0.0,0.0,0.0,0.0,0.0,1500,1500,0.0,0.0,40.0482575,-88.2331568333,0.0,0.0,0.0,0.0,0.0,0.0,0.0,0.0,0.0,0.0,0.0,0,0.0,0.0,0.0,0.0,90.0,90.0,90.0,88.74479675290002,88.4264831543,88.6174697876,19.0839996338,16.000226974500002,3.2300000191000002,0,2,25,1,150,77
35,1530628381530,294530, RC,0,39.9586186,-88.445067899,0,0.0,0.0,0.0,0.0,0.0,0.0,0.0,0.0,0.0,0.0,0.0,0.0,0.0,1500,1500,0.0,0.0,40.0482575,-88.2331568333,0.0,0.0,0.0,0.0,0.0,0.0,0.0,0.0,0.0,0.0,0.0,0,0.0,0.0,0.0,0.0,90.0,90.0,90.0,88.74479675290002,88.4264831543,88.6174697876,19.0839996338,16.000226974500002,3.2300000191000002,0,2,25,1,129,79
36,1530628381580,294580, RC,0,39.9586186,-88.445067899,0,0.0,0.0,0.0,0.0,0.0,0.0,0.0,0.0,0.0,0.0,0.0,0.0,0.0,1500,1500,0.0,0.0,40.0482575,-88.2331568333,0.0,0.0,0.0,0.0,0.0,0.0,0.0,0.0,0.0,0.0,0.0,0,0.0,0.0,0.0,0.0,90.0,90.0,90.0,88.74479675290002,88.4264831543,88.6174697876,19.0839996338,16.000226974500002,3.2300000191000002,0,2,25,1,149,81
37,1530628381630,294630, RC,0,39.9586186,-88.445067899,0,0.0,0.0,0.0,0.0,0.0,0.0,0.0,0.0,0.0,0.0,0.0,0.0,0.0,1500,1500,0.0,0.0,40.0482575,-88.2331568333,0.0,0.0,0.0,0.0,0.0,0.0,0.0,0.0,0.0,0.0,0.0,0,0.0,0.0,0.0,0.0,90.0,90.0,90.0,88.74479675290002,88.4264831543,88.6174697876,19.0839996338,16.000226974500002,3.2300000191000002,0,2,25,1,139,83
38,1530628381681,294681, RC,0,39.9586186,-88.445067899,0,0.0,0.0,0.0,0.0,0.0,0.0,0.0,0.0,0.0,0.0,0.0,0.0,0.0,1500,1500,0.0,0.0,40.0482575,-88.2331568333,0.0,0.0,0.0,0.0,0.0,0.0,0.0,0.0,0.0,0.0,0.0,0,0.0,0.0,0.0,0.0,90.0,90.0,90.0,88.74479675290002,88.4264831543,88.6174697876,19.0839996338,15.995625495899999,3.5599999427999998,0,2,25,1,150,86
39,1530628381731,294731, RC,0,39.9586186,-88.445067899,0,0.0,0.0,0.0,0.0,0.0,0.0,0.0,0.0,0.0,0.0,0.0,0.0,0.0,1500,1500,0.0,0.0,40.0482575,-88.2331568333,0.0,0.0,0.0,0.0,0.0,0.0,0.0,0.0,0.0,0.0,0.0,0,0.0,0.0,0.0,0.0,90.0,90.0,90.0,88.74479675290002,88.4264831543,88.6174697876,19.0839996338,15.995625495899999,3.5599999427999998,0,2,25,1,151,88
40,1530628381781,294781, RC,0,39.9586186,-88.445067899,0,0.0,0.0,0.0,0.0,0.0,0.0,0.0,0.0,0.0,0.0,0.0,0.0,0.0,1500,1500,0.0,0.0,40.0482575,-88.2331568333,0.0,0.0,0.0,0.0,0.0,0.0,0.0,0.0,0.0,0.0,0.0,0,0.0,0.0,0.0,0.0,90.0,90.0,90.0,88.74479675290002,88.4264831543,88.6174697876,19.0839996338,15.995625495899999,3.5599999427999998,0,2,25,1,138,90
41,1530628381832,294832, RC,0,39.9586186,-88.445067899,0,0.0,0.0,0.0,0.0,0.0,0.0,0.0,0.0,0.0,0.0,0.0,0.0,0.0,1500,1500,0.0,0.0,40.048258,-88.2331563333,0.0,0.0,0.0,0.0,0.0,0.0,0.0,0.0,0.0,0.0,0.0,0,0.0,0.0,0.0,0.0,90.0,90.0,90.0,88.74479675290002,88.4264831543,88.6174697876,19.0839996338,15.995625495899999,3.5599999427999998,0,2,25,1,141,92
42,1530628381882,294882, RC,0,39.9586186,-88.445067899,0,0.0,0.0,0.0,0.0,0.0,0.0,0.0,0.0,0.0,0.0,0.0,0.0,0.0,1500,1500,0.0,0.0,40.048258,-88.2331563333,0.0,0.0,0.0,0.0,0.0,0.0,0.0,0.0,0.0,0.0,0.0,0,0.0,0.0,0.0,0.0,90.0,90.0,90.0,88.74479675290002,88.4264831543,88.6174697876,19.0839996338,15.995625495899999,3.5599999427999998,0,2,25,1,138,94
43,1530628381932,294932, RC,0,39.9586186,-88.445067899,0,0.0,0.0,0.0,0.0,0.0,0.0,0.0,0.0,0.0,0.0,0.0,0.0,0.0,1500,1500,0.0,0.0,40.048258,-88.2331563333,0.0,0.0,0.0,0.0,0.0,0.0,0.0,0.0,0.0,0.0,0.0,0,0.0,0.0,0.0,0.0,90.0,90.0,90.0,88.74479675290002,88.4264831543,88.6174697876,19.0839996338,15.995625495899999,3.5599999427999998,0,2,25,1,122,96
44,1530628381983,294983, RC,0,39.9586186,-88.445067899,0,0.0,0.0,0.0,0.0,0.0,0.0,0.0,0.0,0.0,0.0,0.0,0.0,0.0,1500,1500,0.0,0.0,40.048258,-88.2331563333,0.0,0.0,0.0,0.0,0.0,0.0,0.0,0.0,0.0,0.0,0.0,0,0.0,0.0,0.0,0.0,90.0,90.0,90.0,88.74479675290002,88.4264831543,88.6174697876,19.0839996338,15.995625495899999,3.5599999427999998,0,2,25,1,139,98
45,1530628382033,295033, RC,0,39.9586186,-88.445067899,0,0.0,0.0,0.0,0.0,0.0,0.0,0.0,0.0,0.0,0.0,0.0,0.0,0.0,1500,1500,0.0,0.0,40.048258,-88.2331563333,0.0,0.0,0.0,0.0,0.0,0.0,0.0,0.0,0.0,0.0,0.0,0,0.0,0.0,0.0,0.0,90.0,90.0,90.0,88.74479675290002,88.4264831543,88.6174697876,19.0839996338,15.995625495899999,3.5599999427999998,0,2,25,1,130,101
46,1530628382083,295083, RC,0,39.9586186,-88.445067899,0,0.0,0.0,0.0,0.0,0.0,0.0,0.0,0.0,0.0,0.0,0.0,0.0,0.0,1500,1500,0.0,0.0,40.048258,-88.2331563333,0.0,0.0,0.0,0.0,0.0,0.0,0.0,0.0,0.0,0.0,0.0,0,0.0,0.0,0.0,0.0,90.0,90.0,90.0,88.74479675290002,88.36282348629999,88.6174697876,19.0839996338,15.995625495899999,3.5599999427999998,0,2,25,1,148,103
47,1530628382134,295134, RC,0,39.9586186,-88.445067899,0,0.0,0.0,0.0,0.0,0.0,0.0,0.0,0.0,0.0,0.0,0.0,0.0,0.0,1500,1500,0.0,0.0,40.048258,-88.2331563333,0.0,0.0,0.0,0.0,0.0,0.0,0.0,0.0,0.0,0.0,0.0,0,0.0,0.0,0.0,0.0,90.0,90.0,90.0,88.74479675290002,88.36282348629999,88.6174697876,19.0839996338,15.995625495899999,3.5599999427999998,0,2,25,1,138,105
48,1530628382184,295184, RC,0,39.9586186,-88.445067899,0,0.0,0.0,0.0,0.0,0.0,0.0,0.0,0.0,0.0,0.0,0.0,0.0,0.0,1500,1500,0.0,0.0,40.048258,-88.2331563333,0.0,0.0,0.0,0.0,0.0,0.0,0.0,0.0,0.0,0.0,0.0,0,0.0,0.0,0.0,0.0,90.0,90.0,90.0,88.74479675290002,88.36282348629999,88.6174697876,19.0839996338,15.995625495899999,3.5599999427999998,0,2,25,1,137,107
49,1530628382234,295234, RC,0,39.9586186,-88.445067899,0,0.0,0.0,0.0,0.0,0.0,0.0,0.0,0.0,0.0,0.0,0.0,0.0,0.0,1500,1500,0.0,0.0,40.048258,-88.2331563333,0.0,0.0,0.0,0.0,0.0,0.0,0.0,0.0,0.0,0.0,0.0,0,0.0,0.0,0.0,0.0,90.0,90.0,90.0,88.74479675290002,88.36282348629999,88.6174697876,19.0839996338,15.995625495899999,3.5599999427999998,0,2,25,1,144,109
50,1530628382285,295285, RC,0,39.9586186,-88.445067899,0,0.0,0.0,0.0,0.0,0.0,0.0,0.0,0.0,0.0,0.0,0.0,0.0,0.0,1500,1500,0.0,0.0,40.048258,-88.2331563333,0.0,0.0,0.0,0.0,0.0,0.0,0.0,0.0,0.0,0.0,0.0,0,0.0,0.0,0.0,0.0,90.0,90.0,90.0,88.74479675290002,88.36282348629999,88.6174697876,19.0839996338,15.995625495899999,3.5599999427999998,0,2,25,1,150,111
51,1530628382335,295335, RC,0,39.9586186,-88.445067899,0,0.0,0.0,0.0,0.0,0.0,0.0,0.0,0.0,0.0,0.0,0.0,0.0,0.0,1500,1500,0.0,0.0,40.048258,-88.2331563333,0.0,0.0,0.0,0.0,0.0,0.0,0.0,0.0,0.0,0.0,0.0,0,0.0,0.0,0.0,0.0,90.0,90.0,90.0,88.74479675290002,88.36282348629999,88.6174697876,19.0839996338,15.995625495899999,3.5599999427999998,0,2,25,1,164,113
52,1530628382385,295385, RC,0,39.9586186,-88.445067899,0,0.0,0.0,0.0,0.0,0.0,0.0,0.0,0.0,0.0,0.0,0.0,0.0,0.0,1500,1500,0.0,0.0,40.048258,-88.2331563333,0.0,0.0,0.0,0.0,0.0,0.0,0.0,0.0,0.0,0.0,0.0,0,0.0,0.0,0.0,0.0,90.0,90.0,90.0,88.74479675290002,88.2991638184,88.6174697876,19.0839996338,15.995625495899999,3.5599999427999998,0,2,25,1,146,116
53,1530628382436,295436, RC,0,39.9586186,-88.445067899,0,0.0,0.0,0.0,0.0,0.0,0.0,0.0,0.0,0.0,0.0,0.0,0.0,0.0,1500,1500,0.0,0.0,40.048258,-88.2331563333,0.0,0.0,0.0,0.0,0.0,0.0,0.0,0.0,0.0,0.0,0.0,0,0.0,0.0,0.0,0.0,90.0,90.0,90.0,88.74479675290002,88.2991638184,88.6174697876,19.0839996338,15.995625495899999,3.5599999427999998,0,2,25,1,140,118
54,1530628382486,295486, RC,0,39.9586186,-88.445067899,0,0.0,0.0,0.0,0.0,0.0,0.0,0.0,0.0,0.0,0.0,0.0,0.0,0.0,1500,1500,0.0,0.0,40.048258,-88.2331563333,0.0,0.0,0.0,0.0,0.0,0.0,0.0,0.0,0.0,0.0,0.0,0,0.0,0.0,0.0,0.0,90.0,90.0,90.0,88.74479675290002,88.2991638184,88.6174697876,19.0839996338,15.995625495899999,3.5599999427999998,0,2,25,1,145,120
55,1530628382536,295536, RC,0,39.9586186,-88.445067899,0,0.0,0.0,0.0,0.0,0.0,0.0,0.0,0.0,0.0,0.0,0.0,0.0,0.0,1500,1500,0.0,0.0,40.048258,-88.2331563333,0.0,0.0,0.0,0.0,0.0,0.0,0.0,0.0,0.0,0.0,0.0,0,0.0,0.0,0.0,0.0,90.0,90.0,90.0,88.74479675290002,88.2991638184,88.6174697876,19.0839996338,15.995625495899999,3.5599999427999998,0,2,25,1,133,122
56,1530628382587,295587, RC,0,39.9586186,-88.445067899,0,0.0,0.0,0.0,0.0,0.0,0.0,0.0,0.0,0.0,0.0,0.0,0.0,0.0,1500,1500,0.0,0.0,40.048258,-88.2331563333,0.0,0.0,0.0,0.0,0.0,0.0,0.0,0.0,0.0,0.0,0.0,0,0.0,0.0,0.0,0.0,90.0,90.0,90.0,88.74479675290002,88.2991638184,88.6174697876,19.0839996338,15.995625495899999,3.5599999427999998,0,2,25,1,133,124
57,1530628382637,295637, RC,0,39.9586186,-88.445067899,0,0.0,0.0,0.0,0.0,0.0,0.0,0.0,0.0,0.0,0.0,0.0,0.0,0.0,1500,1500,0.0,0.0,40.048258,-88.2331563333,0.0,0.0,0.0,0.0,0.0,0.0,0.0,0.0,0.0,0.0,0.0,0,0.0,0.0,0.0,0.0,90.0,90.0,90.0,88.74479675290002,88.2991638184,88.6174697876,19.0839996338,15.995625495899999,3.5599999427999998,0,2,25,1,140,126
58,1530628382688,295688, RC,0,39.9586186,-88.445067899,0,0.0,0.0,0.0,0.0,0.0,0.0,0.0,0.0,0.0,0.0,0.0,0.0,0.0,1500,1500,0.0,0.0,40.048258,-88.2331563333,0.0,0.0,0.0,0.0,0.0,0.0,0.0,0.0,0.0,0.0,0.0,0,0.0,0.0,0.0,0.0,90.0,90.0,90.0,88.74479675290002,88.2991638184,88.6174697876,19.0839996338,15.990980148299998,3.4499998093,0,2,25,1,148,128
59,1530628382738,295738, RC,0,39.9586186,-88.445067899,0,0.0,0.0,0.0,0.0,0.0,0.0,0.0,0.0,0.0,0.0,0.0,0.0,0.0,1500,1500,0.0,0.0,40.048258,-88.2331563333,0.0,0.0,0.0,0.0,0.0,0.0,0.0,0.0,0.0,0.0,0.0,0,0.0,0.0,0.0,0.0,90.0,90.0,90.0,88.74479675290002,88.2991638184,88.6174697876,19.0839996338,15.990980148299998,3.4499998093,0,2,25,1,150,131
60,1530628382788,295788, RC,0,39.9586186,-88.445067899,0,0.0,0.0,0.0,0.0,0.0,0.0,0.0,0.0,0.0,0.0,0.0,0.0,0.0,1500,1500,0.0,0.0,40.048258,-88.2331563333,0.0,0.0,0.0,0.0,0.0,0.0,0.0,0.0,0.0,0.0,0.0,0,0.0,0.0,0.0,0.0,90.0,90.0,90.0,88.74479675290002,88.235496521,88.6174697876,19.0839996338,15.990980148299998,3.4499998093,0,2,25,1,138,133
61,1530628382839,295839, RC,0,39.9586186,-88.445067899,0,0.0,0.0,0.0,0.0,0.0,0.0,0.0,0.0,0.0,0.0,0.0,0.0,0.0,1500,1500,0.0,0.0,40.0482573333,-88.2331556667,0.0,0.0,0.0,0.0,0.0,0.0,0.0,0.0,0.0,0.0,0.0,0,0.0,0.0,0.0,0.0,90.0,90.0,90.0,88.74479675290002,88.235496521,88.6174697876,19.0839996338,15.990980148299998,3.4499998093,0,2,25,1,133,135
62,1530628382889,295889, RC,0,39.9586186,-88.445067899,0,0.0,0.0,0.0,0.0,0.0,0.0,0.0,0.0,0.0,0.0,0.0,0.0,0.0,1500,1500,0.0,0.0,40.0482573333,-88.2331556667,0.0,0.0,0.0,0.0,0.0,0.0,0.0,0.0,0.0,0.0,0.0,0,0.0,0.0,0.0,0.0,90.0,90.0,90.0,88.74479675290002,88.2991638184,88.6174697876,19.0839996338,15.990980148299998,3.4499998093,0,2,25,1,157,137
63,1530628382939,295939, RC,0,39.9586186,-88.445067899,0,0.0,0.0,0.0,0.0,0.0,0.0,0.0,0.0,0.0,0.0,0.0,0.0,0.0,1500,1500,0.0,0.0,40.0482573333,-88.2331556667,0.0,0.0,0.0,0.0,0.0,0.0,0.0,0.0,0.0,0.0,0.0,0,0.0,0.0,0.0,0.0,90.0,90.0,90.0,88.8084564209,88.235496521,88.6174697876,19.0839996338,15.990980148299998,3.4499998093,0,2,25,1,141,139
64,1530628382990,295990, RC,0,39.9586186,-88.445067899,0,0.0,0.0,0.0,0.0,0.0,0.0,0.0,0.0,0.0,0.0,0.0,0.0,0.0,1500,1500,0.0,0.0,40.0482573333,-88.2331556667,0.0,0.0,0.0,0.0,0.0,0.0,0.0,0.0,0.0,0.0,0.0,0,0.0,0.0,0.0,0.0,90.0,90.0,90.0,88.8084564209,88.2991638184,88.6174697876,19.0839996338,15.990980148299998,3.4499998093,0,2,25,1,149,141
65,1530628383040,296040, RC,0,39.9586186,-88.445067899,0,0.0,0.0,0.0,0.0,0.0,0.0,0.0,0.0,0.0,0.0,0.0,0.0,0.0,1500,1500,0.0,0.0,40.0482573333,-88.2331556667,0.0,0.0,0.0,0.0,0.0,0.0,0.0,0.0,0.0,0.0,0.0,0,0.0,0.0,0.0,0.0,90.0,90.0,90.0,88.8084564209,88.2991638184,88.6174697876,19.0839996338,15.990980148299998,3.4499998093,0,2,25,1,148,144
66,1530628383090,296090, RC,0,39.9586186,-88.445067899,0,0.0,0.0,0.0,0.0,0.0,0.0,0.0,0.0,0.0,0.0,0.0,0.0,0.0,1500,1500,0.0,0.0,40.0482573333,-88.2331556667,0.0,0.0,0.0,0.0,0.0,0.0,0.0,0.0,0.0,0.0,0.0,0,0.0,0.0,0.0,0.0,90.0,90.0,90.0,88.74479675290002,88.2991638184,88.6174697876,19.0839996338,15.990980148299998,3.4499998093,0,2,25,1,140,146
67,1530628383141,296141, RC,0,39.9586186,-88.445067899,0,0.0,0.0,0.0,0.0,0.0,0.0,0.0,0.0,0.0,0.0,0.0,0.0,0.0,1500,1500,0.0,0.0,40.0482573333,-88.2331556667,0.0,0.0,0.0,0.0,0.0,0.0,0.0,0.0,0.0,0.0,0.0,0,0.0,0.0,0.0,0.0,90.0,90.0,79.0,88.8084564209,88.2991638184,88.6174697876,19.0839996338,15.990980148299998,3.4499998093,0,2,25,1,154,148
68,1530628383191,296191, RC,0,39.9586186,-88.445067899,0,0.0,0.0,0.0,0.0,0.0,0.0,0.0,0.0,0.0,0.0,0.0,0.0,0.0,1500,1500,0.0,0.0,40.0482573333,-88.2331556667,0.0,0.0,0.0,0.0,0.0,0.0,0.0,0.0,0.0,0.0,0.0,0,0.0,0.0,0.0,0.0,90.0,90.0,79.0,88.8084564209,88.2991638184,94.7926864624,19.0839996338,15.990980148299998,3.4499998093,0,2,25,1,142,150
69,1530628383241,296241, RC,0,39.9586186,-88.445067899,0,0.0,0.0,0.0,0.0,0.0,0.0,0.0,0.0,0.0,0.0,0.0,0.0,0.0,1500,1500,0.0,0.0,40.0482573333,-88.2331556667,0.0,0.0,0.0,0.0,0.0,0.0,0.0,0.0,0.0,0.0,0.0,0,0.0,0.0,0.0,0.0,90.0,90.0,79.0,88.8084564209,88.2991638184,102.0501480103,19.0839996338,15.990980148299998,3.4499998093,0,2,25,1,110,152
70,1530628383292,296292, RC,0,39.9586186,-88.445067899,0,0.0,0.0,0.0,0.0,0.0,0.0,0.0,0.0,0.0,0.0,0.0,0.0,0.0,1500,1500,0.0,0.0,40.0482573333,-88.2331556667,0.0,0.0,0.0,0.0,0.0,0.0,0.0,0.0,0.0,0.0,0.0,0,0.0,0.0,0.0,0.0,90.0,90.0,79.0,88.8084564209,88.2991638184,101.54085540770001,19.0839996338,15.990980148299998,3.4499998093,0,2,25,1,142,154
71,1530628383342,296342, RC,0,39.9586186,-88.445067899,0,0.0,0.0,0.0,0.0,0.0,0.0,0.0,0.0,0.0,0.0,0.0,0.0,0.0,1500,1500,0.0,0.0,40.0482573333,-88.2331556667,0.0,0.0,0.0,0.0,0.0,0.0,0.0,0.0,0.0,0.0,0.0,0,0.0,0.0,0.0,0.0,90.0,90.0,76.0,88.8084564209,88.2991638184,100.6495819092,19.0839996338,15.990980148299998,3.4499998093,0,2,25,1,148,156
72,1530628383393,296393, RC,0,39.9586186,-88.445067899,0,0.0,0.0,0.0,0.0,0.0,0.0,0.0,0.0,0.0,0.0,0.0,0.0,0.0,1500,1500,0.0,0.0,40.0482573333,-88.2331556667,0.0,0.0,0.0,0.0,0.0,0.0,0.0,0.0,0.0,0.0,0.0,0,0.0,0.0,0.0,0.0,90.0,90.0,76.0,88.8084564209,88.2991638184,100.45860290530001,19.0839996338,15.990980148299998,3.4499998093,0,2,25,1,173,159
73,1530628383443,296443, RC,0,39.9586186,-88.445067899,0,0.0,0.0,0.0,0.0,0.0,0.0,0.0,0.0,0.0,0.0,0.0,0.0,0.0,1500,1500,0.0,0.0,40.0482573333,-88.2331556667,0.0,0.0,0.0,0.0,0.0,0.0,0.0,0.0,0.0,0.0,0.0,0,0.0,0.0,0.0,0.0,90.0,90.0,72.0,88.8084564209,88.2991638184,100.45860290530001,19.6220016479,15.990980148299998,3.4499998093,0,2,25,1,188,161
74,1530628383493,296493, RC,0,39.9586186,-88.445067899,0,0.0,0.0,0.0,0.0,0.0,0.0,0.0,0.0,0.0,0.0,0.0,0.0,0.0,1500,1500,0.0,0.0,40.0482573333,-88.2331556667,0.0,0.0,0.0,0.0,0.0,0.0,0.0,0.0,0.0,0.0,0.0,0,0.0,0.0,0.0,0.0,90.0,90.0,72.0,88.8084564209,88.36282348629999,104.02367401120001,19.6220016479,15.990980148299998,3.4499998093,0,2,25,1,182,163
75,1530628383544,296544, RC,0,39.9586186,-88.445067899,0,0.0,0.0,0.0,0.0,0.0,0.0,0.0,0.0,0.0,0.0,0.0,0.0,0.0,1500,1500,0.0,0.0,40.0482573333,-88.2331556667,0.0,0.0,0.0,0.0,0.0,0.0,0.0,0.0,0.0,0.0,0.0,0,0.0,0.0,0.0,0.0,90.0,90.0,72.0,88.8084564209,88.36282348629999,105.9335327148,19.6220016479,15.990980148299998,3.4499998093,0,2,25,1,219,165
76,1530628383594,296594, RC,0,39.9586186,-88.445067899,0,0.0,0.0,0.0,0.0,0.0,0.0,0.0,0.0,0.0,0.0,0.0,0.0,0.0,1500,1500,0.0,0.0,40.0482573333,-88.2331556667,0.0,0.0,0.0,0.0,0.0,0.0,0.0,0.0,0.0,0.0,0.0,0,0.0,0.0,0.0,0.0,90.0,90.0,72.0,88.8084564209,88.36282348629999,106.0608520508,19.6220016479,15.990980148299998,3.4499998093,0,2,25,1,197,167
77,1530628383644,296644, RC,0,39.9586186,-88.445067899,0,0.0,0.0,0.0,0.0,0.0,0.0,0.0,0.0,0.0,0.0,0.0,0.0,0.0,1500,1500,0.0,0.0,40.0482573333,-88.2331556667,0.0,0.0,0.0,0.0,0.0,0.0,0.0,0.0,0.0,0.0,0.0,0,0.0,0.0,0.0,0.0,90.0,90.0,64.0,88.8084564209,88.36282348629999,106.0608520508,19.6220016479,15.990980148299998,3.4499998093,0,2,25,1,208,169
78,1530628383695,296695, RC,0,39.9586186,-88.445067899,0,0.0,0.0,0.0,0.0,0.0,0.0,0.0,0.0,0.0,0.0,0.0,0.0,0.0,1500,1500,0.0,0.0,40.0482573333,-88.2331556667,0.0,0.0,0.0,0.0,0.0,0.0,0.0,0.0,0.0,0.0,0.0,0,0.0,0.0,0.0,0.0,90.0,90.0,64.0,88.8084564209,88.36282348629999,111.2811355591,19.6220016479,15.9863510132,3.4500000476999997,0,2,25,1,186,171
79,1530628383745,296745, RC,0,39.9586186,-88.445067899,0,0.0,0.0,0.0,0.0,0.0,0.0,0.0,0.0,0.0,0.0,0.0,0.0,0.0,1500,1500,0.0,0.0,40.0482573333,-88.2331556667,0.0,0.0,0.0,0.0,0.0,0.0,0.0,0.0,0.0,0.0,0.0,0,0.0,0.0,0.0,0.0,90.0,90.0,64.0,88.8084564209,88.36282348629999,113.7639541626,19.6220016479,15.9863510132,3.4500000476999997,0,2,25,1,148,174
80,1530628383795,296795, RC,0,39.9586186,-88.445067899,0,0.0,0.0,0.0,0.0,0.0,0.0,0.0,0.0,0.0,0.0,0.0,0.0,0.0,1500,1500,0.0,0.0,40.0482573333,-88.2331556667,0.0,0.0,0.0,0.0,0.0,0.0,0.0,0.0,0.0,0.0,0.0,0,0.0,0.0,0.0,0.0,90.0,90.0,64.0,88.8084564209,88.36282348629999,113.8276138306,19.6220016479,15.9863510132,3.4500000476999997,0,2,25,1,141,176
81,1530628383846,296846, RC,0,39.9586186,-88.445067899,0,0.0,0.0,0.0,0.0,0.0,0.0,0.0,0.0,0.0,0.0,0.0,0.0,0.0,1500,1500,0.0,0.0,40.048256,-88.2331541667,0.0,0.0,0.0,0.0,0.0,0.0,0.0,0.0,0.0,0.0,0.0,0,0.0,0.0,0.0,0.0,90.0,90.0,64.0,88.8084564209,88.36282348629999,113.8276138306,19.6220016479,15.9863510132,3.4500000476999997,0,2,25,1,140,178
82,1530628383896,296896, RC,0,39.9586186,-88.445067899,0,0.0,0.0,0.0,0.0,0.0,0.0,0.0,0.0,0.0,0.0,0.0,0.0,0.0,1500,1500,0.0,0.0,40.048256,-88.2331541667,0.0,0.0,0.0,0.0,0.0,0.0,0.0,0.0,0.0,0.0,0.0,0,0.0,0.0,0.0,0.0,90.0,90.0,64.0,88.8084564209,88.36282348629999,113.8276138306,19.6220016479,15.9863510132,3.4500000476999997,0,2,25,1,122,180
83,1530628383947,296947, RC,0,39.9586186,-88.445067899,0,0.0,0.0,0.0,0.0,0.0,0.0,0.0,0.0,0.0,0.0,0.0,0.0,0.0,1500,1500,0.0,0.0,40.048256,-88.2331541667,0.0,0.0,0.0,0.0,0.0,0.0,0.0,0.0,0.0,0.0,0.0,0,0.0,0.0,0.0,0.0,90.0,90.0,64.0,88.8084564209,88.36282348629999,113.8276138306,19.6220016479,15.9863510132,3.4500000476999997,0,2,25,1,142,182
84,1530628383997,296997, RC,0,39.9586186,-88.445067899,0,0.0,0.0,0.0,0.0,0.0,0.0,0.0,0.0,0.0,0.0,0.0,0.0,0.0,1500,1500,0.0,0.0,40.048256,-88.2331541667,0.0,0.0,0.0,0.0,0.0,0.0,0.0,0.0,0.0,0.0,0.0,0,0.0,0.0,0.0,0.0,90.0,90.0,64.0,88.8084564209,88.36282348629999,113.8276138306,19.6220016479,15.9863510132,3.4500000476999997,0,2,25,1,167,185
85,1530628384047,297047, RC,0,39.9586186,-88.445067899,0,0.0,0.0,0.0,0.0,0.0,0.0,0.0,0.0,0.0,0.0,0.0,0.0,0.0,1500,1500,0.0,0.0,40.048256,-88.2331541667,0.0,0.0,0.0,0.0,0.0,0.0,0.0,0.0,0.0,0.0,0.0,0,0.0,0.0,0.0,0.0,90.0,90.0,63.0,88.8084564209,88.36282348629999,113.8276138306,19.6220016479,15.9863510132,3.4500000476999997,0,2,25,1,181,187
86,1530628384098,297098, RC,0,39.9586186,-88.445067899,0,0.0,0.0,0.0,0.0,0.0,0.0,0.0,0.0,0.0,0.0,0.0,0.0,0.0,1500,1500,0.0,0.0,40.048256,-88.2331541667,0.0,0.0,0.0,0.0,0.0,0.0,0.0,0.0,0.0,0.0,0.0,0,0.0,0.0,0.0,0.0,90.0,90.0,63.0,88.8084564209,88.36282348629999,115.4191589355,19.6220016479,15.9863510132,3.4500000476999997,0,2,25,1,158,189
87,1530628384149,297149, RC,0,39.9586186,-88.445067899,0,0.0,0.0,0.0,0.0,0.0,0.0,0.0,0.0,0.0,0.0,0.0,0.0,0.0,1500,1500,0.0,0.0,40.048256,-88.2331541667,0.0,0.0,0.0,0.0,0.0,0.0,0.0,0.0,0.0,0.0,0.0,0,0.0,0.0,0.0,0.0,90.0,90.0,60.0,88.8084564209,88.36282348629999,116.05578613280001,19.6220016479,15.9863510132,3.4500000476999997,0,2,25,1,160,191
88,1530628384200,297200, RC,0,39.9586186,-88.445067899,0,0.0,0.0,0.0,0.0,0.0,0.0,0.0,0.0,0.0,0.0,0.0,0.0,0.0,1500,1500,0.0,0.0,40.048256,-88.2331541667,0.0,0.0,0.0,0.0,0.0,0.0,0.0,0.0,0.0,0.0,0.0,0,0.0,0.0,0.0,0.0,90.0,90.0,60.0,88.8084564209,88.4901504517,116.88338470459999,19.6220016479,15.9863510132,3.4500000476999997,0,2,25,1,181,193
89,1530628384250,297250, RC,0,39.9586186,-88.445067899,0,0.0,0.0,0.0,0.0,0.0,0.0,0.0,0.0,0.0,0.0,0.0,0.0,0.0,1500,1500,0.0,0.0,40.048256,-88.2331541667,0.0,0.0,0.0,0.0,0.0,0.0,0.0,0.0,0.0,0.0,0.0,0,0.0,0.0,0.0,0.0,90.0,90.0,60.0,88.8084564209,88.55381011959999,117.8383178711,19.6220016479,15.9863510132,3.4500000476999997,0,2,25,1,161,196
90,1530628384301,297301, RC,0,39.9586186,-88.445067899,0,0.0,0.0,0.0,0.0,0.0,0.0,0.0,0.0,0.0,0.0,0.0,0.0,0.0,1500,1500,0.0,0.0,40.048256,-88.2331541667,0.0,0.0,0.0,0.0,0.0,0.0,0.0,0.0,0.0,0.0,0.0,0,0.0,0.0,0.0,0.0,90.0,90.0,60.0,88.8084564209,88.4901504517,117.8383178711,19.6220016479,15.9863510132,3.4500000476999997,0,2,25,1,167,198
91,1530628384351,297351, RC,0,39.9586186,-88.445067899,0,0.0,0.0,0.0,0.0,0.0,0.0,0.0,0.0,0.0,0.0,0.0,0.0,0.0,1500,1500,0.0,0.0,40.048256,-88.2331541667,0.0,0.0,0.0,0.0,0.0,0.0,0.0,0.0,0.0,0.0,0.0,0,0.0,0.0,0.0,0.0,90.0,90.0,57.0,88.8084564209,88.4901504517,117.8383178711,19.6220016479,15.9863510132,3.4500000476999997,0,2,25,1,178,200
92,1530628384402,297402, RC,0,39.9586186,-88.445067899,0,0.0,0.0,0.0,0.0,0.0,0.0,0.0,0.0,0.0,0.0,0.0,0.0,0.0,1500,1500,0.0,0.0,40.048256,-88.2331541667,0.0,0.0,0.0,0.0,0.0,0.0,0.0,0.0,0.0,0.0,0.0,0,0.0,0.0,0.0,0.0,90.0,90.0,57.0,88.8084564209,88.55381011959999,119.4935302734,19.6220016479,15.9863510132,3.4500000476999997,0,2,25,1,154,202
93,1530628384453,297453, RC,0,39.9586186,-88.445067899,0,0.0,0.0,0.0,0.0,0.0,0.0,0.0,0.0,0.0,0.0,0.0,0.0,0.0,1500,1500,0.0,0.0,40.048256,-88.2331541667,0.0,0.0,0.0,0.0,0.0,0.0,0.0,0.0,0.0,0.0,0.0,0,0.0,0.0,0.0,0.0,90.0,90.0,57.0,88.8721160889,88.4901504517,122.3583145142,19.6220016479,15.9863510132,3.4500000476999997,0,2,25,1,137,205
94,1530628384503,297503, RC,0,39.9586186,-88.445067899,0,0.0,0.0,0.0,0.0,0.0,0.0,0.0,0.0,0.0,0.0,0.0,0.0,0.0,1500,1500,0.0,0.0,40.048256,-88.2331541667,0.0,0.0,0.0,0.0,0.0,0.0,0.0,0.0,0.0,0.0,0.0,0,0.0,0.0,0.0,0.0,90.0,90.0,57.0,88.8721160889,88.4901504517,122.3583145142,19.6220016479,15.9863510132,3.4500000476999997,0,2,25,1,165,207
95,1530628384554,297554, RC,0,39.9586186,-88.445067899,0,0.0,0.0,0.0,0.0,0.0,0.0,0.0,0.0,0.0,0.0,0.0,0.0,0.0,1500,1500,0.0,0.0,40.048256,-88.2331541667,0.0,0.0,0.0,0.0,0.0,0.0,0.0,0.0,0.0,0.0,0.0,0,0.0,0.0,0.0,0.0,90.0,90.0,51.0,88.8721160889,88.4901504517,122.3583145142,19.6220016479,15.9863510132,3.4500000476999997,0,2,25,1,165,209
96,1530628384605,297605, RC,0,39.9586186,-88.445067899,0,0.0,0.0,0.0,0.0,0.0,0.0,0.0,0.0,0.0,0.0,0.0,0.0,0.0,1500,1500,0.0,0.0,40.048256,-88.2331541667,0.0,0.0,0.0,0.0,0.0,0.0,0.0,0.0,0.0,0.0,0.0,0,0.0,0.0,0.0,0.0,90.0,90.0,51.0,88.8721160889,88.4901504517,123.75888824459999,19.6220016479,15.9863510132,3.4500000476999997,0,2,25,1,162,211
97,1530628384655,297655, RC,0,39.9586186,-88.445067899,0,0.0,0.0,0.0,0.0,0.0,0.0,0.0,0.0,0.0,0.0,0.0,0.0,0.0,1500,1500,0.0,0.0,40.048256,-88.2331541667,0.0,0.0,0.0,0.0,0.0,0.0,0.0,0.0,0.0,0.0,0.0,0,0.0,0.0,0.0,0.0,90.0,90.0,51.0,88.8721160889,88.4264831543,127.3876190186,19.6220016479,15.9863510132,3.4500000476999997,0,2,25,1,136,213
98,1530628384706,297706, RC,0,39.9586186,-88.445067899,0,0.0,0.0,0.0,0.0,0.0,0.0,0.0,0.0,0.0,0.0,0.0,0.0,0.0,1500,1500,0.0,0.0,40.048256,-88.2331541667,0.0,0.0,0.0,0.0,0.0,0.0,0.0,0.0,0.0,0.0,0.0,0,0.0,0.0,0.0,0.0,90.0,90.0,51.0,88.8721160889,88.4264831543,127.51494598389999,19.6220016479,15.981831550599999,3.6199998856,0,2,25,1,93,216
99,1530628384757,297757, RC,0,39.9586186,-88.445067899,0,0.0,0.0,0.0,0.0,0.0,0.0,0.0,0.0,0.0,0.0,0.0,0.0,0.0,1500,1500,0.0,0.0,40.048256,-88.2331541667,0.0,0.0,0.0,0.0,0.0,0.0,0.0,0.0,0.0,0.0,0.0,0,0.0,0.0,0.0,0.0,90.0,90.0,51.0,88.8721160889,88.4264831543,127.51494598389999,19.6220016479,15.981831550599999,3.6199998856,0,2,25,1,69,219
100,1530628384808,297808, RC,0,39.9586186,-88.445067899,0,0.0,0.0,0.0,0.0,0.0,0.0,0.0,0.0,0.0,0.0,0.0,0.0,0.0,1500,1500,0.0,0.0,40.048254,-88.2331555,0.0,0.0,0.0,0.0,0.0,0.0,0.0,0.0,0.0,0.0,0.0,0,0.0,0.0,0.0,0.0,90.0,90.0,51.0,88.8721160889,88.4264831543,127.51494598389999,19.6220016479,15.981831550599999,3.6199998856,0,2,25,1,69,223
101,1530628384858,297858, RC,0,39.9586186,-88.445067899,0,0.0,0.0,0.0,0.0,0.0,0.0,0.0,0.0,0.0,0.0,0.0,0.0,0.0,1500,1500,0.0,0.0,40.048254,-88.2331555,0.0,0.0,0.0,0.0,0.0,0.0,0.0,0.0,0.0,0.0,0.0,0,0.0,0.0,0.0,0.0,90.0,90.0,51.0,88.8721160889,88.4264831543,127.51494598389999,19.6220016479,15.981831550599999,3.6199998856,0,2,25,1,65,226
102,1530628384909,297909, RC,0,39.9586186,-88.445067899,0,0.0,0.0,0.0,0.0,0.0,0.0,0.0,0.0,0.0,0.0,0.0,0.0,0.0,1500,1500,0.0,0.0,40.048254,-88.2331555,0.0,0.0,0.0,0.0,0.0,0.0,0.0,0.0,0.0,0.0,0.0,0,0.0,0.0,0.0,0.0,90.0,90.0,51.0,88.8721160889,88.4264831543,127.51494598389999,19.6220016479,15.981831550599999,3.6199998856,0,2,25,1,50,229
103,1530628384960,297960, RC,0,39.9586186,-88.445067899,0,0.0,0.0,0.0,0.0,0.0,0.0,0.0,0.0,0.0,0.0,0.0,0.0,0.0,1500,1500,0.0,0.0,40.048254,-88.2331555,0.0,0.0,0.0,0.0,0.0,0.0,0.0,0.0,0.0,0.0,0.0,0,0.0,0.0,0.0,0.0,90.0,90.0,51.0,88.8721160889,88.4264831543,127.51494598389999,19.6220016479,15.981831550599999,3.6199998856,0,2,25,1,55,231
104,1530628385010,298010, RC,0,39.9586186,-88.445067899,0,0.0,0.0,0.0,0.0,0.0,0.0,0.0,0.0,0.0,0.0,0.0,0.0,0.0,1500,1500,0.0,0.0,40.048254,-88.2331555,0.0,0.0,0.0,0.0,0.0,0.0,0.0,0.0,0.0,0.0,0.0,0,0.0,0.0,0.0,0.0,90.0,90.0,51.0,88.8721160889,88.4901504517,127.51494598389999,19.6220016479,15.981831550599999,3.6199998856,0,2,25,1,71,233
105,1530628385062,298062, RC,0,39.9586186,-88.445067899,0,0.0,0.0,0.0,0.0,0.0,0.0,0.0,0.0,0.0,0.0,0.0,0.0,0.0,1500,1500,0.0,0.0,40.048254,-88.2331555,0.0,0.0,0.0,0.0,0.0,0.0,0.0,0.0,0.0,0.0,0.0,0,0.0,0.0,0.0,0.0,90.0,90.0,51.0,88.8721160889,88.4901504517,127.51494598389999,19.6220016479,15.981831550599999,3.6199998856,0,2,25,1,74,235
106,1530628385112,298112, RC,0,39.9586186,-88.445067899,0,0.0,0.0,0.0,0.0,0.0,0.0,0.0,0.0,0.0,0.0,0.0,0.0,0.0,1500,1500,0.0,0.0,40.048254,-88.2331555,0.0,0.0,0.0,0.0,0.0,0.0,0.0,0.0,0.0,0.0,0.0,0,0.0,0.0,0.0,0.0,90.0,90.0,51.0,88.8721160889,88.4264831543,127.51494598389999,19.6220016479,15.981831550599999,3.6199998856,0,2,25,1,52,237
107,1530628385163,298163, RC,0,39.9586186,-88.445067899,0,0.0,0.0,0.0,0.0,0.0,0.0,0.0,0.0,0.0,0.0,0.0,0.0,0.0,1500,1500,0.0,0.0,40.048254,-88.2331555,0.0,0.0,0.0,0.0,0.0,0.0,0.0,0.0,0.0,0.0,0.0,0,0.0,0.0,0.0,0.0,90.0,90.0,51.0,88.8084564209,88.4901504517,127.51494598389999,19.6220016479,15.981831550599999,3.6199998856,0,2,25,1,77,240
108,1530628385214,298214, RC,0,39.9586186,-88.445067899,0,0.0,0.0,0.0,0.0,0.0,0.0,0.0,0.0,0.0,0.0,0.0,0.0,0.0,1500,1500,0.0,0.0,40.048254,-88.2331555,0.0,0.0,0.0,0.0,0.0,0.0,0.0,0.0,0.0,0.0,0.0,0,0.0,0.0,0.0,0.0,90.0,90.0,51.0,88.8721160889,88.4901504517,127.51494598389999,19.6220016479,15.981831550599999,3.6199998856,0,2,25,1,72,242
109,1530628385264,298264, RC,0,39.9586186,-88.445067899,0,0.0,0.0,0.0,0.0,0.0,0.0,0.0,0.0,0.0,0.0,0.0,0.0,0.0,1500,1500,0.0,0.0,40.048254,-88.2331555,0.0,0.0,0.0,0.0,0.0,0.0,0.0,0.0,0.0,0.0,0.0,0,0.0,0.0,0.0,0.0,90.0,90.0,51.0,88.8721160889,88.4901504517,127.51494598389999,19.6220016479,15.981831550599999,3.6199998856,0,2,25,1,74,244
110,1530628385315,298315, RC,0,39.9586186,-88.445067899,0,0.0,0.0,0.0,0.0,0.0,0.0,0.0,0.0,0.0,0.0,0.0,0.0,0.0,1500,1500,0.0,0.0,40.048254,-88.2331555,0.0,0.0,0.0,0.0,0.0,0.0,0.0,0.0,0.0,0.0,0.0,0,0.0,0.0,0.0,0.0,90.0,90.0,51.0,88.8721160889,88.4901504517,127.51494598389999,19.6220016479,15.981831550599999,3.6199998856,0,2,25,1,75,246
111,1530628385366,298366, RC,0,39.9586186,-88.445067899,0,0.0,0.0,0.0,0.0,0.0,0.0,0.0,0.0,0.0,0.0,0.0,0.0,0.0,1500,1500,0.0,0.0,40.048254,-88.2331555,0.0,0.0,0.0,0.0,0.0,0.0,0.0,0.0,0.0,0.0,0.0,0,0.0,0.0,0.0,0.0,90.0,90.0,51.0,88.8721160889,88.4901504517,127.51494598389999,19.6220016479,15.981831550599999,3.6199998856,0,2,25,1,78,249
112,1530628385416,298416, RC,0,39.9586186,-88.445067899,0,0.0,0.0,0.0,0.0,0.0,0.0,0.0,0.0,0.0,0.0,0.0,0.0,0.0,1500,1500,0.0,0.0,40.048254,-88.2331555,0.0,0.0,0.0,0.0,0.0,0.0,0.0,0.0,0.0,0.0,0.0,0,0.0,0.0,0.0,0.0,90.0,90.0,51.0,88.8721160889,88.4901504517,127.51494598389999,19.6220016479,15.981831550599999,3.6199998856,0,2,25,1,73,251
113,1530628385467,298467, RC,0,39.9586186,-88.445067899,0,0.0,0.0,0.0,0.0,0.0,0.0,0.0,0.0,0.0,0.0,0.0,0.0,0.0,1500,1500,0.0,0.0,40.048254,-88.2331555,0.0,0.0,0.0,0.0,0.0,0.0,0.0,0.0,0.0,0.0,0.0,0,0.0,0.0,0.0,0.0,90.0,90.0,51.0,88.8721160889,88.4901504517,127.51494598389999,19.6220016479,15.981831550599999,3.6199998856,0,2,25,1,69,253
114,1530628385518,298518, RC,0,39.9586186,-88.445067899,0,0.0,0.0,0.0,0.0,0.0,0.0,0.0,0.0,0.0,0.0,0.0,0.0,0.0,1500,1500,0.0,0.0,40.048254,-88.2331555,0.0,0.0,0.0,0.0,0.0,0.0,0.0,0.0,0.0,0.0,0.0,0,0.0,0.0,0.0,0.0,90.0,90.0,51.0,88.8721160889,88.4901504517,127.51494598389999,19.6220016479,15.981831550599999,3.6199998856,0,2,25,1,79,255
115,1530628385568,298568, RC,0,39.9586186,-88.445067899,0,0.0,0.0,0.0,0.0,0.0,0.0,0.0,0.0,0.0,0.0,0.0,0.0,0.0,1500,1500,0.0,0.0,40.048254,-88.2331555,0.0,0.0,0.0,0.0,0.0,0.0,0.0,0.0,0.0,0.0,0.0,0,0.0,0.0,0.0,0.0,90.0,90.0,51.0,88.8721160889,88.4901504517,127.51494598389999,19.6220016479,15.981831550599999,3.6199998856,0,2,25,1,66,258
116,1530628385619,298619, RC,0,39.9586186,-88.445067899,0,0.0,0.0,0.0,0.0,0.0,0.0,0.0,0.0,0.0,0.0,0.0,0.0,0.0,1500,1500,0.0,0.0,40.048254,-88.2331555,0.0,0.0,0.0,0.0,0.0,0.0,0.0,0.0,0.0,0.0,0.0,0,0.0,0.0,0.0,0.0,90.0,90.0,51.0,88.8721160889,88.4901504517,127.51494598389999,19.6220016479,15.981831550599999,3.6199998856,0,2,25,1,71,260
117,1530628385670,298670, RC,0,39.9586186,-88.445067899,0,0.0,0.0,0.0,0.0,0.0,0.0,0.0,0.0,0.0,0.0,0.0,0.0,0.0,1500,1500,0.0,0.0,40.048254,-88.2331555,0.0,0.0,0.0,0.0,0.0,0.0,0.0,0.0,0.0,0.0,0.0,0,0.0,0.0,0.0,0.0,90.0,90.0,51.0,88.8721160889,88.4901504517,127.51494598389999,19.6220016479,15.9772005081,3.1200001239999997,0,2,25,1,77,262
118,1530628385721,298721, RC,0,39.9586186,-88.445067899,0,0.0,0.0,0.0,0.0,0.0,0.0,0.0,0.0,0.0,0.0,0.0,0.0,0.0,1500,1500,0.0,0.0,40.048254,-88.2331555,0.0,0.0,0.0,0.0,0.0,0.0,0.0,0.0,0.0,0.0,0.0,0,0.0,0.0,0.0,0.0,90.0,90.0,51.0,88.8721160889,88.4901504517,127.51494598389999,19.6220016479,15.9772005081,3.1200001239999997,0,2,25,1,73,264
119,1530628385771,298771, RC,0,39.9586186,-88.445067899,0,0.0,0.0,0.0,0.0,0.0,0.0,0.0,0.0,0.0,0.0,0.0,0.0,0.0,1500,1500,0.0,0.0,40.048254,-88.2331555,0.0,0.0,0.0,0.0,0.0,0.0,0.0,0.0,0.0,0.0,0.0,0,0.0,0.0,0.0,0.0,90.0,90.0,51.0,88.8721160889,88.55381011959999,127.51494598389999,19.6220016479,15.9772005081,3.1200001239999997,0,2,25,1,47,266
120,1530628385822,298822, RC,0,39.9586186,-88.445067899,0,0.0,0.0,0.0,0.0,0.0,0.0,0.0,0.0,0.0,0.0,0.0,0.0,0.0,1500,1500,0.0,0.0,40.0482555,-88.2331546667,0.0,0.0,0.0,0.0,0.0,0.0,0.0,0.0,0.0,0.0,0.0,0,0.0,0.0,0.0,0.0,90.0,90.0,51.0,88.8721160889,88.55381011959999,127.51494598389999,19.6220016479,15.9772005081,3.1200001239999997,0,2,25,1,72,269
121,1530628385873,298873, RC,0,39.9586186,-88.445067899,0,0.0,0.0,0.0,0.0,0.0,0.0,0.0,0.0,0.0,0.0,0.0,0.0,0.0,1500,1500,0.0,0.0,40.0482555,-88.2331546667,0.0,0.0,0.0,0.0,0.0,0.0,0.0,0.0,0.0,0.0,0.0,0,0.0,0.0,0.0,0.0,90.0,90.0,51.0,88.8084564209,88.55381011959999,127.51494598389999,19.6220016479,15.9772005081,3.1200001239999997,0,2,25,1,75,271
122,1530628385924,298924, RC,0,39.9586186,-88.445067899,0,0.0,0.0,0.0,0.0,0.0,0.0,0.0,0.0,0.0,0.0,0.0,0.0,0.0,1500,1500,0.0,0.0,40.0482555,-88.2331546667,0.0,0.0,0.0,0.0,0.0,0.0,0.0,0.0,0.0,0.0,0.0,0,0.0,0.0,0.0,0.0,90.0,90.0,51.0,88.8084564209,88.55381011959999,127.51494598389999,19.6220016479,15.9772005081,3.1200001239999997,0,2,25,1,35,273
123,1530628385975,298975, RC,0,39.9586186,-88.445067899,0,0.0,0.0,0.0,0.0,0.0,0.0,0.0,0.0,0.0,0.0,0.0,0.0,0.0,1500,1500,0.0,0.0,40.0482555,-88.2331546667,0.0,0.0,0.0,0.0,0.0,0.0,0.0,0.0,0.0,0.0,0.0,0,0.0,0.0,0.0,0.0,90.0,90.0,51.0,88.8084564209,88.55381011959999,127.51494598389999,19.6220016479,15.9772005081,3.1200001239999997,0,2,25,1,71,275
124,1530628386026,299026, RC,0,39.9586186,-88.445067899,0,0.0,0.0,0.0,0.0,0.0,0.0,0.0,0.0,0.0,0.0,0.0,0.0,0.0,1500,1500,0.0,0.0,40.0482555,-88.2331546667,0.0,0.0,0.0,0.0,0.0,0.0,0.0,0.0,0.0,0.0,0.0,0,0.0,0.0,0.0,0.0,90.0,90.0,51.0,88.8084564209,88.55381011959999,127.51494598389999,19.6220016479,15.9772005081,3.1200001239999997,0,2,25,1,57,278
125,1530628386077,299077, RC,0,39.9586186,-88.445067899,0,0.0,0.0,0.0,0.0,0.0,0.0,0.0,0.0,0.0,0.0,0.0,0.0,0.0,1500,1500,0.0,0.0,40.0482555,-88.2331546667,0.0,0.0,0.0,0.0,0.0,0.0,0.0,0.0,0.0,0.0,0.0,0,0.0,0.0,0.0,0.0,90.0,90.0,51.0,88.8084564209,88.55381011959999,127.51494598389999,19.6220016479,15.9772005081,3.1200001239999997,0,2,25,1,51,280
126,1530628386127,299127, RC,0,39.9586186,-88.445067899,0,0.0,0.0,0.0,0.0,0.0,0.0,0.0,0.0,0.0,0.0,0.0,0.0,0.0,1500,1500,0.0,0.0,40.0482555,-88.2331546667,0.0,0.0,0.0,0.0,0.0,0.0,0.0,0.0,0.0,0.0,0.0,0,0.0,0.0,0.0,0.0,90.0,90.0,51.0,88.8084564209,88.55381011959999,127.51494598389999,19.6220016479,15.9772005081,3.1200001239999997,0,2,25,1,55,282
127,1530628386178,299178, RC,0,39.9586186,-88.445067899,0,0.0,0.0,0.0,0.0,0.0,0.0,0.0,0.0,0.0,0.0,0.0,0.0,0.0,1500,1500,0.0,0.0,40.0482555,-88.2331546667,0.0,0.0,0.0,0.0,0.0,0.0,0.0,0.0,0.0,0.0,0.0,0,0.0,0.0,0.0,0.0,90.0,90.0,51.0,88.8084564209,88.55381011959999,127.51494598389999,19.6220016479,15.9772005081,3.1200001239999997,0,2,25,1,48,284
128,1530628386229,299229, RC,0,39.9586186,-88.445067899,0,0.0,0.0,0.0,0.0,0.0,0.0,0.0,0.0,0.0,0.0,0.0,0.0,0.0,1500,1500,0.0,0.0,40.0482555,-88.2331546667,0.0,0.0,0.0,0.0,0.0,0.0,0.0,0.0,0.0,0.0,0.0,0,0.0,0.0,0.0,0.0,90.0,90.0,51.0,88.8084564209,88.55381011959999,127.51494598389999,19.6220016479,15.9772005081,3.1200001239999997,0,2,25,1,59,287
129,1530628386279,299279, RC,0,39.9586186,-88.445067899,0,0.0,0.0,0.0,0.0,0.0,0.0,0.0,0.0,0.0,0.0,0.0,0.0,0.0,1500,1500,0.0,0.0,40.0482555,-88.2331546667,0.0,0.0,0.0,0.0,0.0,0.0,0.0,0.0,0.0,0.0,0.0,0,0.0,0.0,0.0,0.0,90.0,90.0,51.0,88.8084564209,88.6174697876,127.51494598389999,19.6220016479,15.9772005081,3.1200001239999997,0,2,25,1,60,289
130,1530628386330,299330, RC,0,39.9586186,-88.445067899,0,0.0,0.0,0.0,0.0,0.0,0.0,0.0,0.0,0.0,0.0,0.0,0.0,0.0,1500,1500,0.0,0.0,40.0482555,-88.2331546667,0.0,0.0,0.0,0.0,0.0,0.0,0.0,0.0,0.0,0.0,0.0,0,0.0,0.0,0.0,0.0,90.0,90.0,51.0,88.8084564209,88.6174697876,127.51494598389999,19.6220016479,15.9772005081,3.1200001239999997,0,2,25,1,52,291
131,1530628386381,299381, RC,0,39.9586186,-88.445067899,0,0.0,0.0,0.0,0.0,0.0,0.0,0.0,0.0,0.0,0.0,0.0,0.0,0.0,1500,1500,0.0,0.0,40.0482555,-88.2331546667,0.0,0.0,0.0,0.0,0.0,0.0,0.0,0.0,0.0,0.0,0.0,0,0.0,0.0,0.0,0.0,90.0,90.0,51.0,88.8084564209,88.6174697876,127.51494598389999,19.6220016479,15.9772005081,3.1200001239999997,0,2,25,1,69,293
132,1530628386431,299431, RC,0,39.9586186,-88.445067899,0,0.0,0.0,0.0,0.0,0.0,0.0,0.0,0.0,0.0,0.0,0.0,0.0,0.0,1500,1500,0.0,0.0,40.0482555,-88.2331546667,0.0,0.0,0.0,0.0,0.0,0.0,0.0,0.0,0.0,0.0,0.0,0,0.0,0.0,0.0,0.0,90.0,90.0,51.0,88.8084564209,88.6174697876,127.51494598389999,19.6220016479,15.9772005081,3.1200001239999997,0,2,25,1,76,295
133,1530628386482,299482, RC,0,39.9586186,-88.445067899,0,0.0,0.0,0.0,0.0,0.0,0.0,0.0,0.0,0.0,0.0,0.0,0.0,0.0,1500,1500,0.0,0.0,40.0482555,-88.2331546667,0.0,0.0,0.0,0.0,0.0,0.0,0.0,0.0,0.0,0.0,0.0,0,0.0,0.0,0.0,0.0,90.0,90.0,51.0,88.8084564209,88.6174697876,127.51494598389999,19.6220016479,15.9772005081,3.1200001239999997,0,2,25,1,69,298
134,1530628386533,299533, RC,0,39.9586186,-88.445067899,0,0.0,0.0,0.0,0.0,0.0,0.0,0.0,0.0,0.0,0.0,0.0,0.0,0.0,1500,1500,0.0,0.0,40.0482555,-88.2331546667,0.0,0.0,0.0,0.0,0.0,0.0,0.0,0.0,0.0,0.0,0.0,0,0.0,0.0,0.0,0.0,90.0,90.0,51.0,88.8084564209,88.6174697876,127.51494598389999,19.6220016479,15.9772005081,3.1200001239999997,0,2,25,1,65,300
135,1530628386583,299583, RC,0,39.9586186,-88.445067899,0,0.0,0.0,0.0,0.0,0.0,0.0,0.0,0.0,0.0,0.0,0.0,0.0,0.0,1500,1500,0.0,0.0,40.0482555,-88.2331546667,0.0,0.0,0.0,0.0,0.0,0.0,0.0,0.0,0.0,0.0,0.0,0,0.0,0.0,0.0,0.0,90.0,90.0,51.0,88.8084564209,88.6174697876,127.51494598389999,19.6220016479,15.9772005081,3.1200001239999997,0,2,25,1,78,302
136,1530628386634,299634, RC,0,39.9586186,-88.445067899,0,0.0,0.0,0.0,0.0,0.0,0.0,0.0,0.0,0.0,0.0,0.0,0.0,0.0,1500,1500,0.0,0.0,40.0482555,-88.2331546667,0.0,0.0,0.0,0.0,0.0,0.0,0.0,0.0,0.0,0.0,0.0,0,0.0,0.0,0.0,0.0,90.0,90.0,51.0,88.8084564209,88.6174697876,127.51494598389999,19.6220016479,15.9772005081,3.1200001239999997,0,2,25,1,66,304
137,1530628386685,299685, RC,0,39.9586186,-88.445067899,0,0.0,0.0,0.0,0.0,0.0,0.0,0.0,0.0,0.0,0.0,0.0,0.0,0.0,1500,1500,0.0,0.0,40.0482555,-88.2331546667,0.0,0.0,0.0,0.0,0.0,0.0,0.0,0.0,0.0,0.0,0.0,0,0.0,0.0,0.0,0.0,90.0,90.0,51.0,88.8084564209,88.6174697876,127.51494598389999,19.6220016479,15.9725971222,3.2300000191000002,0,2,25,1,81,307
138,1530628386735,299735, RC,0,39.9586186,-88.445067899,0,0.0,0.0,0.0,0.0,0.0,0.0,0.0,0.0,0.0,0.0,0.0,0.0,0.0,1500,1500,0.0,0.0,40.0482555,-88.2331546667,0.0,0.0,0.0,0.0,0.0,0.0,0.0,0.0,0.0,0.0,0.0,0,0.0,0.0,0.0,0.0,90.0,90.0,42.0,88.8084564209,88.681137085,127.51494598389999,19.6220016479,15.9725971222,3.2300000191000002,0,2,25,1,73,309
139,1530628386786,299786, RC,0,39.9586186,-88.445067899,0,0.0,0.0,0.0,0.0,0.0,0.0,0.0,0.0,0.0,0.0,0.0,0.0,0.0,1500,1500,0.0,0.0,40.0482555,-88.2331546667,0.0,0.0,0.0,0.0,0.0,0.0,0.0,0.0,0.0,0.0,0.0,0,0.0,0.0,0.0,0.0,90.0,90.0,42.0,88.8084564209,88.681137085,127.51494598389999,19.6220016479,15.9725971222,3.2300000191000002,0,2,25,1,75,311
140,1530628386837,299837, RC,0,39.9586186,-88.445067899,0,0.0,0.0,0.0,0.0,0.0,0.0,0.0,0.0,0.0,0.0,0.0,0.0,0.0,1500,1500,0.0,0.0,40.0482561667,-88.23315,0.0,0.0,0.0,0.0,0.0,0.0,0.0,0.0,0.0,0.0,0.0,0,0.0,0.0,0.0,0.0,90.0,90.0,40.0,88.8084564209,88.6174697876,132.3532409668,19.6220016479,15.9725971222,3.2300000191000002,0,2,25,1,65,313
141,1530628386887,299887, RC,0,39.9586186,-88.445067899,0,0.0,0.0,0.0,0.0,0.0,0.0,0.0,0.0,0.0,0.0,0.0,0.0,0.0,1500,1500,0.0,0.0,40.0482561667,-88.23315,0.0,0.0,0.0,0.0,0.0,0.0,0.0,0.0,0.0,0.0,0.0,0,0.0,0.0,0.0,0.0,90.0,90.0,40.0,88.8084564209,88.681137085,135.53634643549998,19.6220016479,15.9725971222,3.2300000191000002,0,2,25,1,29,316
142,1530628386938,299938, RC,0,39.9586186,-88.445067899,0,0.0,0.0,0.0,0.0,0.0,0.0,0.0,0.0,0.0,0.0,0.0,0.0,0.0,1500,1500,0.0,0.0,40.0482561667,-88.23315,0.0,0.0,0.0,0.0,0.0,0.0,0.0,0.0,0.0,0.0,0.0,0,0.0,0.0,0.0,0.0,90.0,90.0,34.0,88.8084564209,88.681137085,139.1014251709,19.6220016479,15.9725971222,3.2300000191000002,0,2,25,1,33,318
143,1530628386989,299989, RC,0,39.9586186,-88.445067899,0,0.0,0.0,0.0,0.0,0.0,0.0,0.0,0.0,0.0,0.0,0.0,0.0,0.0,1500,1500,0.0,0.0,40.0482561667,-88.23315,0.0,0.0,0.0,0.0,0.0,0.0,0.0,0.0,0.0,0.0,0.0,0,0.0,0.0,0.0,0.0,90.0,90.0,34.0,88.8084564209,88.681137085,139.99269104,19.6220016479,15.9725971222,3.2300000191000002,0,2,25,1,38,320
144,1530628387039,300039, RC,0,39.9586186,-88.445067899,0,0.0,0.0,0.0,0.0,0.0,0.0,0.0,0.0,0.0,0.0,0.0,0.0,0.0,1500,1500,0.0,0.0,40.0482561667,-88.23315,0.0,0.0,0.0,0.0,0.0,0.0,0.0,0.0,0.0,0.0,0.0,0,0.0,0.0,0.0,0.0,90.0,90.0,30.0,88.8084564209,88.681137085,144.4490203857,19.6220016479,15.9725971222,3.2300000191000002,0,2,25,1,33,323
145,1530628387090,300090, RC,0,39.9586186,-88.445067899,0,0.0,0.0,0.0,0.0,0.0,0.0,0.0,0.0,0.0,0.0,0.0,0.0,0.0,1500,1500,0.0,0.0,40.0482561667,-88.23315,0.0,0.0,0.0,0.0,0.0,0.0,0.0,0.0,0.0,0.0,0.0,0,0.0,0.0,0.0,0.0,90.0,90.0,30.0,88.8084564209,88.681137085,145.97691345209998,19.6220016479,15.9725971222,3.2300000191000002,0,2,25,1,26,325
146,1530628387140,300140, RC,0,39.9586186,-88.445067899,0,0.0,0.0,0.0,0.0,0.0,0.0,0.0,0.0,0.0,0.0,0.0,0.0,0.0,1500,1500,0.0,0.0,40.0482561667,-88.23315,0.0,0.0,0.0,0.0,0.0,0.0,0.0,0.0,0.0,0.0,0.0,0,0.0,0.0,0.0,0.0,90.0,90.0,28.0,88.8084564209,88.681137085,147.31382751459998,19.6220016479,15.9725971222,3.2300000191000002,0,2,25,1,40,327
147,1530628387191,300191, RC,0,39.9586186,-88.445067899,0,0.0,0.0,0.0,0.0,0.0,0.0,0.0,0.0,0.0,0.0,0.0,0.0,0.0,1500,1500,0.0,0.0,40.0482561667,-88.23315,0.0,0.0,0.0,0.0,0.0,0.0,0.0,0.0,0.0,0.0,0.0,0,0.0,0.0,0.0,0.0,90.0,90.0,28.0,88.8084564209,88.681137085,148.6507263184,19.6220016479,15.9725971222,3.2300000191000002,0,2,25,1,47,330
148,1530628387242,300242, RC,0,39.9586186,-88.445067899,0,0.0,0.0,0.0,0.0,0.0,0.0,0.0,0.0,0.0,0.0,0.0,0.0,0.0,1500,1500,0.0,0.0,40.0482561667,-88.23315,0.0,0.0,0.0,0.0,0.0,0.0,0.0,0.0,0.0,0.0,0.0,0,0.0,0.0,0.0,0.0,90.0,90.0,28.0,88.8084564209,88.74479675290002,148.5870513916,19.6220016479,15.9725971222,3.2300000191000002,0,2,25,1,32,332
149,1530628387292,300292, RC,0,39.9586186,-88.445067899,0,0.0,0.0,0.0,0.0,0.0,0.0,0.0,0.0,0.0,0.0,0.0,0.0,0.0,1500,1500,0.0,0.0,40.0482561667,-88.23315,0.0,0.0,0.0,0.0,0.0,0.0,0.0,0.0,0.0,0.0,0.0,0,0.0,0.0,0.0,0.0,90.0,90.0,28.0,88.8084564209,88.681137085,148.5870513916,19.6220016479,15.9725971222,3.2300000191000002,0,2,25,1,32,334
150,1530628387343,300343, RC,0,39.9586186,-88.445067899,0,0.0,0.0,0.0,0.0,0.0,0.0,0.0,0.0,0.0,0.0,0.0,0.0,0.0,1500,1500,0.0,0.0,40.0482561667,-88.23315,0.0,0.0,0.0,0.0,0.0,0.0,0.0,0.0,0.0,0.0,0.0,0,0.0,0.0,0.0,0.0,90.0,90.0,25.0,88.8084564209,88.681137085,148.5870513916,19.6220016479,15.9725971222,3.2300000191000002,0,2,25,1,34,337
151,1530628387394,300394, RC,0,39.9586186,-88.445067899,0,0.0,0.0,0.0,0.0,0.0,0.0,0.0,0.0,0.0,0.0,0.0,0.0,0.0,1500,1500,0.0,0.0,40.0482561667,-88.23315,0.0,0.0,0.0,0.0,0.0,0.0,0.0,0.0,0.0,0.0,0.0,0,0.0,0.0,0.0,0.0,90.0,90.0,25.0,88.8084564209,88.681137085,148.5870513916,19.6220016479,15.9725971222,3.2300000191000002,0,2,25,1,36,339
152,1530628387445,300445, RC,0,39.9586186,-88.445067899,0,0.0,0.0,0.0,0.0,0.0,0.0,0.0,0.0,0.0,0.0,0.0,0.0,0.0,1500,1500,0.0,0.0,40.0482561667,-88.23315,0.0,0.0,0.0,0.0,0.0,0.0,0.0,0.0,0.0,0.0,0.0,0,0.0,0.0,0.0,0.0,90.0,90.0,24.0,88.8084564209,88.681137085,148.5870513916,19.6220016479,15.9725971222,3.2300000191000002,0,2,25,1,29,341
153,1530628387495,300495, RC,0,39.9586186,-88.445067899,0,0.0,0.0,0.0,0.0,0.0,0.0,0.0,0.0,0.0,0.0,0.0,0.0,0.0,1500,1500,0.0,0.0,40.0482561667,-88.23315,0.0,0.0,0.0,0.0,0.0,0.0,0.0,0.0,0.0,0.0,0.0,0,0.0,0.0,0.0,0.0,90.0,90.0,24.0,88.8084564209,88.681137085,148.5870513916,19.6220016479,15.9725971222,3.2300000191000002,0,2,25,1,31,344
154,1530628387546,300546, RC,0,39.9586186,-88.445067899,0,0.0,0.0,0.0,0.0,0.0,0.0,0.0,0.0,0.0,0.0,0.0,0.0,0.0,1500,1500,0.0,0.0,40.0482561667,-88.23315,0.0,0.0,0.0,0.0,0.0,0.0,0.0,0.0,0.0,0.0,0.0,0,0.0,0.0,0.0,0.0,90.0,90.0,18.0,88.8084564209,88.6174697876,148.5870513916,19.6220016479,15.9725971222,3.2300000191000002,0,2,25,1,28,346
155,1530628387597,300597, RC,0,39.9586186,-88.445067899,0,0.0,0.0,0.0,0.0,0.0,0.0,0.0,0.0,0.0,0.0,0.0,0.0,0.0,1500,1500,0.0,0.0,40.0482561667,-88.23315,0.0,0.0,0.0,0.0,0.0,0.0,0.0,0.0,0.0,0.0,0.0,0,0.0,0.0,0.0,0.0,90.0,90.0,18.0,88.8084564209,88.6174697876,148.5870513916,19.6220016479,15.9725971222,3.2300000191000002,0,2,25,1,48,348
156,1530628387647,300647, RC,0,39.9586186,-88.445067899,0,0.0,0.0,0.0,0.0,0.0,0.0,0.0,0.0,0.0,0.0,0.0,0.0,0.0,1500,1500,0.0,0.0,40.0482561667,-88.23315,0.0,0.0,0.0,0.0,0.0,0.0,0.0,0.0,0.0,0.0,0.0,0,0.0,0.0,0.0,0.0,90.0,90.0,16.0,88.8084564209,88.6174697876,148.5870513916,19.6220016479,15.9725971222,3.2300000191000002,0,2,25,1,29,351
157,1530628387698,300698, RC,0,39.9586186,-88.445067899,0,0.0,0.0,0.0,0.0,0.0,0.0,0.0,0.0,0.0,0.0,0.0,0.0,0.0,1500,1500,0.0,0.0,40.0482561667,-88.23315,0.0,0.0,0.0,0.0,0.0,0.0,0.0,0.0,0.0,0.0,0.0,0,0.0,0.0,0.0,0.0,90.0,90.0,16.0,88.8084564209,88.6174697876,148.5870513916,19.6220016479,15.967943191500002,3.4600000381,0,2,25,1,33,353
158,1530628387749,300749, RC,0,39.9586186,-88.445067899,0,0.0,0.0,0.0,0.0,0.0,0.0,0.0,0.0,0.0,0.0,0.0,0.0,0.0,1500,1500,0.0,0.0,40.0482561667,-88.23315,0.0,0.0,0.0,0.0,0.0,0.0,0.0,0.0,0.0,0.0,0.0,0,0.0,0.0,0.0,0.0,90.0,90.0,15.0,88.8084564209,88.6174697876,148.5870513916,19.6220016479,15.967943191500002,3.4600000381,0,2,25,1,32,355
159,1530628387799,300799, RC,0,39.9586186,-88.445067899,0,0.0,0.0,0.0,0.0,0.0,0.0,0.0,0.0,0.0,0.0,0.0,0.0,0.0,1500,1500,0.0,0.0,40.0482558333,-88.2331413333,0.0,0.0,0.0,0.0,0.0,0.0,0.0,0.0,0.0,0.0,0.0,0,0.0,0.0,0.0,0.0,90.0,90.0,15.0,88.8084564209,88.55381011959999,148.5870513916,19.6220016479,15.967943191500002,3.4600000381,0,2,25,1,35,358
160,1530628387850,300850, RC,0,39.9586186,-88.445067899,0,0.0,0.0,0.0,0.0,0.0,0.0,0.0,0.0,0.0,0.0,0.0,0.0,0.0,1500,1500,0.0,0.0,40.0482558333,-88.2331413333,0.0,0.0,0.0,0.0,0.0,0.0,0.0,0.0,0.0,0.0,0.0,0,0.0,0.0,0.0,0.0,90.0,90.0,15.0,88.8084564209,88.55381011959999,148.5870513916,19.6220016479,15.967943191500002,3.4600000381,0,2,25,1,32,360
161,1530628387901,300901, RC,0,39.9586186,-88.445067899,0,0.0,0.0,0.0,0.0,0.0,0.0,0.0,0.0,0.0,0.0,0.0,0.0,0.0,1500,1500,0.0,0.0,40.0482558333,-88.2331413333,0.0,0.0,0.0,0.0,0.0,0.0,0.0,0.0,0.0,0.0,0.0,0,0.0,0.0,0.0,0.0,90.0,90.0,15.0,88.8084564209,88.55381011959999,148.5870513916,19.6220016479,15.967943191500002,3.4600000381,0,2,25,1,31,362
162,1530628387952,300952, RC,0,39.9586186,-88.445067899,0,0.0,0.0,0.0,0.0,0.0,0.0,0.0,0.0,0.0,0.0,0.0,0.0,0.0,1500,1500,0.0,0.0,40.0482558333,-88.2331413333,0.0,0.0,0.0,0.0,0.0,0.0,0.0,0.0,0.0,0.0,0.0,0,0.0,0.0,0.0,0.0,90.0,90.0,15.0,88.8084564209,88.55381011959999,148.5870513916,19.6220016479,15.967943191500002,3.4600000381,0,2,25,1,33,364
163,1530628388002,301002, RC,0,39.9586186,-88.445067899,0,0.0,0.0,0.0,0.0,0.0,0.0,0.0,0.0,0.0,0.0,0.0,0.0,0.0,1500,1500,0.0,0.0,40.0482558333,-88.2331413333,0.0,0.0,0.0,0.0,0.0,0.0,0.0,0.0,0.0,0.0,0.0,0,0.0,0.0,0.0,0.0,90.0,90.0,15.0,88.8084564209,88.55381011959999,148.5870513916,19.6220016479,15.967943191500002,3.4600000381,0,2,25,1,31,367
164,1530628388053,301053, RC,0,39.9586186,-88.445067899,0,0.0,0.0,0.0,0.0,0.0,0.0,0.0,0.0,0.0,0.0,0.0,0.0,0.0,1500,1500,0.0,0.0,40.0482558333,-88.2331413333,0.0,0.0,0.0,0.0,0.0,0.0,0.0,0.0,0.0,0.0,0.0,0,0.0,0.0,0.0,0.0,90.0,90.0,15.0,88.8084564209,88.55381011959999,148.5233917236,19.6220016479,15.967943191500002,3.4600000381,0,2,25,1,28,370
165,1530628388104,301104, RC,0,39.9586186,-88.445067899,0,0.0,0.0,0.0,0.0,0.0,0.0,0.0,0.0,0.0,0.0,0.0,0.0,0.0,1500,1500,0.0,0.0,40.0482558333,-88.2331413333,0.0,0.0,0.0,0.0,0.0,0.0,0.0,0.0,0.0,0.0,0.0,0,0.0,0.0,0.0,0.0,90.0,90.0,15.0,88.8084564209,88.4901504517,148.5233917236,19.6220016479,15.967943191500002,3.4600000381,0,2,25,1,36,374
166,1530628388154,301154, RC,0,39.9586186,-88.445067899,0,0.0,0.0,0.0,0.0,0.0,0.0,0.0,0.0,0.0,0.0,0.0,0.0,0.0,1500,1500,0.0,0.0,40.0482558333,-88.2331413333,0.0,0.0,0.0,0.0,0.0,0.0,0.0,0.0,0.0,0.0,0.0,0,0.0,0.0,0.0,0.0,90.0,90.0,15.0,88.8084564209,88.4901504517,148.5233917236,19.6220016479,15.967943191500002,3.4600000381,0,2,25,1,33,377
167,1530628388205,301205, RC,0,39.9586186,-88.445067899,0,0.0,0.0,0.0,0.0,0.0,0.0,0.0,0.0,0.0,0.0,0.0,0.0,0.0,1500,1500,0.0,0.0,40.0482558333,-88.2331413333,0.0,0.0,0.0,0.0,0.0,0.0,0.0,0.0,0.0,0.0,0.0,0,0.0,0.0,0.0,0.0,90.0,90.0,15.0,88.8084564209,88.4901504517,148.5233917236,19.6220016479,15.967943191500002,3.4600000381,0,2,25,1,31,380
168,1530628388256,301256, RC,0,39.9586186,-88.445067899,0,0.0,0.0,0.0,0.0,0.0,0.0,0.0,0.0,0.0,0.0,0.0,0.0,0.0,1500,1500,0.0,0.0,40.0482558333,-88.2331413333,0.0,0.0,0.0,0.0,0.0,0.0,0.0,0.0,0.0,0.0,0.0,0,0.0,0.0,0.0,0.0,90.0,90.0,15.0,88.8084564209,88.4901504517,148.5233917236,19.6220016479,15.967943191500002,3.4600000381,0,2,25,1,27,382
169,1530628388306,301306, RC,0,39.9586186,-88.445067899,0,0.0,0.0,0.0,0.0,0.0,0.0,0.0,0.0,0.0,0.0,0.0,0.0,0.0,1500,1500,0.0,0.0,40.0482558333,-88.2331413333,0.0,0.0,0.0,0.0,0.0,0.0,0.0,0.0,0.0,0.0,0.0,0,0.0,0.0,0.0,0.0,90.0,90.0,15.0,88.8084564209,88.4901504517,148.5233917236,19.6220016479,15.967943191500002,3.4600000381,0,2,25,1,28,385
170,1530628388357,301357, RC,0,39.9586186,-88.445067899,0,0.0,0.0,0.0,0.0,0.0,0.0,0.0,0.0,0.0,0.0,0.0,0.0,0.0,1500,1500,0.0,0.0,40.0482558333,-88.2331413333,0.0,0.0,0.0,0.0,0.0,0.0,0.0,0.0,0.0,0.0,0.0,0,0.0,0.0,0.0,0.0,90.0,90.0,21.0,88.8084564209,88.4901504517,148.5233917236,19.6220016479,15.967943191500002,3.4600000381,0,2,25,1,40,387
