,(0)linux time (ms),    (1)uptime  (ms),      (2)drive mode,(3)mpc step counter,(4)mpc origin latitude  (deg),(5)mpc origin longitude  (deg),(6)closest trajectory point index to robot,(7)mpc error x (W;E)  (m),(8)mpc error y (W;E)  (m),(9)abs mpc error (m),(10)input [x] for mhe (m),(11)input [y] for mhe (m),(12)input [speed] for mhe (m/s),(13)input [vyaw] for mhe (rad/s),(14)mhe output x  (m),(15)mhe output y  (m),(16)mhe output speed  (m/s),(17)mhe output yaw  (rad),(18)mpc reference heading (rad),(19)mpc turn rate command (rad/s),(20)turn rate command as PWM,(21)throttle command as PWM,(22)primary gps latitude (deg),(23)primary gps longitude (deg),(24)secondary gps latitude  (deg),(25)secondary gps longitude (deg),(26)accelerometer x (m/s^2),(27)accelerometer y (m/s^2),(28)accelerometer z (m/s^2),(29)gyro yaw rate (rad/s),(30)gyro pitch rate   (rad/s),(31)gyro roll rate (rad/s),      (32)yaw (rad),  (33)pitch   (rad),     (34)roll (rad),(35)sonar1 measurement (m),(36)ultrasonic sensor measurement (m),(37)primary gps time (s),(38)normalized turn rate command,(39)normalized throttle command,(40)speed calculation from encoder left (m/s),(41)speed calculation from encoder right (m/s),(42)front gimbal target angle (degrees from straight down),(43)left gimbal target angle  (degrees from straight down),(44)right gimbal target angle  (degrees from straight down),(45)front gimbal measured angle  (degrees from straight down),(46)left gimbal measured angle    (degrees from straight down),(47)right gimbal measured angle  (degrees from straight down),(48)internal temperature (C),(49)battery voltage (V),(50)primary gps type,(51)secondary gps type,    (52)MPC R value, (53)MPC Q[0] value,Unnamed: 54,weed_num,start
0,1530628109724,22724, RC,0,39.9586186,-88.445067899,0,0.0,0.0,0.0,0.0,0.0,0.0,0.0,0.0,0.0,0.0,0.0,0.0,0.0,1500,1500,0.0,0.0,40.0635591667,-88.20145983329999,0.0,0.0,0.0,0.0,0.0,0.0,0.0,0.0,0.0,0.0,0.0,0,0.0,0.0,0.0,0.0,90.0,90.0,90.0,88.55381011959999,88.4901504517,88.2991638184,10.476001739500001,16.1860370636,2.5699999332,0,2,25,1,19,0
1,1530628109775,22775, RC,0,39.9586186,-88.445067899,0,0.0,0.0,0.0,0.0,0.0,0.0,0.0,0.0,0.0,0.0,0.0,0.0,0.0,1500,1500,0.0,0.0,40.0635591667,-88.20145983329999,0.0,0.0,0.0,0.0,0.0,0.0,0.0,0.0,0.0,0.0,0.0,0,0.0,0.0,0.0,0.0,90.0,90.0,90.0,88.55381011959999,88.4901504517,88.2991638184,10.476001739500001,16.1860370636,2.5699999332,0,2,25,1,19,0
2,1530628109826,22826, RC,0,39.9586186,-88.445067899,0,0.0,0.0,0.0,0.0,0.0,0.0,0.0,0.0,0.0,0.0,0.0,0.0,0.0,1500,1500,0.0,0.0,40.0635591667,-88.20145983329999,0.0,0.0,0.0,0.0,0.0,0.0,0.0,0.0,0.0,0.0,0.0,0,0.0,0.0,0.0,0.0,90.0,90.0,90.0,88.55381011959999,88.4901504517,88.2991638184,10.476001739500001,16.1860370636,2.5699999332,0,2,25,1,19,0
3,1530628109877,22877, RC,0,39.9586186,-88.445067899,0,0.0,0.0,0.0,0.0,0.0,0.0,0.0,0.0,0.0,0.0,0.0,0.0,0.0,1500,1500,0.0,0.0,40.0635591667,-88.20145983329999,0.0,0.0,0.0,0.0,0.0,0.0,0.0,0.0,0.0,0.0,0.0,0,0.0,0.0,0.0,0.0,90.0,90.0,90.0,88.55381011959999,88.4901504517,88.2991638184,10.476001739500001,16.1860370636,2.5699999332,0,2,25,1,19,0
4,1530628109928,22928, RC,0,39.9586186,-88.445067899,0,0.0,0.0,0.0,0.0,0.0,0.0,0.0,0.0,0.0,0.0,0.0,0.0,0.0,1500,1500,0.0,0.0,40.0635591667,-88.20145983329999,0.0,0.0,0.0,0.0,0.0,0.0,0.0,0.0,0.0,0.0,0.0,0,0.0,0.0,0.0,0.0,90.0,90.0,90.0,88.55381011959999,88.4901504517,88.2991638184,10.476001739500001,16.1860370636,2.5699999332,0,2,25,1,19,0
5,1530628109978,22978, RC,0,39.9586186,-88.445067899,0,0.0,0.0,0.0,0.0,0.0,0.0,0.0,0.0,0.0,0.0,0.0,0.0,0.0,1500,1500,0.0,0.0,40.0635591667,-88.20145983329999,0.0,0.0,0.0,0.0,0.0,0.0,0.0,0.0,0.0,0.0,0.0,0,0.0,0.0,0.0,0.0,90.0,90.0,90.0,88.55381011959999,88.55381011959999,88.2991638184,10.476001739500001,16.1860370636,2.5699999332,0,2,25,1,19,0
6,1530628110029,23029, RC,0,39.9586186,-88.445067899,0,0.0,0.0,0.0,0.0,0.0,0.0,0.0,0.0,0.0,0.0,0.0,0.0,0.0,1500,1500,0.0,0.0,40.0635591667,-88.20145983329999,0.0,0.0,0.0,0.0,0.0,0.0,0.0,0.0,0.0,0.0,0.0,0,0.0,0.0,0.0,0.0,90.0,90.0,90.0,88.55381011959999,88.55381011959999,88.2991638184,10.476001739500001,16.1860370636,2.5699999332,0,2,25,1,19,0
7,1530628110080,23080, RC,0,39.9586186,-88.445067899,0,0.0,0.0,0.0,0.0,0.0,0.0,0.0,0.0,0.0,0.0,0.0,0.0,0.0,1500,1500,0.0,0.0,40.0635591667,-88.20145983329999,0.0,0.0,0.0,0.0,0.0,0.0,0.0,0.0,0.0,0.0,0.0,0,0.0,0.0,0.0,0.0,90.0,90.0,90.0,88.55381011959999,88.55381011959999,88.2991638184,10.476001739500001,16.1860370636,2.5699999332,0,2,25,1,19,0
8,1530628110130,23130, RC,0,39.9586186,-88.445067899,0,0.0,0.0,0.0,0.0,0.0,0.0,0.0,0.0,0.0,0.0,0.0,0.0,0.0,1500,1500,0.0,0.0,40.0635591667,-88.20145983329999,0.0,0.0,0.0,0.0,0.0,0.0,0.0,0.0,0.0,0.0,0.0,0,0.0,0.0,0.0,0.0,90.0,90.0,90.0,88.4901504517,88.4901504517,88.2991638184,10.476001739500001,16.1860370636,2.5699999332,0,2,25,1,19,0
9,1530628110181,23181, RC,0,39.9586186,-88.445067899,0,0.0,0.0,0.0,0.0,0.0,0.0,0.0,0.0,0.0,0.0,0.0,0.0,0.0,1500,1500,0.0,0.0,40.0635591667,-88.20145983329999,0.0,0.0,0.0,0.0,0.0,0.0,0.0,0.0,0.0,0.0,0.0,0,0.0,0.0,0.0,0.0,90.0,90.0,90.0,88.4901504517,88.4901504517,88.2991638184,10.476001739500001,16.1860370636,2.5699999332,0,2,25,1,19,0
10,1530628110232,23232, RC,0,39.9586186,-88.445067899,0,0.0,0.0,0.0,0.0,0.0,0.0,0.0,0.0,0.0,0.0,0.0,0.0,0.0,1500,1500,0.0,0.0,40.0635591667,-88.20145983329999,0.0,0.0,0.0,0.0,0.0,0.0,0.0,0.0,0.0,0.0,0.0,0,0.0,0.0,0.0,0.0,90.0,90.0,90.0,88.4901504517,88.55381011959999,88.2991638184,10.476001739500001,16.1860370636,2.5699999332,0,2,25,1,19,0
11,1530628110282,23282, RC,0,39.9586186,-88.445067899,0,0.0,0.0,0.0,0.0,0.0,0.0,0.0,0.0,0.0,0.0,0.0,0.0,0.0,1500,1500,0.0,0.0,40.0635591667,-88.20145983329999,0.0,0.0,0.0,0.0,0.0,0.0,0.0,0.0,0.0,0.0,0.0,0,0.0,0.0,0.0,0.0,90.0,90.0,90.0,88.4901504517,88.4901504517,88.2991638184,10.476001739500001,16.1860370636,2.5699999332,0,2,25,1,19,0
12,1530628110333,23333, RC,0,39.9586186,-88.445067899,0,0.0,0.0,0.0,0.0,0.0,0.0,0.0,0.0,0.0,0.0,0.0,0.0,0.0,1500,1500,0.0,0.0,40.0635591667,-88.20145983329999,0.0,0.0,0.0,0.0,0.0,0.0,0.0,0.0,0.0,0.0,0.0,0,0.0,0.0,0.0,0.0,90.0,90.0,90.0,88.4901504517,88.55381011959999,88.2991638184,10.476001739500001,16.1860370636,2.5699999332,0,2,25,1,19,0
13,1530628110383,23383, RC,0,39.9586186,-88.445067899,0,0.0,0.0,0.0,0.0,0.0,0.0,0.0,0.0,0.0,0.0,0.0,0.0,0.0,1500,1500,0.0,0.0,40.0635591667,-88.20145983329999,0.0,0.0,0.0,0.0,0.0,0.0,0.0,0.0,0.0,0.0,0.0,0,0.0,0.0,0.0,0.0,90.0,90.0,90.0,88.4901504517,88.55381011959999,88.2991638184,10.476001739500001,16.1860370636,2.5699999332,0,2,25,1,19,0
14,1530628110434,23434, RC,0,39.9586186,-88.445067899,0,0.0,0.0,0.0,0.0,0.0,0.0,0.0,0.0,0.0,0.0,0.0,0.0,0.0,1500,1500,0.0,0.0,40.0635591667,-88.20145983329999,0.0,0.0,0.0,0.0,0.0,0.0,0.0,0.0,0.0,0.0,0.0,0,0.0,0.0,0.0,0.0,90.0,90.0,90.0,88.4901504517,88.55381011959999,88.2991638184,10.476001739500001,16.1860370636,2.5699999332,0,2,25,1,19,0
15,1530628110485,23485, RC,0,39.9586186,-88.445067899,0,0.0,0.0,0.0,0.0,0.0,0.0,0.0,0.0,0.0,0.0,0.0,0.0,0.0,1500,1500,0.0,0.0,40.0635591667,-88.20145983329999,0.0,0.0,0.0,0.0,0.0,0.0,0.0,0.0,0.0,0.0,0.0,0,0.0,0.0,0.0,0.0,90.0,90.0,90.0,88.4901504517,88.55381011959999,88.2991638184,10.476001739500001,16.1860370636,2.5699999332,0,2,25,1,19,0
16,1530628110536,23536, RC,0,39.9586186,-88.445067899,0,0.0,0.0,0.0,0.0,0.0,0.0,0.0,0.0,0.0,0.0,0.0,0.0,0.0,1500,1500,0.0,0.0,40.0635591667,-88.20145983329999,0.0,0.0,0.0,0.0,0.0,0.0,0.0,0.0,0.0,0.0,0.0,0,0.0,0.0,0.0,0.0,90.0,90.0,90.0,88.4901504517,88.4901504517,88.2991638184,10.476001739500001,16.1860370636,2.5699999332,0,2,25,1,19,0
17,1530628110587,23587, RC,0,39.9586186,-88.445067899,0,0.0,0.0,0.0,0.0,0.0,0.0,0.0,0.0,0.0,0.0,0.0,0.0,0.0,1500,1500,0.0,0.0,40.0635591667,-88.20145983329999,0.0,0.0,0.0,0.0,0.0,0.0,0.0,0.0,0.0,0.0,0.0,0,0.0,0.0,0.0,0.0,90.0,90.0,90.0,88.4901504517,88.4901504517,88.2991638184,10.476001739500001,16.1860370636,2.5699999332,0,2,25,1,19,0
18,1530628110638,23638, RC,0,39.9586186,-88.445067899,0,0.0,0.0,0.0,0.0,0.0,0.0,0.0,0.0,0.0,0.0,0.0,0.0,0.0,1500,1500,0.0,0.0,40.0635591667,-88.20145983329999,0.0,0.0,0.0,0.0,0.0,0.0,0.0,0.0,0.0,0.0,0.0,0,0.0,0.0,0.0,0.0,90.0,90.0,90.0,88.4901504517,88.4901504517,88.2991638184,10.476001739500001,16.1910743713,2.4600000381,0,2,25,1,19,0
19,1530628110688,23688, RC,0,39.9586186,-88.445067899,0,0.0,0.0,0.0,0.0,0.0,0.0,0.0,0.0,0.0,0.0,0.0,0.0,0.0,1500,1500,0.0,0.0,40.0635591667,-88.20145983329999,0.0,0.0,0.0,0.0,0.0,0.0,0.0,0.0,0.0,0.0,0.0,0,0.0,0.0,0.0,0.0,90.0,90.0,90.0,88.4901504517,88.4901504517,88.2991638184,10.476001739500001,16.1910743713,2.4600000381,0,2,25,1,19,0
20,1530628110739,23739, RC,0,39.9586186,-88.445067899,0,0.0,0.0,0.0,0.0,0.0,0.0,0.0,0.0,0.0,0.0,0.0,0.0,0.0,1500,1500,0.0,0.0,40.0635591667,-88.20145983329999,0.0,0.0,0.0,0.0,0.0,0.0,0.0,0.0,0.0,0.0,0.0,0,0.0,0.0,0.0,0.0,90.0,90.0,90.0,88.4901504517,88.4901504517,88.2991638184,10.476001739500001,16.1910743713,2.4600000381,0,2,25,1,19,0
21,1530628110790,23790, RC,0,39.9586186,-88.445067899,0,0.0,0.0,0.0,0.0,0.0,0.0,0.0,0.0,0.0,0.0,0.0,0.0,0.0,1500,1500,0.0,0.0,40.0635591667,-88.20145983329999,0.0,0.0,0.0,0.0,0.0,0.0,0.0,0.0,0.0,0.0,0.0,0,0.0,0.0,0.0,0.0,90.0,90.0,90.0,88.4901504517,88.4901504517,88.2991638184,10.476001739500001,16.1910743713,2.4600000381,0,2,25,1,19,0
22,1530628110840,23840, RC,0,39.9586186,-88.445067899,0,0.0,0.0,0.0,0.0,0.0,0.0,0.0,0.0,0.0,0.0,0.0,0.0,0.0,1500,1500,0.0,0.0,40.0635591667,-88.20145983329999,0.0,0.0,0.0,0.0,0.0,0.0,0.0,0.0,0.0,0.0,0.0,0,0.0,0.0,0.0,0.0,90.0,90.0,90.0,88.4901504517,88.4264831543,88.2991638184,10.476001739500001,16.1910743713,2.4600000381,0,2,25,1,19,0
23,1530628110891,23891, RC,0,39.9586186,-88.445067899,0,0.0,0.0,0.0,0.0,0.0,0.0,0.0,0.0,0.0,0.0,0.0,0.0,0.0,1500,1500,0.0,0.0,40.0635591667,-88.20145983329999,0.0,0.0,0.0,0.0,0.0,0.0,0.0,0.0,0.0,0.0,0.0,0,0.0,0.0,0.0,0.0,90.0,90.0,90.0,88.4901504517,88.4264831543,88.2991638184,10.476001739500001,16.1910743713,2.4600000381,0,2,25,1,19,0
24,1530628110942,23942, RC,0,39.9586186,-88.445067899,0,0.0,0.0,0.0,0.0,0.0,0.0,0.0,0.0,0.0,0.0,0.0,0.0,0.0,1500,1500,0.0,0.0,40.0635591667,-88.20145983329999,0.0,0.0,0.0,0.0,0.0,0.0,0.0,0.0,0.0,0.0,0.0,0,0.0,0.0,0.0,0.0,90.0,90.0,90.0,88.4901504517,88.4264831543,88.2991638184,10.476001739500001,16.1910743713,2.4600000381,0,2,25,1,19,0
25,1530628110992,23992, RC,0,39.9586186,-88.445067899,0,0.0,0.0,0.0,0.0,0.0,0.0,0.0,0.0,0.0,0.0,0.0,0.0,0.0,1500,1500,0.0,0.0,40.0635591667,-88.20145983329999,0.0,0.0,0.0,0.0,0.0,0.0,0.0,0.0,0.0,0.0,0.0,0,0.0,0.0,0.0,0.0,90.0,90.0,90.0,88.4901504517,88.36282348629999,88.2991638184,10.476001739500001,16.1910743713,2.4600000381,0,2,25,1,19,0
26,1530628111043,24043, RC,0,39.9586186,-88.445067899,0,0.0,0.0,0.0,0.0,0.0,0.0,0.0,0.0,0.0,0.0,0.0,0.0,0.0,1500,1500,0.0,0.0,40.0635591667,-88.20145983329999,0.0,0.0,0.0,0.0,0.0,0.0,0.0,0.0,0.0,0.0,0.0,0,0.0,0.0,0.0,0.0,90.0,90.0,90.0,88.4901504517,88.4264831543,88.2991638184,10.476001739500001,16.1910743713,2.4600000381,0,2,25,1,19,0
27,1530628111094,24094, RC,0,39.9586186,-88.445067899,0,0.0,0.0,0.0,0.0,0.0,0.0,0.0,0.0,0.0,0.0,0.0,0.0,0.0,1500,1500,0.0,0.0,40.0635591667,-88.20145983329999,0.0,0.0,0.0,0.0,0.0,0.0,0.0,0.0,0.0,0.0,0.0,0,0.0,0.0,0.0,0.0,90.0,90.0,90.0,88.4901504517,88.36282348629999,88.2991638184,10.476001739500001,16.1910743713,2.4600000381,0,2,25,1,19,0
28,1530628111144,24144, RC,0,39.9586186,-88.445067899,0,0.0,0.0,0.0,0.0,0.0,0.0,0.0,0.0,0.0,0.0,0.0,0.0,0.0,1500,1500,0.0,0.0,40.0635591667,-88.20145983329999,0.0,0.0,0.0,0.0,0.0,0.0,0.0,0.0,0.0,0.0,0.0,0,0.0,0.0,0.0,0.0,90.0,90.0,90.0,88.4901504517,88.36282348629999,88.2991638184,10.476001739500001,16.1910743713,2.4600000381,0,2,25,1,19,0
29,1530628111195,24195, RC,0,39.9586186,-88.445067899,0,0.0,0.0,0.0,0.0,0.0,0.0,0.0,0.0,0.0,0.0,0.0,0.0,0.0,1500,1500,0.0,0.0,40.0635591667,-88.20145983329999,0.0,0.0,0.0,0.0,0.0,0.0,0.0,0.0,0.0,0.0,0.0,0,0.0,0.0,0.0,0.0,90.0,90.0,90.0,88.4901504517,88.36282348629999,88.2991638184,10.476001739500001,16.1910743713,2.4600000381,0,2,25,1,19,0
30,1530628111245,24245, RC,0,39.9586186,-88.445067899,0,0.0,0.0,0.0,0.0,0.0,0.0,0.0,0.0,0.0,0.0,0.0,0.0,0.0,1500,1500,0.0,0.0,40.0635591667,-88.20145983329999,0.0,0.0,0.0,0.0,0.0,0.0,0.0,0.0,0.0,0.0,0.0,0,0.0,0.0,0.0,0.0,90.0,90.0,90.0,88.4901504517,88.36282348629999,88.2991638184,10.476001739500001,16.1910743713,2.4600000381,0,2,25,1,19,0
31,1530628111296,24296, RC,0,39.9586186,-88.445067899,0,0.0,0.0,0.0,0.0,0.0,0.0,0.0,0.0,0.0,0.0,0.0,0.0,0.0,1500,1500,0.0,0.0,40.0635591667,-88.20145983329999,0.0,0.0,0.0,0.0,0.0,0.0,0.0,0.0,0.0,0.0,0.0,0,0.0,0.0,0.0,0.0,90.0,90.0,90.0,88.4901504517,88.2991638184,88.2991638184,10.476001739500001,16.1910743713,2.4600000381,0,2,25,1,19,0
32,1530628111347,24347, RC,0,39.9586186,-88.445067899,0,0.0,0.0,0.0,0.0,0.0,0.0,0.0,0.0,0.0,0.0,0.0,0.0,0.0,1500,1500,0.0,0.0,40.0635591667,-88.20145983329999,0.0,0.0,0.0,0.0,0.0,0.0,0.0,0.0,0.0,0.0,0.0,0,0.0,0.0,0.0,0.0,90.0,90.0,90.0,88.4901504517,88.2991638184,88.2991638184,10.476001739500001,16.1910743713,2.4600000381,0,2,25,1,19,0
33,1530628111397,24397, RC,0,39.9586186,-88.445067899,0,0.0,0.0,0.0,0.0,0.0,0.0,0.0,0.0,0.0,0.0,0.0,0.0,0.0,1500,1500,0.0,0.0,40.0635591667,-88.20145983329999,0.0,0.0,0.0,0.0,0.0,0.0,0.0,0.0,0.0,0.0,0.0,0,0.0,0.0,0.0,0.0,90.0,90.0,90.0,88.4901504517,88.2991638184,88.2991638184,10.476001739500001,16.1910743713,2.4600000381,0,2,25,1,19,0
34,1530628111448,24448, RC,0,39.9586186,-88.445067899,0,0.0,0.0,0.0,0.0,0.0,0.0,0.0,0.0,0.0,0.0,0.0,0.0,0.0,1500,1500,0.0,0.0,40.0635591667,-88.20145983329999,0.0,0.0,0.0,0.0,0.0,0.0,0.0,0.0,0.0,0.0,0.0,0,0.0,0.0,0.0,0.0,90.0,90.0,90.0,88.4901504517,88.2991638184,88.2991638184,10.476001739500001,16.1910743713,2.4600000381,0,2,25,1,19,0
35,1530628111499,24499, RC,0,39.9586186,-88.445067899,0,0.0,0.0,0.0,0.0,0.0,0.0,0.0,0.0,0.0,0.0,0.0,0.0,0.0,1500,1500,0.0,0.0,40.0635591667,-88.20145983329999,0.0,0.0,0.0,0.0,0.0,0.0,0.0,0.0,0.0,0.0,0.0,0,0.0,0.0,0.0,0.0,90.0,90.0,90.0,88.4901504517,88.2991638184,88.2991638184,10.476001739500001,16.1910743713,2.4600000381,0,2,25,1,19,0
36,1530628111549,24549, RC,0,39.9586186,-88.445067899,0,0.0,0.0,0.0,0.0,0.0,0.0,0.0,0.0,0.0,0.0,0.0,0.0,0.0,1500,1500,0.0,0.0,40.0635591667,-88.20145983329999,0.0,0.0,0.0,0.0,0.0,0.0,0.0,0.0,0.0,0.0,0.0,0,0.0,0.0,0.0,0.0,90.0,90.0,90.0,88.4901504517,88.2991638184,88.2991638184,10.476001739500001,16.1910743713,2.4600000381,0,2,25,1,19,0
37,1530628111600,24600, RC,0,39.9586186,-88.445067899,0,0.0,0.0,0.0,0.0,0.0,0.0,0.0,0.0,0.0,0.0,0.0,0.0,0.0,1500,1500,0.0,0.0,40.0635591667,-88.20145983329999,0.0,0.0,0.0,0.0,0.0,0.0,0.0,0.0,0.0,0.0,0.0,0,0.0,0.0,0.0,0.0,90.0,90.0,90.0,88.4901504517,88.36282348629999,88.2991638184,10.476001739500001,16.1910743713,2.4600000381,0,2,25,1,19,0
38,1530628111651,24651, RC,0,39.9586186,-88.445067899,0,0.0,0.0,0.0,0.0,0.0,0.0,0.0,0.0,0.0,0.0,0.0,0.0,0.0,1500,1500,0.0,0.0,40.0635591667,-88.20145983329999,0.0,0.0,0.0,0.0,0.0,0.0,0.0,0.0,0.0,0.0,0.0,0,0.0,0.0,0.0,0.0,90.0,90.0,90.0,88.4901504517,88.36282348629999,88.2991638184,10.476001739500001,16.196166992200002,2.6199998856,0,2,25,1,19,0
39,1530628111702,24702, RC,0,39.9586186,-88.445067899,0,0.0,0.0,0.0,0.0,0.0,0.0,0.0,0.0,0.0,0.0,0.0,0.0,0.0,1500,1500,0.0,0.0,40.0635591667,-88.20145983329999,0.0,0.0,0.0,0.0,0.0,0.0,0.0,0.0,0.0,0.0,0.0,0,0.0,0.0,0.0,0.0,90.0,90.0,90.0,88.4901504517,88.36282348629999,88.2991638184,10.476001739500001,16.196166992200002,2.6199998856,0,2,25,1,19,0
40,1530628111752,24752, RC,0,39.9586186,-88.445067899,0,0.0,0.0,0.0,0.0,0.0,0.0,0.0,0.0,0.0,0.0,0.0,0.0,0.0,1500,1500,0.0,0.0,40.0635591667,-88.20145983329999,0.0,0.0,0.0,0.0,0.0,0.0,0.0,0.0,0.0,0.0,0.0,0,0.0,0.0,0.0,0.0,90.0,90.0,90.0,88.4901504517,88.36282348629999,88.2991638184,10.476001739500001,16.196166992200002,2.6199998856,0,2,25,1,19,0
41,1530628111803,24803, RC,0,39.9586186,-88.445067899,0,0.0,0.0,0.0,0.0,0.0,0.0,0.0,0.0,0.0,0.0,0.0,0.0,0.0,1500,1500,0.0,0.0,40.0635591667,-88.20145983329999,0.0,0.0,0.0,0.0,0.0,0.0,0.0,0.0,0.0,0.0,0.0,0,0.0,0.0,0.0,0.0,90.0,90.0,90.0,88.4901504517,88.36282348629999,88.2991638184,10.476001739500001,16.196166992200002,2.6199998856,0,2,25,1,19,0
42,1530628111854,24854, RC,0,39.9586186,-88.445067899,0,0.0,0.0,0.0,0.0,0.0,0.0,0.0,0.0,0.0,0.0,0.0,0.0,0.0,1500,1500,0.0,0.0,40.0635591667,-88.20145983329999,0.0,0.0,0.0,0.0,0.0,0.0,0.0,0.0,0.0,0.0,0.0,0,0.0,0.0,0.0,0.0,90.0,90.0,81.0,88.4901504517,88.36282348629999,88.2991638184,10.476001739500001,16.196166992200002,2.6199998856,0,2,25,1,19,0
43,1530628111904,24904, RC,0,39.9586186,-88.445067899,0,0.0,0.0,0.0,0.0,0.0,0.0,0.0,0.0,0.0,0.0,0.0,0.0,0.0,1500,1500,0.0,0.0,40.0635591667,-88.20145983329999,0.0,0.0,0.0,0.0,0.0,0.0,0.0,0.0,0.0,0.0,0.0,0,0.0,0.0,0.0,0.0,90.0,90.0,81.0,88.4901504517,88.36282348629999,91.2276153564,10.476001739500001,16.196166992200002,2.6199998856,0,2,25,1,19,0
44,1530628111955,24955, RC,0,39.9586186,-88.445067899,0,0.0,0.0,0.0,0.0,0.0,0.0,0.0,0.0,0.0,0.0,0.0,0.0,0.0,1500,1500,0.0,0.0,40.0635591667,-88.20145983329999,0.0,0.0,0.0,0.0,0.0,0.0,0.0,0.0,0.0,0.0,0.0,0,0.0,0.0,0.0,0.0,90.0,90.0,81.0,88.4901504517,88.36282348629999,96.44789123540001,10.476001739500001,16.196166992200002,2.6199998856,0,2,25,1,19,0
45,1530628112006,25006, RC,0,39.9586186,-88.445067899,0,0.0,0.0,0.0,0.0,0.0,0.0,0.0,0.0,0.0,0.0,0.0,0.0,0.0,1500,1500,0.0,0.0,40.0635591667,-88.20145983329999,0.0,0.0,0.0,0.0,0.0,0.0,0.0,0.0,0.0,0.0,0.0,0,0.0,0.0,0.0,0.0,90.0,90.0,81.0,88.4901504517,88.36282348629999,97.53015136719999,10.476001739500001,16.196166992200002,2.6199998856,0,2,25,1,19,0
46,1530628112056,25056, RC,0,39.9586186,-88.445067899,0,0.0,0.0,0.0,0.0,0.0,0.0,0.0,0.0,0.0,0.0,0.0,0.0,0.0,1500,1500,0.0,0.0,40.0635591667,-88.20145983329999,0.0,0.0,0.0,0.0,0.0,0.0,0.0,0.0,0.0,0.0,0.0,0,0.0,0.0,0.0,0.0,90.0,90.0,77.0,88.4901504517,88.36282348629999,97.46648406979999,10.476001739500001,16.196166992200002,2.6199998856,0,2,25,1,19,0
47,1530628112107,25107, RC,0,39.9586186,-88.445067899,0,0.0,0.0,0.0,0.0,0.0,0.0,0.0,0.0,0.0,0.0,0.0,0.0,0.0,1500,1500,0.0,0.0,40.0635591667,-88.20145983329999,0.0,0.0,0.0,0.0,0.0,0.0,0.0,0.0,0.0,0.0,0.0,0,0.0,0.0,0.0,0.0,90.0,90.0,77.0,88.4901504517,88.4264831543,98.42141723629999,10.476001739500001,16.196166992200002,2.6199998856,0,2,25,1,19,0
48,1530628112158,25158, RC,0,39.9586186,-88.445067899,0,0.0,0.0,0.0,0.0,0.0,0.0,0.0,0.0,0.0,0.0,0.0,0.0,0.0,1500,1500,0.0,0.0,40.0635591667,-88.20145983329999,0.0,0.0,0.0,0.0,0.0,0.0,0.0,0.0,0.0,0.0,0.0,0,0.0,0.0,0.0,0.0,90.0,90.0,77.0,88.4901504517,88.36282348629999,101.0952224731,10.476001739500001,16.196166992200002,2.6199998856,0,2,25,1,19,0
49,1530628112208,25208, RC,0,39.9586186,-88.445067899,0,0.0,0.0,0.0,0.0,0.0,0.0,0.0,0.0,0.0,0.0,0.0,0.0,0.0,1500,1500,0.0,0.0,40.0635591667,-88.20145983329999,0.0,0.0,0.0,0.0,0.0,0.0,0.0,0.0,0.0,0.0,0.0,0,0.0,0.0,0.0,0.0,90.0,90.0,77.0,88.4901504517,88.36282348629999,101.15888214110001,10.476001739500001,16.196166992200002,2.6199998856,0,2,25,1,19,0
50,1530628112259,25259, RC,0,39.9586186,-88.445067899,0,0.0,0.0,0.0,0.0,0.0,0.0,0.0,0.0,0.0,0.0,0.0,0.0,0.0,1500,1500,0.0,0.0,40.0635591667,-88.20145983329999,0.0,0.0,0.0,0.0,0.0,0.0,0.0,0.0,0.0,0.0,0.0,0,0.0,0.0,0.0,0.0,90.0,90.0,72.0,88.4901504517,88.36282348629999,101.349861145,10.476001739500001,16.196166992200002,2.6199998856,0,2,25,1,19,0
51,1530628112310,25310, RC,0,39.9586186,-88.445067899,0,0.0,0.0,0.0,0.0,0.0,0.0,0.0,0.0,0.0,0.0,0.0,0.0,0.0,1500,1500,0.0,0.0,40.0635591667,-88.20145983329999,0.0,0.0,0.0,0.0,0.0,0.0,0.0,0.0,0.0,0.0,0.0,0,0.0,0.0,0.0,0.0,90.0,90.0,72.0,88.4901504517,88.36282348629999,105.5515594482,10.476001739500001,16.196166992200002,2.6199998856,0,2,25,1,19,0
52,1530628112360,25360, RC,0,39.9586186,-88.445067899,0,0.0,0.0,0.0,0.0,0.0,0.0,0.0,0.0,0.0,0.0,0.0,0.0,0.0,1500,1500,0.0,0.0,40.0635591667,-88.20145983329999,0.0,0.0,0.0,0.0,0.0,0.0,0.0,0.0,0.0,0.0,0.0,0,0.0,0.0,0.0,0.0,90.0,90.0,72.0,88.4901504517,88.4264831543,106.0608520508,10.476001739500001,16.196166992200002,2.6199998856,0,2,25,1,19,0
53,1530628112411,25411, RC,0,39.9586186,-88.445067899,0,0.0,0.0,0.0,0.0,0.0,0.0,0.0,0.0,0.0,0.0,0.0,0.0,0.0,1500,1500,0.0,0.0,40.0635591667,-88.20145983329999,0.0,0.0,0.0,0.0,0.0,0.0,0.0,0.0,0.0,0.0,0.0,0,0.0,0.0,0.0,0.0,90.0,90.0,72.0,88.4901504517,88.4264831543,105.9335327148,10.476001739500001,16.196166992200002,2.6199998856,0,2,25,1,19,0
54,1530628112462,25462, RC,0,39.9586186,-88.445067899,0,0.0,0.0,0.0,0.0,0.0,0.0,0.0,0.0,0.0,0.0,0.0,0.0,0.0,1500,1500,0.0,0.0,40.0635591667,-88.20145983329999,0.0,0.0,0.0,0.0,0.0,0.0,0.0,0.0,0.0,0.0,0.0,0,0.0,0.0,0.0,0.0,90.0,90.0,72.0,88.55381011959999,88.4264831543,105.99719238280001,10.476001739500001,16.196166992200002,2.6199998856,0,2,25,1,19,0
55,1530628112513,25513, RC,0,39.9586186,-88.445067899,0,0.0,0.0,0.0,0.0,0.0,0.0,0.0,0.0,0.0,0.0,0.0,0.0,0.0,1500,1500,0.0,0.0,40.0635591667,-88.20145983329999,0.0,0.0,0.0,0.0,0.0,0.0,0.0,0.0,0.0,0.0,0.0,0,0.0,0.0,0.0,0.0,90.0,90.0,70.0,88.55381011959999,88.4264831543,106.0608520508,10.476001739500001,16.196166992200002,2.6199998856,0,2,25,1,19,0
56,1530628112564,25564, RC,0,39.9586186,-88.445067899,0,0.0,0.0,0.0,0.0,0.0,0.0,0.0,0.0,0.0,0.0,0.0,0.0,0.0,1500,1500,0.0,0.0,40.0635591667,-88.20145983329999,0.0,0.0,0.0,0.0,0.0,0.0,0.0,0.0,0.0,0.0,0.0,0,0.0,0.0,0.0,0.0,90.0,90.0,70.0,88.55381011959999,88.4264831543,106.0608520508,10.476001739500001,16.196166992200002,2.6199998856,0,2,25,1,19,0
57,1530628112614,25614, RC,0,39.9586186,-88.445067899,0,0.0,0.0,0.0,0.0,0.0,0.0,0.0,0.0,0.0,0.0,0.0,0.0,0.0,1500,1500,0.0,0.0,40.0635591667,-88.20145983329999,0.0,0.0,0.0,0.0,0.0,0.0,0.0,0.0,0.0,0.0,0.0,0,0.0,0.0,0.0,0.0,90.0,90.0,70.0,88.55381011959999,88.4264831543,106.9521255493,10.476001739500001,16.196166992200002,2.6199998856,0,2,25,1,19,0
58,1530628112665,25665, RC,0,39.9586186,-88.445067899,0,0.0,0.0,0.0,0.0,0.0,0.0,0.0,0.0,0.0,0.0,0.0,0.0,0.0,1500,1500,0.0,0.0,40.0635591667,-88.20145983329999,0.0,0.0,0.0,0.0,0.0,0.0,0.0,0.0,0.0,0.0,0.0,0,0.0,0.0,0.0,0.0,90.0,90.0,70.0,88.55381011959999,88.4264831543,107.90705108639999,10.476001739500001,16.1962089539,2.7999999523000003,0,2,25,1,19,0
59,1530628112716,25716, RC,0,39.9586186,-88.445067899,0,0.0,0.0,0.0,0.0,0.0,0.0,0.0,0.0,0.0,0.0,0.0,0.0,0.0,1500,1500,0.0,0.0,40.0635591667,-88.20145983329999,0.0,0.0,0.0,0.0,0.0,0.0,0.0,0.0,0.0,0.0,0.0,0,0.0,0.0,0.0,0.0,90.0,90.0,70.0,88.55381011959999,88.4264831543,107.97071838379999,10.476001739500001,16.1962089539,2.7999999523000003,0,2,25,1,19,0
60,1530628112767,25767, RC,0,39.9586186,-88.445067899,0,0.0,0.0,0.0,0.0,0.0,0.0,0.0,0.0,0.0,0.0,0.0,0.0,0.0,1500,1500,0.0,0.0,40.0635591667,-88.20145983329999,0.0,0.0,0.0,0.0,0.0,0.0,0.0,0.0,0.0,0.0,0.0,0,0.0,0.0,0.0,0.0,90.0,90.0,70.0,88.55381011959999,88.4264831543,108.0343704224,10.476001739500001,16.1962089539,2.7999999523000003,0,2,25,1,19,0
61,1530628112818,25818, RC,0,39.9586186,-88.445067899,0,0.0,0.0,0.0,0.0,0.0,0.0,0.0,0.0,0.0,0.0,0.0,0.0,0.0,1500,1500,0.0,0.0,40.0635591667,-88.20145983329999,0.0,0.0,0.0,0.0,0.0,0.0,0.0,0.0,0.0,0.0,0.0,0,0.0,0.0,0.0,0.0,90.0,90.0,70.0,88.55381011959999,88.4264831543,108.0343704224,10.476001739500001,16.1962089539,2.7999999523000003,0,2,25,1,19,0
62,1530628112869,25869, RC,0,39.9586186,-88.445067899,0,0.0,0.0,0.0,0.0,0.0,0.0,0.0,0.0,0.0,0.0,0.0,0.0,0.0,1500,1500,0.0,0.0,40.0635591667,-88.20145983329999,0.0,0.0,0.0,0.0,0.0,0.0,0.0,0.0,0.0,0.0,0.0,0,0.0,0.0,0.0,0.0,90.0,90.0,70.0,88.55381011959999,88.4264831543,108.09803771969999,10.476001739500001,16.1962089539,2.7999999523000003,0,2,25,1,19,0
63,1530628112919,25919, RC,0,39.9586186,-88.445067899,0,0.0,0.0,0.0,0.0,0.0,0.0,0.0,0.0,0.0,0.0,0.0,0.0,0.0,1500,1500,0.0,0.0,40.0635591667,-88.20145983329999,0.0,0.0,0.0,0.0,0.0,0.0,0.0,0.0,0.0,0.0,0.0,0,0.0,0.0,0.0,0.0,90.0,90.0,70.0,88.55381011959999,88.4901504517,108.09803771969999,10.476001739500001,16.1962089539,2.7999999523000003,0,2,25,1,19,0
64,1530628112970,25970, RC,0,39.9586186,-88.445067899,0,0.0,0.0,0.0,0.0,0.0,0.0,0.0,0.0,0.0,0.0,0.0,0.0,0.0,1500,1500,0.0,0.0,40.0635591667,-88.20145983329999,0.0,0.0,0.0,0.0,0.0,0.0,0.0,0.0,0.0,0.0,0.0,0,0.0,0.0,0.0,0.0,90.0,90.0,70.0,88.55381011959999,88.4901504517,108.1616973877,10.476001739500001,16.1962089539,2.7999999523000003,0,2,25,1,19,0
65,1530628113021,26021, RC,0,39.9586186,-88.445067899,0,0.0,0.0,0.0,0.0,0.0,0.0,0.0,0.0,0.0,0.0,0.0,0.0,0.0,1500,1500,0.0,0.0,40.0635591667,-88.20145983329999,0.0,0.0,0.0,0.0,0.0,0.0,0.0,0.0,0.0,0.0,0.0,0,0.0,0.0,0.0,0.0,90.0,90.0,69.0,88.55381011959999,88.55381011959999,108.2253570557,10.476001739500001,16.1962089539,2.7999999523000003,0,2,25,1,19,0
66,1530628113072,26072, RC,0,39.9586186,-88.445067899,0,0.0,0.0,0.0,0.0,0.0,0.0,0.0,0.0,0.0,0.0,0.0,0.0,0.0,1500,1500,0.0,0.0,40.0635591667,-88.20145983329999,0.0,0.0,0.0,0.0,0.0,0.0,0.0,0.0,0.0,0.0,0.0,0,0.0,0.0,0.0,0.0,90.0,90.0,69.0,88.55381011959999,88.4901504517,108.2253570557,10.476001739500001,16.1962089539,2.7999999523000003,0,2,25,1,19,0
67,1530628113122,26122, RC,0,39.9586186,-88.445067899,0,0.0,0.0,0.0,0.0,0.0,0.0,0.0,0.0,0.0,0.0,0.0,0.0,0.0,1500,1500,0.0,0.0,40.0635591667,-88.20145983329999,0.0,0.0,0.0,0.0,0.0,0.0,0.0,0.0,0.0,0.0,0.0,0,0.0,0.0,0.0,0.0,90.0,90.0,69.0,88.55381011959999,88.4901504517,108.6073303223,10.476001739500001,16.1962089539,2.7999999523000003,0,2,25,1,19,0
68,1530628113173,26173, RC,0,39.9586186,-88.445067899,0,0.0,0.0,0.0,0.0,0.0,0.0,0.0,0.0,0.0,0.0,0.0,0.0,0.0,1500,1500,0.0,0.0,40.0635591667,-88.20145983329999,0.0,0.0,0.0,0.0,0.0,0.0,0.0,0.0,0.0,0.0,0.0,0,0.0,0.0,0.0,0.0,90.0,90.0,69.0,88.55381011959999,88.4901504517,109.1166305542,10.476001739500001,16.1962089539,2.7999999523000003,0,2,25,1,19,0
69,1530628113224,26224, RC,0,39.9586186,-88.445067899,0,0.0,0.0,0.0,0.0,0.0,0.0,0.0,0.0,0.0,0.0,0.0,0.0,0.0,1500,1500,0.0,0.0,40.0635591667,-88.20145983329999,0.0,0.0,0.0,0.0,0.0,0.0,0.0,0.0,0.0,0.0,0.0,0,0.0,0.0,0.0,0.0,90.0,90.0,69.0,88.55381011959999,88.4264831543,110.3898620605,10.476001739500001,16.1962089539,2.7999999523000003,0,2,25,1,19,0
70,1530628113274,26274, RC,0,39.9586186,-88.445067899,0,0.0,0.0,0.0,0.0,0.0,0.0,0.0,0.0,0.0,0.0,0.0,0.0,0.0,1500,1500,0.0,0.0,40.0635591667,-88.20145983329999,0.0,0.0,0.0,0.0,0.0,0.0,0.0,0.0,0.0,0.0,0.0,0,0.0,0.0,0.0,0.0,90.0,90.0,69.0,88.55381011959999,88.4264831543,110.0078964233,10.476001739500001,16.1962089539,2.7999999523000003,0,2,25,1,19,0
71,1530628113325,26325, RC,0,39.9586186,-88.445067899,0,0.0,0.0,0.0,0.0,0.0,0.0,0.0,0.0,0.0,0.0,0.0,0.0,0.0,1500,1500,0.0,0.0,40.0635591667,-88.20145983329999,0.0,0.0,0.0,0.0,0.0,0.0,0.0,0.0,0.0,0.0,0.0,0,0.0,0.0,0.0,0.0,90.0,90.0,69.0,88.55381011959999,88.4264831543,109.94423675540001,10.476001739500001,16.1962089539,2.7999999523000003,0,2,25,1,19,0
72,1530628113376,26376, RC,0,39.9586186,-88.445067899,0,0.0,0.0,0.0,0.0,0.0,0.0,0.0,0.0,0.0,0.0,0.0,0.0,0.0,1500,1500,0.0,0.0,40.0635591667,-88.20145983329999,0.0,0.0,0.0,0.0,0.0,0.0,0.0,0.0,0.0,0.0,0.0,0,0.0,0.0,0.0,0.0,90.0,90.0,69.0,88.55381011959999,88.4264831543,109.94423675540001,10.476001739500001,16.1962089539,2.7999999523000003,0,2,25,1,19,0
73,1530628113426,26426, RC,0,39.9586186,-88.445067899,0,0.0,0.0,0.0,0.0,0.0,0.0,0.0,0.0,0.0,0.0,0.0,0.0,0.0,1500,1500,0.0,0.0,40.0635591667,-88.20145983329999,0.0,0.0,0.0,0.0,0.0,0.0,0.0,0.0,0.0,0.0,0.0,0,0.0,0.0,0.0,0.0,90.0,90.0,69.0,88.55381011959999,88.4264831543,109.94423675540001,10.476001739500001,16.1962089539,2.7999999523000003,0,2,25,1,19,0
74,1530628113477,26477, RC,0,39.9586186,-88.445067899,0,0.0,0.0,0.0,0.0,0.0,0.0,0.0,0.0,0.0,0.0,0.0,0.0,0.0,1500,1500,0.0,0.0,40.0635591667,-88.20145983329999,0.0,0.0,0.0,0.0,0.0,0.0,0.0,0.0,0.0,0.0,0.0,0,0.0,0.0,0.0,0.0,90.0,90.0,69.0,88.55381011959999,88.4264831543,109.94423675540001,10.476001739500001,16.1962089539,2.7999999523000003,0,2,25,1,19,0
75,1530628113528,26528, RC,0,39.9586186,-88.445067899,0,0.0,0.0,0.0,0.0,0.0,0.0,0.0,0.0,0.0,0.0,0.0,0.0,0.0,1500,1500,0.0,0.0,40.0635591667,-88.20145983329999,0.0,0.0,0.0,0.0,0.0,0.0,0.0,0.0,0.0,0.0,0.0,0,0.0,0.0,0.0,0.0,90.0,90.0,69.0,88.55381011959999,88.4264831543,109.94423675540001,10.476001739500001,16.1962089539,2.7999999523000003,0,2,25,1,19,0
76,1530628113578,26578, RC,0,39.9586186,-88.445067899,0,0.0,0.0,0.0,0.0,0.0,0.0,0.0,0.0,0.0,0.0,0.0,0.0,0.0,1500,1500,0.0,0.0,40.0635591667,-88.20145983329999,0.0,0.0,0.0,0.0,0.0,0.0,0.0,0.0,0.0,0.0,0.0,0,0.0,0.0,0.0,0.0,90.0,90.0,69.0,88.55381011959999,88.36282348629999,109.94423675540001,10.476001739500001,16.1962089539,2.7999999523000003,0,2,25,1,19,0
77,1530628113629,26629, RC,0,39.9586186,-88.445067899,0,0.0,0.0,0.0,0.0,0.0,0.0,0.0,0.0,0.0,0.0,0.0,0.0,0.0,1500,1500,0.0,0.0,40.0635591667,-88.20145983329999,0.0,0.0,0.0,0.0,0.0,0.0,0.0,0.0,0.0,0.0,0.0,0,0.0,0.0,0.0,0.0,90.0,90.0,69.0,88.55381011959999,88.36282348629999,109.94423675540001,10.476001739500001,16.1962089539,2.7999999523000003,0,2,25,1,19,0
78,1530628113680,26680, RC,0,39.9586186,-88.445067899,0,0.0,0.0,0.0,0.0,0.0,0.0,0.0,0.0,0.0,0.0,0.0,0.0,0.0,1500,1500,0.0,0.0,40.0635591667,-88.20145983329999,0.0,0.0,0.0,0.0,0.0,0.0,0.0,0.0,0.0,0.0,0.0,0,0.0,0.0,0.0,0.0,90.0,90.0,69.0,88.55381011959999,88.36282348629999,110.0078964233,10.476001739500001,16.1964321136,2.6300001144,0,2,25,1,19,0
79,1530628113731,26731, RC,0,39.9586186,-88.445067899,0,0.0,0.0,0.0,0.0,0.0,0.0,0.0,0.0,0.0,0.0,0.0,0.0,0.0,1500,1500,0.0,0.0,40.0635591667,-88.20145983329999,0.0,0.0,0.0,0.0,0.0,0.0,0.0,0.0,0.0,0.0,0.0,0,0.0,0.0,0.0,0.0,90.0,90.0,67.0,88.55381011959999,88.36282348629999,110.0078964233,10.476001739500001,16.1964321136,2.6300001144,0,2,25,1,19,0
80,1530628113781,26781, RC,0,39.9586186,-88.445067899,0,0.0,0.0,0.0,0.0,0.0,0.0,0.0,0.0,0.0,0.0,0.0,0.0,0.0,1500,1500,0.0,0.0,40.0635591667,-88.20145983329999,0.0,0.0,0.0,0.0,0.0,0.0,0.0,0.0,0.0,0.0,0.0,0,0.0,0.0,0.0,0.0,90.0,90.0,67.0,88.55381011959999,88.36282348629999,110.0715560913,10.476001739500001,16.1964321136,2.6300001144,0,2,25,1,19,0
81,1530628113832,26832, RC,0,39.9586186,-88.445067899,0,0.0,0.0,0.0,0.0,0.0,0.0,0.0,0.0,0.0,0.0,0.0,0.0,0.0,1500,1500,0.0,0.0,40.0635591667,-88.20145983329999,0.0,0.0,0.0,0.0,0.0,0.0,0.0,0.0,0.0,0.0,0.0,0,0.0,0.0,0.0,0.0,90.0,90.0,67.0,88.55381011959999,88.2991638184,110.3898620605,10.476001739500001,16.1964321136,2.6300001144,0,2,25,1,19,0
82,1530628113883,26883, RC,0,39.9586186,-88.445067899,0,0.0,0.0,0.0,0.0,0.0,0.0,0.0,0.0,0.0,0.0,0.0,0.0,0.0,1500,1500,0.0,0.0,40.0635591667,-88.20145983329999,0.0,0.0,0.0,0.0,0.0,0.0,0.0,0.0,0.0,0.0,0.0,0,0.0,0.0,0.0,0.0,90.0,90.0,67.0,88.55381011959999,88.36282348629999,110.51719665530001,10.476001739500001,16.1964321136,2.6300001144,0,2,25,1,19,0
83,1530628113934,26934, RC,0,39.9586186,-88.445067899,0,0.0,0.0,0.0,0.0,0.0,0.0,0.0,0.0,0.0,0.0,0.0,0.0,0.0,1500,1500,0.0,0.0,40.0635591667,-88.20145983329999,0.0,0.0,0.0,0.0,0.0,0.0,0.0,0.0,0.0,0.0,0.0,0,0.0,0.0,0.0,0.0,90.0,90.0,67.0,88.4901504517,88.36282348629999,110.51719665530001,10.476001739500001,16.1964321136,2.6300001144,0,2,25,1,19,0
84,1530628113984,26984, RC,0,39.9586186,-88.445067899,0,0.0,0.0,0.0,0.0,0.0,0.0,0.0,0.0,0.0,0.0,0.0,0.0,0.0,1500,1500,0.0,0.0,40.0635591667,-88.20145983329999,0.0,0.0,0.0,0.0,0.0,0.0,0.0,0.0,0.0,0.0,0.0,0,0.0,0.0,0.0,0.0,90.0,90.0,67.0,88.55381011959999,88.2991638184,110.5808486938,10.476001739500001,16.1964321136,2.6300001144,0,2,25,1,19,0
85,1530628114035,27035, RC,0,39.9586186,-88.445067899,0,0.0,0.0,0.0,0.0,0.0,0.0,0.0,0.0,0.0,0.0,0.0,0.0,0.0,1500,1500,0.0,0.0,40.0635591667,-88.20145983329999,0.0,0.0,0.0,0.0,0.0,0.0,0.0,0.0,0.0,0.0,0.0,0,0.0,0.0,0.0,0.0,90.0,90.0,66.0,88.4901504517,88.2991638184,111.5994415283,10.476001739500001,16.1964321136,2.6300001144,0,2,25,1,19,0
86,1530628114085,27085, RC,0,39.9586186,-88.445067899,0,0.0,0.0,0.0,0.0,0.0,0.0,0.0,0.0,0.0,0.0,0.0,0.0,0.0,1500,1500,0.0,0.0,40.0635591667,-88.20145983329999,0.0,0.0,0.0,0.0,0.0,0.0,0.0,0.0,0.0,0.0,0.0,0,0.0,0.0,0.0,0.0,90.0,90.0,66.0,88.4901504517,88.2991638184,111.6631088257,10.476001739500001,16.1964321136,2.6300001144,0,2,25,1,19,0
87,1530628114136,27136, RC,0,39.9586186,-88.445067899,0,0.0,0.0,0.0,0.0,0.0,0.0,0.0,0.0,0.0,0.0,0.0,0.0,0.0,1500,1500,0.0,0.0,40.0635591667,-88.20145983329999,0.0,0.0,0.0,0.0,0.0,0.0,0.0,0.0,0.0,0.0,0.0,0,0.0,0.0,0.0,0.0,90.0,90.0,66.0,88.4901504517,88.2991638184,111.726776123,10.476001739500001,16.1964321136,2.6300001144,0,2,25,1,19,0
88,1530628114187,27187, RC,0,39.9586186,-88.445067899,0,0.0,0.0,0.0,0.0,0.0,0.0,0.0,0.0,0.0,0.0,0.0,0.0,0.0,1500,1500,0.0,0.0,40.0635591667,-88.20145983329999,0.0,0.0,0.0,0.0,0.0,0.0,0.0,0.0,0.0,0.0,0.0,0,0.0,0.0,0.0,0.0,90.0,90.0,66.0,88.4901504517,88.2991638184,112.04508209229999,10.476001739500001,16.1964321136,2.6300001144,0,2,25,1,19,0
89,1530628114237,27237, RC,0,39.9586186,-88.445067899,0,0.0,0.0,0.0,0.0,0.0,0.0,0.0,0.0,0.0,0.0,0.0,0.0,0.0,1500,1500,0.0,0.0,40.0635591667,-88.20145983329999,0.0,0.0,0.0,0.0,0.0,0.0,0.0,0.0,0.0,0.0,0.0,0,0.0,0.0,0.0,0.0,90.0,90.0,66.0,88.4901504517,88.2991638184,112.1087417603,10.476001739500001,16.1964321136,2.6300001144,0,2,25,1,19,0
90,1530628114288,27288, RC,0,39.9586186,-88.445067899,0,0.0,0.0,0.0,0.0,0.0,0.0,0.0,0.0,0.0,0.0,0.0,0.0,0.0,1500,1500,0.0,0.0,40.0635591667,-88.20145983329999,0.0,0.0,0.0,0.0,0.0,0.0,0.0,0.0,0.0,0.0,0.0,0,0.0,0.0,0.0,0.0,90.0,90.0,66.0,88.4901504517,88.2991638184,112.1087417603,10.476001739500001,16.1964321136,2.6300001144,0,2,25,1,19,0
91,1530628114339,27339, RC,0,39.9586186,-88.445067899,0,0.0,0.0,0.0,0.0,0.0,0.0,0.0,0.0,0.0,0.0,0.0,0.0,0.0,1500,1500,0.0,0.0,40.0635591667,-88.20145983329999,0.0,0.0,0.0,0.0,0.0,0.0,0.0,0.0,0.0,0.0,0.0,0,0.0,0.0,0.0,0.0,90.0,90.0,64.0,88.4901504517,88.2991638184,112.1087417603,10.476001739500001,16.1964321136,2.6300001144,0,2,25,1,19,0
92,1530628114390,27390, RC,0,39.9586186,-88.445067899,0,0.0,0.0,0.0,0.0,0.0,0.0,0.0,0.0,0.0,0.0,0.0,0.0,0.0,1500,1500,0.0,0.0,40.0635591667,-88.20145983329999,0.0,0.0,0.0,0.0,0.0,0.0,0.0,0.0,0.0,0.0,0.0,0,0.0,0.0,0.0,0.0,90.0,90.0,64.0,88.4901504517,88.2991638184,112.2997283936,10.476001739500001,16.1964321136,2.6300001144,0,2,25,1,19,0
93,1530628114441,27441, RC,0,39.9586186,-88.445067899,0,0.0,0.0,0.0,0.0,0.0,0.0,0.0,0.0,0.0,0.0,0.0,0.0,0.0,1500,1500,0.0,0.0,40.0635591667,-88.20145983329999,0.0,0.0,0.0,0.0,0.0,0.0,0.0,0.0,0.0,0.0,0.0,0,0.0,0.0,0.0,0.0,90.0,90.0,64.0,88.4901504517,88.2991638184,114.2095870972,10.476001739500001,16.1964321136,2.6300001144,0,2,25,1,19,0
94,1530628114491,27491, RC,0,39.9586186,-88.445067899,0,0.0,0.0,0.0,0.0,0.0,0.0,0.0,0.0,0.0,0.0,0.0,0.0,0.0,1500,1500,0.0,0.0,40.0635591667,-88.20145983329999,0.0,0.0,0.0,0.0,0.0,0.0,0.0,0.0,0.0,0.0,0.0,0,0.0,0.0,0.0,0.0,90.0,90.0,64.0,88.4901504517,88.36282348629999,114.5278930664,10.476001739500001,16.1964321136,2.6300001144,0,2,25,1,19,0
95,1530628114542,27542, RC,0,39.9586186,-88.445067899,0,0.0,0.0,0.0,0.0,0.0,0.0,0.0,0.0,0.0,0.0,0.0,0.0,0.0,1500,1500,0.0,0.0,40.0635591667,-88.20145983329999,0.0,0.0,0.0,0.0,0.0,0.0,0.0,0.0,0.0,0.0,0.0,0,0.0,0.0,0.0,0.0,90.0,90.0,64.0,88.4901504517,88.36282348629999,114.4642410278,10.476001739500001,16.1964321136,2.6300001144,0,2,25,1,19,0
96,1530628114593,27593, RC,0,39.9586186,-88.445067899,0,0.0,0.0,0.0,0.0,0.0,0.0,0.0,0.0,0.0,0.0,0.0,0.0,0.0,1500,1500,0.0,0.0,40.0635591667,-88.20145983329999,0.0,0.0,0.0,0.0,0.0,0.0,0.0,0.0,0.0,0.0,0.0,0,0.0,0.0,0.0,0.0,90.0,90.0,64.0,88.4901504517,88.36282348629999,114.4642410278,10.476001739500001,16.1964321136,2.6300001144,0,2,25,1,19,0
97,1530628114643,27643, RC,0,39.9586186,-88.445067899,0,0.0,0.0,0.0,0.0,0.0,0.0,0.0,0.0,0.0,0.0,0.0,0.0,0.0,1500,1500,0.0,0.0,40.0635591667,-88.20145983329999,0.0,0.0,0.0,0.0,0.0,0.0,0.0,0.0,0.0,0.0,0.0,0,0.0,0.0,0.0,0.0,90.0,90.0,63.0,88.4901504517,88.36282348629999,114.4642410278,10.476001739500001,16.1914787292,2.75,0,2,25,1,19,0
98,1530628114694,27694, RC,0,39.9586186,-88.445067899,0,0.0,0.0,0.0,0.0,0.0,0.0,0.0,0.0,0.0,0.0,0.0,0.0,0.0,1500,1500,0.0,0.0,40.0635591667,-88.20145983329999,0.0,0.0,0.0,0.0,0.0,0.0,0.0,0.0,0.0,0.0,0.0,0,0.0,0.0,0.0,0.0,90.0,90.0,63.0,88.4901504517,88.36282348629999,114.5278930664,10.476001739500001,16.1914787292,2.75,0,2,25,1,19,0
99,1530628114745,27745, RC,0,39.9586186,-88.445067899,0,0.0,0.0,0.0,0.0,0.0,0.0,0.0,0.0,0.0,0.0,0.0,0.0,0.0,1500,1500,0.0,0.0,40.0635591667,-88.20145983329999,0.0,0.0,0.0,0.0,0.0,0.0,0.0,0.0,0.0,0.0,0.0,0,0.0,0.0,0.0,0.0,90.0,90.0,63.0,88.4901504517,88.36282348629999,114.7188873291,10.476001739500001,16.1914787292,2.75,0,2,25,1,19,0
100,1530628114795,27795, RC,0,39.9586186,-88.445067899,0,0.0,0.0,0.0,0.0,0.0,0.0,0.0,0.0,0.0,0.0,0.0,0.0,0.0,1500,1500,0.0,0.0,40.0635591667,-88.20145983329999,0.0,0.0,0.0,0.0,0.0,0.0,0.0,0.0,0.0,0.0,0.0,0,0.0,0.0,0.0,0.0,90.0,90.0,63.0,88.4901504517,88.36282348629999,114.7188873291,10.476001739500001,16.1914787292,2.75,0,2,25,1,19,0
101,1530628114846,27846, RC,0,39.9586186,-88.445067899,0,0.0,0.0,0.0,0.0,0.0,0.0,0.0,0.0,0.0,0.0,0.0,0.0,0.0,1500,1500,0.0,0.0,40.0635591667,-88.20145983329999,0.0,0.0,0.0,0.0,0.0,0.0,0.0,0.0,0.0,0.0,0.0,0,0.0,0.0,0.0,0.0,90.0,90.0,63.0,88.4901504517,88.36282348629999,114.78254699709998,10.476001739500001,16.1914787292,2.75,0,2,25,1,19,0
102,1530628114897,27897, RC,0,39.9586186,-88.445067899,0,0.0,0.0,0.0,0.0,0.0,0.0,0.0,0.0,0.0,0.0,0.0,0.0,0.0,1500,1500,0.0,0.0,40.0635591667,-88.20145983329999,0.0,0.0,0.0,0.0,0.0,0.0,0.0,0.0,0.0,0.0,0.0,0,0.0,0.0,0.0,0.0,90.0,90.0,63.0,88.4901504517,88.36282348629999,114.78254699709998,10.476001739500001,16.1914787292,2.75,0,2,25,1,19,0
103,1530628114947,27947, RC,0,39.9586186,-88.445067899,0,0.0,0.0,0.0,0.0,0.0,0.0,0.0,0.0,0.0,0.0,0.0,0.0,0.0,1500,1500,0.0,0.0,40.0635591667,-88.20145983329999,0.0,0.0,0.0,0.0,0.0,0.0,0.0,0.0,0.0,0.0,0.0,0,0.0,0.0,0.0,0.0,90.0,90.0,60.0,88.4901504517,88.36282348629999,114.8461990356,10.476001739500001,16.1914787292,2.75,0,2,25,1,19,0
104,1530628114998,27998, RC,0,39.9586186,-88.445067899,0,0.0,0.0,0.0,0.0,0.0,0.0,0.0,0.0,0.0,0.0,0.0,0.0,0.0,1500,1500,0.0,0.0,40.0635591667,-88.20145983329999,0.0,0.0,0.0,0.0,0.0,0.0,0.0,0.0,0.0,0.0,0.0,0,0.0,0.0,0.0,0.0,90.0,90.0,60.0,88.4901504517,88.4264831543,115.7374725342,10.476001739500001,16.1914787292,2.75,0,2,25,1,19,0
105,1530628115049,28049, RC,0,39.9586186,-88.445067899,0,0.0,0.0,0.0,0.0,0.0,0.0,0.0,0.0,0.0,0.0,0.0,0.0,0.0,1500,1500,0.0,0.0,40.0635591667,-88.20145983329999,0.0,0.0,0.0,0.0,0.0,0.0,0.0,0.0,0.0,0.0,0.0,0,0.0,0.0,0.0,0.0,90.0,90.0,60.0,88.4901504517,88.4264831543,118.0929718018,10.476001739500001,16.1914787292,2.75,0,2,25,1,19,0
106,1530628115100,28100, RC,0,39.9586186,-88.445067899,0,0.0,0.0,0.0,0.0,0.0,0.0,0.0,0.0,0.0,0.0,0.0,0.0,0.0,1500,1500,0.0,0.0,40.0635591667,-88.20145983329999,0.0,0.0,0.0,0.0,0.0,0.0,0.0,0.0,0.0,0.0,0.0,0,0.0,0.0,0.0,0.0,90.0,90.0,60.0,88.4901504517,88.4264831543,119.62085723879999,10.476001739500001,16.1914787292,2.75,0,2,25,1,19,0
107,1530628115150,28150, RC,0,39.9586186,-88.445067899,0,0.0,0.0,0.0,0.0,0.0,0.0,0.0,0.0,0.0,0.0,0.0,0.0,0.0,1500,1500,0.0,0.0,40.0635591667,-88.20145983329999,0.0,0.0,0.0,0.0,0.0,0.0,0.0,0.0,0.0,0.0,0.0,0,0.0,0.0,0.0,0.0,90.0,90.0,60.0,88.4901504517,88.4264831543,119.3025436401,10.476001739500001,16.1914787292,2.75,0,2,25,1,19,0
108,1530628115201,28201, RC,0,39.9586186,-88.445067899,0,0.0,0.0,0.0,0.0,0.0,0.0,0.0,0.0,0.0,0.0,0.0,0.0,0.0,1500,1500,0.0,0.0,40.0635591667,-88.20145983329999,0.0,0.0,0.0,0.0,0.0,0.0,0.0,0.0,0.0,0.0,0.0,0,0.0,0.0,0.0,0.0,90.0,90.0,60.0,88.4901504517,88.4264831543,118.9842300415,10.476001739500001,16.1914787292,2.75,0,2,25,1,19,0
109,1530628115251,28251, RC,0,39.9586186,-88.445067899,0,0.0,0.0,0.0,0.0,0.0,0.0,0.0,0.0,0.0,0.0,0.0,0.0,0.0,1500,1500,0.0,0.0,40.0635591667,-88.20145983329999,0.0,0.0,0.0,0.0,0.0,0.0,0.0,0.0,0.0,0.0,0.0,0,0.0,0.0,0.0,0.0,90.0,90.0,57.0,88.4901504517,88.4264831543,118.9205703735,10.476001739500001,16.1914787292,2.75,0,2,25,1,19,0
110,1530628115302,28302, RC,0,39.9586186,-88.445067899,0,0.0,0.0,0.0,0.0,0.0,0.0,0.0,0.0,0.0,0.0,0.0,0.0,0.0,1500,1500,0.0,0.0,40.0635591667,-88.20145983329999,0.0,0.0,0.0,0.0,0.0,0.0,0.0,0.0,0.0,0.0,0.0,0,0.0,0.0,0.0,0.0,90.0,90.0,57.0,88.4901504517,88.4264831543,118.9842300415,10.476001739500001,16.1914787292,2.75,0,2,25,1,19,0
111,1530628115353,28353, RC,0,39.9586186,-88.445067899,0,0.0,0.0,0.0,0.0,0.0,0.0,0.0,0.0,0.0,0.0,0.0,0.0,0.0,1500,1500,0.0,0.0,40.0635591667,-88.20145983329999,0.0,0.0,0.0,0.0,0.0,0.0,0.0,0.0,0.0,0.0,0.0,0,0.0,0.0,0.0,0.0,90.0,90.0,57.0,88.4901504517,88.4264831543,120.32112884520001,10.476001739500001,16.1914787292,2.75,0,2,25,1,19,0
112,1530628115403,28403, RC,0,39.9586186,-88.445067899,0,0.0,0.0,0.0,0.0,0.0,0.0,0.0,0.0,0.0,0.0,0.0,0.0,0.0,1500,1500,0.0,0.0,40.0635591667,-88.20145983329999,0.0,0.0,0.0,0.0,0.0,0.0,0.0,0.0,0.0,0.0,0.0,0,0.0,0.0,0.0,0.0,90.0,90.0,57.0,88.4901504517,88.4264831543,121.4033889771,10.476001739500001,16.1914787292,2.75,0,2,25,1,19,0
113,1530628115454,28454, RC,0,39.9586186,-88.445067899,0,0.0,0.0,0.0,0.0,0.0,0.0,0.0,0.0,0.0,0.0,0.0,0.0,0.0,1500,1500,0.0,0.0,40.0635591667,-88.20145983329999,0.0,0.0,0.0,0.0,0.0,0.0,0.0,0.0,0.0,0.0,0.0,0,0.0,0.0,0.0,0.0,90.0,90.0,57.0,88.4901504517,88.4264831543,121.467048645,10.476001739500001,16.1914787292,2.75,0,2,25,1,19,0
114,1530628115505,28505, RC,0,39.9586186,-88.445067899,0,0.0,0.0,0.0,0.0,0.0,0.0,0.0,0.0,0.0,0.0,0.0,0.0,0.0,1500,1500,0.0,0.0,40.0635591667,-88.20145983329999,0.0,0.0,0.0,0.0,0.0,0.0,0.0,0.0,0.0,0.0,0.0,0,0.0,0.0,0.0,0.0,90.0,90.0,57.0,88.4901504517,88.4901504517,121.467048645,10.476001739500001,16.1914787292,2.75,0,2,25,1,19,0
115,1530628115555,28555, RC,0,39.9586186,-88.445067899,0,0.0,0.0,0.0,0.0,0.0,0.0,0.0,0.0,0.0,0.0,0.0,0.0,0.0,1500,1500,0.0,0.0,40.0635591667,-88.20145983329999,0.0,0.0,0.0,0.0,0.0,0.0,0.0,0.0,0.0,0.0,0.0,0,0.0,0.0,0.0,0.0,90.0,90.0,57.0,88.4901504517,88.4901504517,121.467048645,10.476001739500001,16.1914787292,2.75,0,2,25,1,19,0
116,1530628115606,28606, RC,0,39.9586186,-88.445067899,0,0.0,0.0,0.0,0.0,0.0,0.0,0.0,0.0,0.0,0.0,0.0,0.0,0.0,1500,1500,0.0,0.0,40.0635591667,-88.20145983329999,0.0,0.0,0.0,0.0,0.0,0.0,0.0,0.0,0.0,0.0,0.0,0,0.0,0.0,0.0,0.0,90.0,90.0,57.0,88.4901504517,88.4901504517,121.467048645,10.476001739500001,16.1914787292,2.75,0,2,25,1,19,0
117,1530628115657,28657, RC,0,39.9586186,-88.445067899,0,0.0,0.0,0.0,0.0,0.0,0.0,0.0,0.0,0.0,0.0,0.0,0.0,0.0,1500,1500,0.0,0.0,40.0635591667,-88.20145983329999,0.0,0.0,0.0,0.0,0.0,0.0,0.0,0.0,0.0,0.0,0.0,0,0.0,0.0,0.0,0.0,90.0,90.0,57.0,88.4901504517,88.4264831543,121.467048645,10.476001739500001,16.1915454865,2.6800000668,0,2,25,1,19,0
118,1530628115707,28707, RC,0,39.9586186,-88.445067899,0,0.0,0.0,0.0,0.0,0.0,0.0,0.0,0.0,0.0,0.0,0.0,0.0,0.0,1500,1500,0.0,0.0,40.0635591667,-88.20145983329999,0.0,0.0,0.0,0.0,0.0,0.0,0.0,0.0,0.0,0.0,0.0,0,0.0,0.0,0.0,0.0,90.0,90.0,57.0,88.4901504517,88.4264831543,121.467048645,10.476001739500001,16.1915454865,2.6800000668,0,2,25,1,19,0
119,1530628115758,28758, RC,0,39.9586186,-88.445067899,0,0.0,0.0,0.0,0.0,0.0,0.0,0.0,0.0,0.0,0.0,0.0,0.0,0.0,1500,1500,0.0,0.0,40.0635591667,-88.20145983329999,0.0,0.0,0.0,0.0,0.0,0.0,0.0,0.0,0.0,0.0,0.0,0,0.0,0.0,0.0,0.0,90.0,90.0,57.0,88.4901504517,88.4264831543,121.5307159424,10.476001739500001,16.1915454865,2.6800000668,0,2,25,1,19,0
120,1530628115809,28809, RC,0,39.9586186,-88.445067899,0,0.0,0.0,0.0,0.0,0.0,0.0,0.0,0.0,0.0,0.0,0.0,0.0,0.0,1500,1500,0.0,0.0,40.0635591667,-88.20145983329999,0.0,0.0,0.0,0.0,0.0,0.0,0.0,0.0,0.0,0.0,0.0,0,0.0,0.0,0.0,0.0,90.0,90.0,57.0,88.4901504517,88.4264831543,121.5307159424,10.476001739500001,16.1915454865,2.6800000668,0,2,25,1,19,0
121,1530628115859,28859, RC,0,39.9586186,-88.445067899,0,0.0,0.0,0.0,0.0,0.0,0.0,0.0,0.0,0.0,0.0,0.0,0.0,0.0,1500,1500,0.0,0.0,40.0635591667,-88.20145983329999,0.0,0.0,0.0,0.0,0.0,0.0,0.0,0.0,0.0,0.0,0.0,0,0.0,0.0,0.0,0.0,90.0,90.0,57.0,88.4901504517,88.4901504517,121.467048645,10.476001739500001,16.1915454865,2.6800000668,0,2,25,1,19,0
122,1530628115910,28910, RC,0,39.9586186,-88.445067899,0,0.0,0.0,0.0,0.0,0.0,0.0,0.0,0.0,0.0,0.0,0.0,0.0,0.0,1500,1500,0.0,0.0,40.0635591667,-88.20145983329999,0.0,0.0,0.0,0.0,0.0,0.0,0.0,0.0,0.0,0.0,0.0,0,0.0,0.0,0.0,0.0,90.0,90.0,57.0,88.4901504517,88.4901504517,121.467048645,10.476001739500001,16.1915454865,2.6800000668,0,2,25,1,19,0
123,1530628115961,28961, RC,0,39.9586186,-88.445067899,0,0.0,0.0,0.0,0.0,0.0,0.0,0.0,0.0,0.0,0.0,0.0,0.0,0.0,1500,1500,0.0,0.0,40.0635591667,-88.20145983329999,0.0,0.0,0.0,0.0,0.0,0.0,0.0,0.0,0.0,0.0,0.0,0,0.0,0.0,0.0,0.0,90.0,90.0,57.0,88.4901504517,88.4901504517,121.467048645,10.476001739500001,16.1915454865,2.6800000668,0,2,25,1,19,0
124,1530628116012,29012, RC,0,39.9586186,-88.445067899,0,0.0,0.0,0.0,0.0,0.0,0.0,0.0,0.0,0.0,0.0,0.0,0.0,0.0,1500,1500,0.0,0.0,40.0635591667,-88.20145983329999,0.0,0.0,0.0,0.0,0.0,0.0,0.0,0.0,0.0,0.0,0.0,0,0.0,0.0,0.0,0.0,90.0,90.0,57.0,88.4901504517,88.4901504517,121.467048645,10.476001739500001,16.1915454865,2.6800000668,0,2,25,1,19,0
125,1530628116063,29063, RC,0,39.9586186,-88.445067899,0,0.0,0.0,0.0,0.0,0.0,0.0,0.0,0.0,0.0,0.0,0.0,0.0,0.0,1500,1500,0.0,0.0,40.0635591667,-88.20145983329999,0.0,0.0,0.0,0.0,0.0,0.0,0.0,0.0,0.0,0.0,0.0,0,0.0,0.0,0.0,0.0,90.0,90.0,57.0,88.4901504517,88.4901504517,121.467048645,10.476001739500001,16.1915454865,2.6800000668,0,2,25,1,19,0
126,1530628116113,29113, RC,0,39.9586186,-88.445067899,0,0.0,0.0,0.0,0.0,0.0,0.0,0.0,0.0,0.0,0.0,0.0,0.0,0.0,1500,1500,0.0,0.0,40.0635591667,-88.20145983329999,0.0,0.0,0.0,0.0,0.0,0.0,0.0,0.0,0.0,0.0,0.0,0,0.0,0.0,0.0,0.0,90.0,90.0,57.0,88.4901504517,88.4901504517,121.467048645,10.476001739500001,16.1915454865,2.6800000668,0,2,25,1,19,0
127,1530628116164,29164, RC,0,39.9586186,-88.445067899,0,0.0,0.0,0.0,0.0,0.0,0.0,0.0,0.0,0.0,0.0,0.0,0.0,0.0,1500,1500,0.0,0.0,40.0635591667,-88.20145983329999,0.0,0.0,0.0,0.0,0.0,0.0,0.0,0.0,0.0,0.0,0.0,0,0.0,0.0,0.0,0.0,90.0,90.0,57.0,88.4901504517,88.4901504517,121.5307159424,10.476001739500001,16.1915454865,2.6800000668,0,2,25,1,19,0
128,1530628116215,29215, RC,0,39.9586186,-88.445067899,0,0.0,0.0,0.0,0.0,0.0,0.0,0.0,0.0,0.0,0.0,0.0,0.0,0.0,1500,1500,0.0,0.0,40.0635591667,-88.20145983329999,0.0,0.0,0.0,0.0,0.0,0.0,0.0,0.0,0.0,0.0,0.0,0,0.0,0.0,0.0,0.0,90.0,90.0,57.0,88.4901504517,88.4901504517,121.5307159424,10.476001739500001,16.1915454865,2.6800000668,0,2,25,1,19,0
129,1530628116265,29265, RC,0,39.9586186,-88.445067899,0,0.0,0.0,0.0,0.0,0.0,0.0,0.0,0.0,0.0,0.0,0.0,0.0,0.0,1500,1500,0.0,0.0,40.0635591667,-88.20145983329999,0.0,0.0,0.0,0.0,0.0,0.0,0.0,0.0,0.0,0.0,0.0,0,0.0,0.0,0.0,0.0,90.0,90.0,57.0,88.4901504517,88.4901504517,121.5307159424,10.476001739500001,16.1915454865,2.6800000668,0,2,25,1,19,0
130,1530628116316,29316, RC,0,39.9586186,-88.445067899,0,0.0,0.0,0.0,0.0,0.0,0.0,0.0,0.0,0.0,0.0,0.0,0.0,0.0,1500,1500,0.0,0.0,40.0635591667,-88.20145983329999,0.0,0.0,0.0,0.0,0.0,0.0,0.0,0.0,0.0,0.0,0.0,0,0.0,0.0,0.0,0.0,90.0,90.0,57.0,88.4901504517,88.4901504517,121.5307159424,10.476001739500001,16.1915454865,2.6800000668,0,2,25,1,19,0
131,1530628116367,29367, RC,0,39.9586186,-88.445067899,0,0.0,0.0,0.0,0.0,0.0,0.0,0.0,0.0,0.0,0.0,0.0,0.0,0.0,1500,1500,0.0,0.0,40.0635591667,-88.20145983329999,0.0,0.0,0.0,0.0,0.0,0.0,0.0,0.0,0.0,0.0,0.0,0,0.0,0.0,0.0,0.0,90.0,90.0,57.0,88.4901504517,88.4901504517,121.5307159424,10.476001739500001,16.1915454865,2.6800000668,0,2,25,1,19,0
132,1530628116418,29418, RC,0,39.9586186,-88.445067899,0,0.0,0.0,0.0,0.0,0.0,0.0,0.0,0.0,0.0,0.0,0.0,0.0,0.0,1500,1500,0.0,0.0,40.0635591667,-88.20145983329999,0.0,0.0,0.0,0.0,0.0,0.0,0.0,0.0,0.0,0.0,0.0,0,0.0,0.0,0.0,0.0,90.0,90.0,57.0,88.4901504517,88.4901504517,121.4033889771,10.476001739500001,16.1915454865,2.6800000668,0,2,25,1,19,0
133,1530628116469,29469, RC,0,39.9586186,-88.445067899,0,0.0,0.0,0.0,0.0,0.0,0.0,0.0,0.0,0.0,0.0,0.0,0.0,0.0,1500,1500,0.0,0.0,40.0635591667,-88.20145983329999,0.0,0.0,0.0,0.0,0.0,0.0,0.0,0.0,0.0,0.0,0.0,0,0.0,0.0,0.0,0.0,90.0,90.0,60.0,88.4901504517,88.4901504517,121.4033889771,10.476001739500001,16.1915454865,2.6800000668,0,2,25,1,19,0
134,1530628116519,29519, RC,0,39.9586186,-88.445067899,0,0.0,0.0,0.0,0.0,0.0,0.0,0.0,0.0,0.0,0.0,0.0,0.0,0.0,1500,1500,0.0,0.0,40.0635591667,-88.20145983329999,0.0,0.0,0.0,0.0,0.0,0.0,0.0,0.0,0.0,0.0,0.0,0,0.0,0.0,0.0,0.0,90.0,90.0,60.0,88.4901504517,88.4901504517,121.0850753784,10.476001739500001,16.1915454865,2.6800000668,0,2,25,1,19,0
135,1530628116570,29570, RC,0,39.9586186,-88.445067899,0,0.0,0.0,0.0,0.0,0.0,0.0,0.0,0.0,0.0,0.0,0.0,0.0,0.0,1500,1500,0.0,0.0,40.0635591667,-88.20145983329999,0.0,0.0,0.0,0.0,0.0,0.0,0.0,0.0,0.0,0.0,0.0,0,0.0,0.0,0.0,0.0,90.0,90.0,60.0,88.4901504517,88.4901504517,120.38480377200001,10.476001739500001,16.1915454865,2.6800000668,0,2,25,1,19,0
136,1530628116621,29621, RC,0,39.9586186,-88.445067899,0,0.0,0.0,0.0,0.0,0.0,0.0,0.0,0.0,0.0,0.0,0.0,0.0,0.0,1500,1500,0.0,0.0,40.0635591667,-88.20145983329999,0.0,0.0,0.0,0.0,0.0,0.0,0.0,0.0,0.0,0.0,0.0,0,0.0,0.0,0.0,0.0,90.0,90.0,60.0,88.4901504517,88.4901504517,118.9205703735,10.476001739500001,16.1915454865,2.6800000668,0,2,25,1,19,0
137,1530628116671,29671, RC,0,39.9586186,-88.445067899,0,0.0,0.0,0.0,0.0,0.0,0.0,0.0,0.0,0.0,0.0,0.0,0.0,0.0,1500,1500,0.0,0.0,40.0635591667,-88.20145983329999,0.0,0.0,0.0,0.0,0.0,0.0,0.0,0.0,0.0,0.0,0.0,0,0.0,0.0,0.0,0.0,90.0,90.0,60.0,88.4901504517,88.4901504517,117.8383178711,10.476001739500001,16.1915302277,2.2999999523,0,2,25,1,19,0
138,1530628116722,29722, RC,0,39.9586186,-88.445067899,0,0.0,0.0,0.0,0.0,0.0,0.0,0.0,0.0,0.0,0.0,0.0,0.0,0.0,1500,1500,0.0,0.0,40.0635591667,-88.20145983329999,0.0,0.0,0.0,0.0,0.0,0.0,0.0,0.0,0.0,0.0,0.0,0,0.0,0.0,0.0,0.0,90.0,90.0,60.0,88.4901504517,88.4901504517,117.77465820309999,10.476001739500001,16.1915302277,2.2999999523,0,2,25,1,19,0
139,1530628116773,29773, RC,0,39.9586186,-88.445067899,0,0.0,0.0,0.0,0.0,0.0,0.0,0.0,0.0,0.0,0.0,0.0,0.0,0.0,1500,1500,0.0,0.0,40.0635591667,-88.20145983329999,0.0,0.0,0.0,0.0,0.0,0.0,0.0,0.0,0.0,0.0,0.0,0,0.0,0.0,0.0,0.0,90.0,90.0,60.0,88.4901504517,88.55381011959999,117.77465820309999,10.476001739500001,16.1915302277,2.2999999523,0,2,25,1,19,0
140,1530628116824,29824, RC,0,39.9586186,-88.445067899,0,0.0,0.0,0.0,0.0,0.0,0.0,0.0,0.0,0.0,0.0,0.0,0.0,0.0,1500,1500,0.0,0.0,40.0635591667,-88.20145983329999,0.0,0.0,0.0,0.0,0.0,0.0,0.0,0.0,0.0,0.0,0.0,0,0.0,0.0,0.0,0.0,90.0,90.0,60.0,88.4901504517,88.55381011959999,117.77465820309999,10.476001739500001,16.1915302277,2.2999999523,0,2,25,1,19,0
141,1530628116874,29874, RC,0,39.9586186,-88.445067899,0,0.0,0.0,0.0,0.0,0.0,0.0,0.0,0.0,0.0,0.0,0.0,0.0,0.0,1500,1500,0.0,0.0,40.0635591667,-88.20145983329999,0.0,0.0,0.0,0.0,0.0,0.0,0.0,0.0,0.0,0.0,0.0,0,0.0,0.0,0.0,0.0,90.0,90.0,60.0,88.4901504517,88.55381011959999,117.8383178711,10.476001739500001,16.1915302277,2.2999999523,0,2,25,1,19,0
142,1530628116925,29925, RC,0,39.9586186,-88.445067899,0,0.0,0.0,0.0,0.0,0.0,0.0,0.0,0.0,0.0,0.0,0.0,0.0,0.0,1500,1500,0.0,0.0,40.0635591667,-88.20145983329999,0.0,0.0,0.0,0.0,0.0,0.0,0.0,0.0,0.0,0.0,0.0,0,0.0,0.0,0.0,0.0,90.0,90.0,60.0,88.4901504517,88.55381011959999,117.8383178711,10.476001739500001,16.1915302277,2.2999999523,0,2,25,1,19,0
143,1530628116976,29976, RC,0,39.9586186,-88.445067899,0,0.0,0.0,0.0,0.0,0.0,0.0,0.0,0.0,0.0,0.0,0.0,0.0,0.0,1500,1500,0.0,0.0,40.0635591667,-88.20145983329999,0.0,0.0,0.0,0.0,0.0,0.0,0.0,0.0,0.0,0.0,0.0,0,0.0,0.0,0.0,0.0,90.0,90.0,60.0,88.4901504517,88.55381011959999,117.8383178711,10.476001739500001,16.1915302277,2.2999999523,0,2,25,1,19,0
144,1530628117026,30026, RC,0,39.9586186,-88.445067899,0,0.0,0.0,0.0,0.0,0.0,0.0,0.0,0.0,0.0,0.0,0.0,0.0,0.0,1500,1500,0.0,0.0,40.0635591667,-88.20145983329999,0.0,0.0,0.0,0.0,0.0,0.0,0.0,0.0,0.0,0.0,0.0,0,0.0,0.0,0.0,0.0,90.0,90.0,60.0,88.4901504517,88.55381011959999,117.8383178711,10.476001739500001,16.1915302277,2.2999999523,0,2,25,1,19,0
145,1530628117077,30077, RC,0,39.9586186,-88.445067899,0,0.0,0.0,0.0,0.0,0.0,0.0,0.0,0.0,0.0,0.0,0.0,0.0,0.0,1500,1500,0.0,0.0,40.0635591667,-88.20145983329999,0.0,0.0,0.0,0.0,0.0,0.0,0.0,0.0,0.0,0.0,0.0,0,0.0,0.0,0.0,0.0,90.0,90.0,60.0,88.4901504517,88.55381011959999,117.8383178711,10.476001739500001,16.1915302277,2.2999999523,0,2,25,1,19,0
146,1530628117128,30128, RC,0,39.9586186,-88.445067899,0,0.0,0.0,0.0,0.0,0.0,0.0,0.0,0.0,0.0,0.0,0.0,0.0,0.0,1500,1500,0.0,0.0,40.0635591667,-88.20145983329999,0.0,0.0,0.0,0.0,0.0,0.0,0.0,0.0,0.0,0.0,0.0,0,0.0,0.0,0.0,0.0,90.0,90.0,60.0,88.4901504517,88.55381011959999,117.8383178711,10.476001739500001,16.1915302277,2.2999999523,0,2,25,1,19,0
147,1530628117178,30178, RC,0,39.9586186,-88.445067899,0,0.0,0.0,0.0,0.0,0.0,0.0,0.0,0.0,0.0,0.0,0.0,0.0,0.0,1500,1500,0.0,0.0,40.0635591667,-88.20145983329999,0.0,0.0,0.0,0.0,0.0,0.0,0.0,0.0,0.0,0.0,0.0,0,0.0,0.0,0.0,0.0,90.0,90.0,60.0,88.4901504517,88.55381011959999,117.8383178711,10.476001739500001,16.1915302277,2.2999999523,0,2,25,1,19,0
148,1530628117229,30229, RC,0,39.9586186,-88.445067899,0,0.0,0.0,0.0,0.0,0.0,0.0,0.0,0.0,0.0,0.0,0.0,0.0,0.0,1500,1500,0.0,0.0,40.0635591667,-88.20145983329999,0.0,0.0,0.0,0.0,0.0,0.0,0.0,0.0,0.0,0.0,0.0,0,0.0,0.0,0.0,0.0,90.0,90.0,60.0,88.4901504517,88.55381011959999,117.8383178711,10.476001739500001,16.1915302277,2.2999999523,0,2,25,1,19,0
149,1530628117280,30280, RC,0,39.9586186,-88.445067899,0,0.0,0.0,0.0,0.0,0.0,0.0,0.0,0.0,0.0,0.0,0.0,0.0,0.0,1500,1500,0.0,0.0,40.0635591667,-88.20145983329999,0.0,0.0,0.0,0.0,0.0,0.0,0.0,0.0,0.0,0.0,0.0,0,0.0,0.0,0.0,0.0,90.0,90.0,60.0,88.4901504517,88.55381011959999,117.8383178711,10.476001739500001,16.1915302277,2.2999999523,0,2,25,1,19,0
150,1530628117330,30330, RC,0,39.9586186,-88.445067899,0,0.0,0.0,0.0,0.0,0.0,0.0,0.0,0.0,0.0,0.0,0.0,0.0,0.0,1500,1500,0.0,0.0,40.0635591667,-88.20145983329999,0.0,0.0,0.0,0.0,0.0,0.0,0.0,0.0,0.0,0.0,0.0,0,0.0,0.0,0.0,0.0,90.0,90.0,60.0,88.4901504517,88.4901504517,117.8383178711,10.476001739500001,16.1915302277,2.2999999523,0,2,25,1,19,0
151,1530628117381,30381, RC,0,39.9586186,-88.445067899,0,0.0,0.0,0.0,0.0,0.0,0.0,0.0,0.0,0.0,0.0,0.0,0.0,0.0,1500,1500,0.0,0.0,40.0635591667,-88.20145983329999,0.0,0.0,0.0,0.0,0.0,0.0,0.0,0.0,0.0,0.0,0.0,0,0.0,0.0,0.0,0.0,90.0,90.0,60.0,88.4901504517,88.4901504517,117.9019851685,10.476001739500001,16.1915302277,2.2999999523,0,2,25,1,19,0
152,1530628117432,30432, RC,0,39.9586186,-88.445067899,0,0.0,0.0,0.0,0.0,0.0,0.0,0.0,0.0,0.0,0.0,0.0,0.0,0.0,1500,1500,0.0,0.0,40.0635591667,-88.20145983329999,0.0,0.0,0.0,0.0,0.0,0.0,0.0,0.0,0.0,0.0,0.0,0,0.0,0.0,0.0,0.0,90.0,90.0,60.0,88.4901504517,88.4901504517,117.9019851685,10.476001739500001,16.1915302277,2.2999999523,0,2,25,1,19,0
153,1530628117482,30482, RC,0,39.9586186,-88.445067899,0,0.0,0.0,0.0,0.0,0.0,0.0,0.0,0.0,0.0,0.0,0.0,0.0,0.0,1500,1500,0.0,0.0,40.0635591667,-88.20145983329999,0.0,0.0,0.0,0.0,0.0,0.0,0.0,0.0,0.0,0.0,0.0,0,0.0,0.0,0.0,0.0,90.0,90.0,60.0,88.4264831543,88.4901504517,117.9019851685,10.476001739500001,16.1915302277,2.2999999523,0,2,25,1,19,0
154,1530628117533,30533, RC,0,39.9586186,-88.445067899,0,0.0,0.0,0.0,0.0,0.0,0.0,0.0,0.0,0.0,0.0,0.0,0.0,0.0,1500,1500,0.0,0.0,40.0635591667,-88.20145983329999,0.0,0.0,0.0,0.0,0.0,0.0,0.0,0.0,0.0,0.0,0.0,0,0.0,0.0,0.0,0.0,90.0,90.0,60.0,88.4264831543,88.4264831543,117.9019851685,10.476001739500001,16.1915302277,2.2999999523,0,2,25,1,19,0
155,1530628117584,30584, RC,0,39.9586186,-88.445067899,0,0.0,0.0,0.0,0.0,0.0,0.0,0.0,0.0,0.0,0.0,0.0,0.0,0.0,1500,1500,0.0,0.0,40.0635591667,-88.20145983329999,0.0,0.0,0.0,0.0,0.0,0.0,0.0,0.0,0.0,0.0,0.0,0,0.0,0.0,0.0,0.0,90.0,90.0,60.0,88.4901504517,88.4264831543,117.9019851685,10.476001739500001,16.1915302277,2.2999999523,0,2,25,1,19,0
156,1530628117635,30635, RC,0,39.9586186,-88.445067899,0,0.0,0.0,0.0,0.0,0.0,0.0,0.0,0.0,0.0,0.0,0.0,0.0,0.0,1500,1500,0.0,0.0,40.0635591667,-88.20145983329999,0.0,0.0,0.0,0.0,0.0,0.0,0.0,0.0,0.0,0.0,0.0,0,0.0,0.0,0.0,0.0,90.0,90.0,60.0,88.681137085,88.4264831543,117.9019851685,10.476001739500001,16.1915588379,2.6900000572000002,0,2,25,1,19,0
157,1530628117685,30685, RC,0,39.9586186,-88.445067899,0,0.0,0.0,0.0,0.0,0.0,0.0,0.0,0.0,0.0,0.0,0.0,0.0,0.0,1500,1500,0.0,0.0,40.0635591667,-88.20145983329999,0.0,0.0,0.0,0.0,0.0,0.0,0.0,0.0,0.0,0.0,0.0,0,0.0,0.0,0.0,0.0,90.0,90.0,60.0,88.681137085,88.4264831543,117.9019851685,10.476001739500001,16.1915588379,2.6900000572000002,0,2,25,1,19,0
158,1530628117736,30736, RC,0,39.9586186,-88.445067899,0,0.0,0.0,0.0,0.0,0.0,0.0,0.0,0.0,0.0,0.0,0.0,0.0,0.0,1500,1500,0.0,0.0,40.0635591667,-88.20145983329999,0.0,0.0,0.0,0.0,0.0,0.0,0.0,0.0,0.0,0.0,0.0,0,0.0,0.0,0.0,0.0,90.0,90.0,60.0,88.681137085,88.36282348629999,117.9019851685,10.476001739500001,16.1915588379,2.6900000572000002,0,2,25,1,19,0
159,1530628117787,30787, RC,0,39.9586186,-88.445067899,0,0.0,0.0,0.0,0.0,0.0,0.0,0.0,0.0,0.0,0.0,0.0,0.0,0.0,1500,1500,0.0,0.0,40.0635591667,-88.20145983329999,0.0,0.0,0.0,0.0,0.0,0.0,0.0,0.0,0.0,0.0,0.0,0,0.0,0.0,0.0,0.0,90.0,90.0,60.0,88.681137085,88.36282348629999,117.9019851685,10.476001739500001,16.1915588379,2.6900000572000002,0,2,25,1,19,0
160,1530628117837,30837, RC,0,39.9586186,-88.445067899,0,0.0,0.0,0.0,0.0,0.0,0.0,0.0,0.0,0.0,0.0,0.0,0.0,0.0,1500,1500,0.0,0.0,40.0635591667,-88.20145983329999,0.0,0.0,0.0,0.0,0.0,0.0,0.0,0.0,0.0,0.0,0.0,0,0.0,0.0,0.0,0.0,90.0,90.0,60.0,88.681137085,88.4264831543,117.9019851685,10.476001739500001,16.1915588379,2.6900000572000002,0,2,25,1,19,0
161,1530628117888,30888, RC,0,39.9586186,-88.445067899,0,0.0,0.0,0.0,0.0,0.0,0.0,0.0,0.0,0.0,0.0,0.0,0.0,0.0,1500,1500,0.0,0.0,40.0635591667,-88.20145983329999,0.0,0.0,0.0,0.0,0.0,0.0,0.0,0.0,0.0,0.0,0.0,0,0.0,0.0,0.0,0.0,90.0,90.0,60.0,88.681137085,88.36282348629999,117.9019851685,10.476001739500001,16.1915588379,2.6900000572000002,0,2,25,1,19,0
162,1530628117939,30939, RC,0,39.9586186,-88.445067899,0,0.0,0.0,0.0,0.0,0.0,0.0,0.0,0.0,0.0,0.0,0.0,0.0,0.0,1500,1500,0.0,0.0,40.0635591667,-88.20145983329999,0.0,0.0,0.0,0.0,0.0,0.0,0.0,0.0,0.0,0.0,0.0,0,0.0,0.0,0.0,0.0,90.0,81.0,60.0,88.681137085,88.36282348629999,117.9019851685,10.476001739500001,16.1915588379,2.6900000572000002,0,2,25,1,19,0
163,1530628117989,30989, RC,0,39.9586186,-88.445067899,0,0.0,0.0,0.0,0.0,0.0,0.0,0.0,0.0,0.0,0.0,0.0,0.0,0.0,1500,1500,0.0,0.0,40.0635591667,-88.20145983329999,0.0,0.0,0.0,0.0,0.0,0.0,0.0,0.0,0.0,0.0,0.0,0,0.0,0.0,0.0,0.0,90.0,81.0,60.0,88.681137085,88.6174697876,117.9019851685,10.476001739500001,16.1915588379,2.6900000572000002,0,2,25,1,19,0
164,1530628118040,31040, RC,0,39.9586186,-88.445067899,0,0.0,0.0,0.0,0.0,0.0,0.0,0.0,0.0,0.0,0.0,0.0,0.0,0.0,1500,1500,0.0,0.0,40.0635591667,-88.20145983329999,0.0,0.0,0.0,0.0,0.0,0.0,0.0,0.0,0.0,0.0,0.0,0,0.0,0.0,0.0,0.0,90.0,77.0,60.0,88.681137085,95.1109924316,117.9019851685,10.476001739500001,16.1915588379,2.6900000572000002,0,2,25,1,19,0
165,1530628118091,31091, RC,0,39.9586186,-88.445067899,0,0.0,0.0,0.0,0.0,0.0,0.0,0.0,0.0,0.0,0.0,0.0,0.0,0.0,1500,1500,0.0,0.0,40.0635591667,-88.20145983329999,0.0,0.0,0.0,0.0,0.0,0.0,0.0,0.0,0.0,0.0,0.0,0,0.0,0.0,0.0,0.0,90.0,77.0,60.0,88.681137085,96.5752182007,117.9019851685,10.476001739500001,16.1915588379,2.6900000572000002,0,2,25,1,19,0
166,1530628118141,31141, RC,0,39.9586186,-88.445067899,0,0.0,0.0,0.0,0.0,0.0,0.0,0.0,0.0,0.0,0.0,0.0,0.0,0.0,1500,1500,0.0,0.0,40.0635591667,-88.20145983329999,0.0,0.0,0.0,0.0,0.0,0.0,0.0,0.0,0.0,0.0,0.0,0,0.0,0.0,0.0,0.0,90.0,73.0,60.0,88.681137085,100.0129623413,117.9019851685,10.476001739500001,16.1915588379,2.6900000572000002,0,2,25,1,19,0
167,1530628118192,31192, RC,0,39.9586186,-88.445067899,0,0.0,0.0,0.0,0.0,0.0,0.0,0.0,0.0,0.0,0.0,0.0,0.0,0.0,1500,1500,0.0,0.0,40.0635591667,-88.20145983329999,0.0,0.0,0.0,0.0,0.0,0.0,0.0,0.0,0.0,0.0,0.0,0,0.0,0.0,0.0,0.0,90.0,73.0,60.0,88.681137085,101.79550170899999,117.9019851685,10.476001739500001,16.1915588379,2.6900000572000002,0,2,25,1,19,0
168,1530628118243,31243, RC,0,39.9586186,-88.445067899,0,0.0,0.0,0.0,0.0,0.0,0.0,0.0,0.0,0.0,0.0,0.0,0.0,0.0,1500,1500,0.0,0.0,40.0635591667,-88.20145983329999,0.0,0.0,0.0,0.0,0.0,0.0,0.0,0.0,0.0,0.0,0.0,0,0.0,0.0,0.0,0.0,90.0,72.0,60.0,88.681137085,104.34197998049999,117.9019851685,10.476001739500001,16.1915588379,2.6900000572000002,0,2,25,1,19,0
