,(0)linux time (ms),    (1)uptime  (ms),      (2)drive mode,(3)mpc step counter,(4)mpc origin latitude  (deg),(5)mpc origin longitude  (deg),(6)closest trajectory point index to robot,(7)mpc error x (W;E)  (m),(8)mpc error y (W;E)  (m),(9)abs mpc error (m),(10)input [x] for mhe (m),(11)input [y] for mhe (m),(12)input [speed] for mhe (m/s),(13)input [vyaw] for mhe (rad/s),(14)mhe output x  (m),(15)mhe output y  (m),(16)mhe output speed  (m/s),(17)mhe output yaw  (rad),(18)mpc reference heading (rad),(19)mpc turn rate command (rad/s),(20)turn rate command as PWM,(21)throttle command as PWM,(22)primary gps latitude (deg),(23)primary gps longitude (deg),(24)secondary gps latitude  (deg),(25)secondary gps longitude (deg),(26)accelerometer x (m/s^2),(27)accelerometer y (m/s^2),(28)accelerometer z (m/s^2),(29)gyro yaw rate (rad/s),(30)gyro pitch rate   (rad/s),(31)gyro roll rate (rad/s),      (32)yaw (rad),  (33)pitch   (rad),     (34)roll (rad),(35)sonar1 measurement (m),(36)ultrasonic sensor measurement (m),(37)primary gps time (s),(38)normalized turn rate command,(39)normalized throttle command,(40)speed calculation from encoder left (m/s),(41)speed calculation from encoder right (m/s),(42)front gimbal target angle (degrees from straight down),(43)left gimbal target angle  (degrees from straight down),(44)right gimbal target angle  (degrees from straight down),(45)front gimbal measured angle  (degrees from straight down),(46)left gimbal measured angle    (degrees from straight down),(47)right gimbal measured angle  (degrees from straight down),(48)internal temperature (C),(49)battery voltage (V),(50)primary gps type,(51)secondary gps type,    (52)MPC R value, (53)MPC Q[0] value,Unnamed: 54,weed_num,start
0,1532114455771,601771, RC,0,40.0434592604,-88.2344147,0,-108.6565885816,410.6681775395,424.7994895075,-110.15291010700001,412.0223780107,0.0114039071,0.0,-110.7771121975,411.7672114072,0.0,-23.753340143400003,0.0,0.0,1500,1605,40.0471646667,-88.2331206667,0.0,0.0,0.0,0.0,0.0,0.0,0.0,0.0,0.0,0.0,0.0,0.0,0.0,0,0.0,0.21000003809999998,0.0075412933,0.0152665218,90.0,60.0,60.0,89.63606262209998,119.2388916016,119.0479049683,39.5279998779,15.856935501099999,0.9700000286,2,-1,10,1,69,7
1,1532114455971,601971, RC,0,40.0434592604,-88.2344147,0,-108.7018117657,410.49094654519996,424.6397309211,-110.081966825,412.9675348873,0.082862258,0.0,-110.8223353816,411.5899804129,0.0,-23.7533550995,0.0,0.0,1500,1605,40.0471731667,-88.2331215,0.0,0.0,0.0,0.0,0.0,0.0,0.0,0.0,0.0,0.0,0.0,0.0,0.0,0,0.0,0.21000003809999998,0.0421208814,0.12360364199999999,90.0,60.0,60.0,89.63606262209998,119.7481765747,118.53860473629999,40.6039962769,15.856935501099999,0.9700000286,2,-1,10,1,70,16
2,1532114456171,602171, RC,0,40.0434592604,-88.2344147,0,-108.7018117657,410.49094654519996,424.6397309211,-110.081966825,412.9675348873,0.1320646107,0.0,-110.8223353816,411.5899804129,0.0,-23.7533550995,0.0,0.0,1500,1605,40.0471731667,-88.2331215,0.0,0.0,0.0,0.0,0.0,0.0,0.0,0.0,0.0,0.0,0.0,0.0,0.0,0,0.0,0.21000003809999998,0.0772522762,0.1868769377,90.0,60.0,60.0,90.01803588870001,118.9205703735,119.42987060549999,40.6039962769,15.856935501099999,0.9700000286,2,-1,10,1,90,25
3,1532114456372,602372, RC,0,40.0434592604,-88.2344147,0,-108.7018117657,410.49094654519996,424.6397309211,-110.081966825,412.9675348873,0.1570796371,0.0,-110.8223353816,411.5899804129,0.0,-23.7533550995,0.0,0.0,1500,1605,40.0471731667,-88.2331215,0.0,0.0,0.0,0.0,0.0,0.0,0.0,0.0,0.0,0.0,0.0,0.0,0.0,0,0.0,0.21000003809999998,0.0976689458,0.2164903134,90.0,60.0,60.0,90.40000915530001,119.4935302734,119.2388916016,40.6039962769,15.856935501099999,0.9700000286,2,-1,10,1,84,34
4,1532114456572,602572, RC,0,40.0434592604,-88.2344147,0,-108.7018117657,410.49094654519996,424.6397309211,-110.081966825,412.9675348873,0.1501820982,0.0,-110.8223353816,411.5899804129,0.0,-23.7533550995,0.0,0.0,1500,1605,40.0471731667,-88.2331215,0.0,0.0,0.0,0.0,0.0,0.0,0.0,0.0,0.0,0.0,0.0,0.0,0.0,0,0.0,0.21000003809999998,0.1018994302,0.198464781,90.0,60.0,60.0,90.2726821899,118.6022567749,119.4935302734,40.6039962769,15.8498687744,72.4900054932,2,-1,10,1,71,44
5,1532114456773,602773, RC,0,40.0434592604,-88.2344147,0,-108.7018117657,410.49094654519996,424.6397309211,-110.081966825,412.9675348873,0.1337200105,0.0,-110.8223353816,411.5899804129,0.0,-23.7533550995,0.0,0.0,1500,1605,40.0471731667,-88.2331215,0.0,0.0,0.0,0.0,0.0,0.0,0.0,0.0,0.0,0.0,0.0,0.0,0.0,0,0.0,0.21000003809999998,0.10723351689999999,0.1602064967,90.0,60.0,60.0,89.3814163208,119.7481765747,119.3662033081,40.6039962769,15.8498687744,72.4900054932,2,-1,10,1,75,53
6,1532114456973,602973, RC,0,40.0434592604,-88.2344147,0,-108.7151225661,410.33689150059996,424.4942195142,-109.82659733959999,412.7451450339,0.1533089727,0.0,-110.835646182,411.4359253683,-0.0,-23.7533323631,0.0,0.0,1500,1605,40.047171166700004,-88.2331245,0.0,0.0,0.0,0.0,0.0,0.0,0.0,0.0,0.0,0.0,0.0,0.0,0.0,0,0.0,0.21000003809999998,0.11587841060000001,0.1907395422,90.0,60.0,60.0,89.44507598879999,119.62085723879999,119.4935302734,40.0660018921,15.8498687744,72.4900054932,2,-1,10,1,85,62
7,1532114457173,603173, RC,0,40.0434592604,-88.2344147,0,-108.7151225661,410.33689150059996,424.4942195142,-109.82659733959999,412.7451450339,0.1785999089,0.0,-110.835646182,411.4359253683,-0.0,-23.7533323631,0.0,0.0,1500,1605,40.047171166700004,-88.2331245,0.0,0.0,0.0,0.0,0.0,0.0,0.0,0.0,0.0,0.0,0.0,0.0,0.0,0,0.0,0.21000003809999998,0.12452331189999999,0.232676506,90.0,60.0,60.0,89.44507598879999,118.2839584351,120.51211547850001,40.0660018921,15.8498687744,72.4900054932,2,-1,10,1,112,71
8,1532114457374,603374, RC,0,40.0434592604,-88.2344147,0,-108.7151225661,410.33689150059996,424.4942195142,-109.82659733959999,412.7451450339,0.17676055429999998,0.0,-110.835646182,411.4359253683,-0.0,-23.7533323631,0.0,0.0,1500,1605,40.047171166700004,-88.2331245,0.0,0.0,0.0,0.0,0.0,0.0,0.0,0.0,0.0,0.0,0.0,0.0,0.0,0,0.0,0.21000003809999998,0.12360364199999999,0.2299174815,90.0,60.0,60.0,89.5087432861,119.87550354,119.3662033081,40.0660018921,15.8498687744,72.4900054932,2,-1,10,1,108,81
9,1532114457574,603574, RC,0,40.0434592604,-88.2344147,0,-108.7151225661,410.33689150059996,424.4942195142,-109.82659733959999,412.7451450339,0.1858652979,0.0,-110.835646182,411.4359253683,-0.0,-23.7533323631,0.0,0.0,1500,1605,40.047171166700004,-88.2331245,0.0,0.0,0.0,0.0,0.0,0.0,0.0,0.0,0.0,0.0,0.0,0.0,0.0,0,0.0,0.21000003809999998,0.1241554469,0.2475751489,90.0,60.0,60.0,89.1904296875,119.939163208,118.6022567749,40.0660018921,15.8384552002,15.2700004578,2,-1,10,1,117,90
10,1532114457774,603774, RC,0,40.0434592604,-88.2344147,0,-108.7151225661,410.33689150059996,424.4942195142,-109.82659733959999,412.7451450339,0.18981987239999998,0.0,-110.835646182,411.4359253683,-0.0,-23.7533323631,0.0,0.0,1500,1605,40.047171166700004,-88.2331245,0.0,0.0,0.0,0.0,0.0,0.0,0.0,0.0,0.0,0.0,0.0,0.0,0.0,0,0.0,0.21000003809999998,0.12948952619999998,0.25015023350000004,90.0,60.0,60.0,89.7633895874,118.72959136959999,119.3025436401,40.0660018921,15.8384552002,15.2700004578,2,-1,10,1,115,99
11,1532114457975,603975, RC,0,40.0434592604,-88.2344147,0,-108.65826706850001,410.2746197446,424.4194653982,-109.5002882174,412.9675348873,0.1869688928,0.0,-110.77879068440001,411.3736536123,0.11106003140000001,-23.7532376352,0.0,0.0,1500,1605,40.0471731667,-88.2331283333,0.0,0.0,0.0,0.0,0.0,0.0,0.0,0.0,0.0,0.0,0.0,0.0,0.0,0,0.0,0.21000003809999998,0.1258108467,0.2481269538,90.0,60.0,60.0,90.01803588870001,118.6659317017,119.4935302734,40.0660018921,15.8384552002,15.2700004578,2,-1,10,1,83,109
12,1532114458175,604175, RC,0,40.0434592604,-88.2344147,0,-108.65826706850001,410.2746197446,424.4194653982,-109.5002882174,412.9675348873,0.1937744617,0.0,-110.77879068440001,411.3736536123,0.11106003140000001,-23.7532376352,0.0,0.0,1500,1605,40.0471731667,-88.2331283333,0.0,0.0,0.0,0.0,0.0,0.0,0.0,0.0,0.0,0.0,0.0,0.0,0.0,0,0.0,0.21000003809999998,0.130593136,0.2569557726,90.0,60.0,60.0,90.40000915530001,118.6022567749,120.00283050540001,40.0660018921,15.8384552002,15.2700004578,2,-1,10,1,38,118
13,1532114458376,604376, RC,0,40.0434592604,-88.2344147,0,-108.65826706850001,410.2746197446,424.4194653982,-109.5002882174,412.9675348873,0.1847616881,0.0,-110.77879068440001,411.3736536123,0.11106003140000001,-23.7532376352,0.0,0.0,1500,1605,40.0471731667,-88.2331283333,0.0,0.0,0.0,0.0,0.0,0.0,0.0,0.0,0.0,0.0,0.0,0.0,0.0,0,0.0,0.21000003809999998,0.1250751168,0.2444482595,90.0,60.0,60.0,89.3177566528,119.3662033081,118.9205703735,40.0660018921,15.8384552002,15.2700004578,2,-1,10,1,129,128
14,1532114458576,604576, RC,0,40.0434592604,-88.2344147,0,-108.65826706850001,410.2746197446,424.4194653982,-109.5002882174,412.9675348873,0.19276282190000002,0.0,-110.77879068440001,411.3736536123,0.11106003140000001,-23.7532376352,0.0,0.0,1500,1605,40.0471731667,-88.2331283333,0.0,0.0,0.0,0.0,0.0,0.0,0.0,0.0,0.0,0.0,0.0,0.0,0.0,0,0.0,0.21000003809999998,0.1320646107,0.2534610331,90.0,60.0,60.0,90.3363494873,120.0664901733,118.411277771,40.0660018921,15.8211927414,11.920000076300001,2,-1,10,1,95,137
15,1532114458777,604777, RC,0,40.0434592604,-88.2344147,0,-108.65826706850001,410.2746197446,424.4194653982,-109.5002882174,412.9675348873,0.191843152,0.0,-110.77879068440001,411.3736536123,0.11106003140000001,-23.7532376352,0.0,0.0,1500,1605,40.0471731667,-88.2331283333,0.0,0.0,0.0,0.0,0.0,0.0,0.0,0.0,0.0,0.0,0.0,0.0,0.0,0,0.0,0.21000003809999998,0.12636265160000001,0.2573236525,90.0,60.0,60.0,90.01803588870001,119.6845169067,118.53860473629999,40.0660018921,15.8211927414,11.920000076300001,2,-1,10,1,88,146
16,1532114458977,604977, RC,0,40.0434592604,-88.2344147,0,-108.51804080790001,410.37505575730006,424.4806845648,-109.4719129828,413.0601973256,0.1828303784,0.0,-110.63856442379999,411.474089625,0.2394450397,-24.1609860662,0.0,0.0,1500,1605,40.047174,-88.2331286667,0.0,0.0,0.0,0.0,0.0,0.0,0.0,0.0,0.0,0.0,0.0,0.0,0.0,0,0.0,0.21000003809999998,0.1219482347,0.2437125295,90.0,60.0,60.0,90.8456420898,119.4935302734,118.9842300415,39.5279998779,15.8211927414,11.920000076300001,2,-1,10,1,128,155
17,1532114459178,605178, RC,0,40.0434592604,-88.2344147,0,-108.51804080790001,410.37505575730006,424.4806845648,-109.4719129828,413.0601973256,0.18512955309999998,0.0,-110.63856442379999,411.474089625,0.2394450397,-24.1609860662,0.0,0.0,1500,1605,40.047174,-88.2331286667,0.0,0.0,0.0,0.0,0.0,0.0,0.0,0.0,0.0,0.0,0.0,0.0,0.0,0,0.0,0.21000003809999998,0.1206606925,0.2495984286,90.0,60.0,60.0,89.8907089233,119.7481765747,118.72959136959999,39.5279998779,15.8211927414,11.920000076300001,2,-1,10,1,104,165
18,1532114459379,605379, RC,0,40.0434592604,-88.2344147,0,-108.51804080790001,410.37505575730006,424.4806845648,-109.4719129828,413.0601973256,0.1949700266,0.0,-110.63856442379999,411.474089625,0.2394450397,-24.1609860662,0.0,0.0,1500,1605,40.047174,-88.2331286667,0.0,0.0,0.0,0.0,0.0,0.0,0.0,0.0,0.0,0.0,0.0,0.0,0.0,0,0.0,0.21000003809999998,0.1280180514,0.26192200179999997,90.0,60.0,60.0,89.3814163208,119.939163208,118.6659317017,39.5279998779,15.8211927414,11.920000076300001,2,-1,10,1,71,174
19,1532114459579,605579, RC,0,40.0434592604,-88.2344147,0,-108.51804080790001,410.37505575730006,424.4806845648,-109.4719129828,413.0601973256,0.1933146268,0.0,-110.63856442379999,411.474089625,0.2394450397,-24.1609860662,0.0,0.0,1500,1605,40.047174,-88.2331286667,0.0,0.0,0.0,0.0,0.0,0.0,0.0,0.0,0.0,0.0,0.0,0.0,0.0,0,0.0,0.21000003809999998,0.130225271,0.2564039826,90.0,60.0,60.0,90.5909881592,118.4749450684,119.42987060549999,39.5279998779,15.8097438812,35.7900009155,2,-1,10,1,66,183
20,1532114459780,605780, RC,0,40.0434592604,-88.2344147,0,-108.51804080790001,410.37505575730006,424.4806845648,-109.4719129828,413.0601973256,0.1953378916,0.0,-110.63856442379999,411.474089625,0.2394450397,-24.1609860662,0.0,0.0,1500,1605,40.047174,-88.2331286667,0.0,0.0,0.0,0.0,0.0,0.0,0.0,0.0,0.0,0.0,0.0,0.0,0.0,0,0.0,0.21000003809999998,0.1254429817,0.2652328014,90.0,60.0,60.0,90.40000915530001,119.6845169067,119.1115570068,39.5279998779,15.8097438812,35.7900009155,2,-1,10,1,78,193
21,1532114459981,605981, RC,0,40.0434592604,-88.2344147,0,-108.0203996896,410.9775814229,424.936441343,-109.6137866178,412.9490024,0.1785999089,0.0,-110.1409233055,412.0766152906,0.7630028934,-24.141530197399998,0.0,0.0,1500,1605,40.047173,-88.233127,0.0,0.0,0.0,0.0,0.0,0.0,0.0,0.0,0.0,0.0,0.0,0.0,0.0,0,0.0,0.21000003809999998,0.11974103,0.23745878039999999,90.0,60.0,60.0,89.63606262209998,119.0479049683,120.00283050540001,39.5279998779,15.8097438812,35.7900009155,2,-1,10,1,68,202
22,1532114460181,606181, RC,0,40.0434592604,-88.2344147,0,-108.0203996896,410.9775814229,424.936441343,-109.6137866178,412.9490024,0.1843938231,0.0,-110.1409233055,412.0766152906,0.7630028934,-24.141530197399998,0.0,0.0,1500,1605,40.047173,-88.233127,0.0,0.0,0.0,0.0,0.0,0.0,0.0,0.0,0.0,0.0,0.0,0.0,0.0,0,0.0,0.21000003809999998,0.1230518371,0.24573580920000002,90.0,60.0,60.0,89.44507598879999,119.1752166748,119.42987060549999,39.5279998779,15.8097438812,35.7900009155,2,-1,10,1,60,211
23,1532114460382,606382, RC,0,40.0434592604,-88.2344147,0,-108.0203996896,410.9775814229,424.936441343,-109.6137866178,412.9490024,0.1842098832,0.0,-110.1409233055,412.0766152906,0.7630028934,-24.141530197399998,0.0,0.0,1500,1605,40.047173,-88.233127,0.0,0.0,0.0,0.0,0.0,0.0,0.0,0.0,0.0,0.0,0.0,0.0,0.0,0,0.0,0.21000003809999998,0.1252590418,0.2431607395,90.0,60.0,60.0,89.3814163208,119.62085723879999,119.0479049683,39.5279998779,15.8097438812,35.7900009155,2,-1,10,1,51,220
24,1532114460582,606582, RC,0,40.0434592604,-88.2344147,0,-108.0203996896,410.9775814229,424.936441343,-109.6137866178,412.9490024,0.18761268260000002,0.0,-110.1409233055,412.0766152906,0.7630028934,-24.141530197399998,0.0,0.0,1500,1605,40.047173,-88.233127,0.0,0.0,0.0,0.0,0.0,0.0,0.0,0.0,0.0,0.0,0.0,0.0,0.0,0,0.0,0.21000003809999998,0.12121249740000001,0.2540128529,90.0,60.0,60.0,89.25408935549999,120.00283050540001,118.15663146969999,39.5279998779,15.790863037100001,25.340000152600002,2,-1,10,1,56,230
25,1532114460783,606783, RC,0,40.0434592604,-88.2344147,0,-108.0203996896,410.9775814229,424.936441343,-109.6137866178,412.9490024,0.19331461190000002,0.0,-110.1409233055,412.0766152906,0.7630028934,-24.141530197399998,0.0,0.0,1500,1605,40.047173,-88.233127,0.0,0.0,0.0,0.0,0.0,0.0,0.0,0.0,0.0,0.0,0.0,0.0,0.0,0,0.0,0.21000003809999998,0.1256269068,0.261002332,90.0,60.0,60.0,89.63606262209998,119.1115570068,121.7217025757,39.5279998779,15.790863037100001,25.340000152600002,2,-1,10,1,26,239
26,1532114460983,606983, RC,0,40.0434592604,-88.2344147,0,-107.91849348,411.31395142019994,425.23589673019995,-109.5428476576,413.3011196672,0.19267085190000002,0.0,-110.03901709590001,412.4129852879,0.9584956208,-24.0289622008,0.0,0.0,1500,1605,40.0471761667,-88.2331278333,0.0,0.0,0.0,0.0,0.0,0.0,0.0,0.0,0.0,0.0,0.0,0.0,0.0,0,0.0,0.21000003809999998,0.1259947866,0.2593469322,90.0,60.0,60.0,90.6546554565,118.6022567749,119.0479049683,39.5279998779,15.790863037100001,25.340000152600002,2,-1,10,1,24,249
27,1532114461184,607184, RC,0,40.0434592604,-88.2344147,0,-107.91849348,411.31395142019994,425.23589673019995,-109.5428476576,413.3011196672,0.1955218315,0.0,-110.03901709590001,412.4129852879,0.9584956208,-24.0289622008,0.0,0.0,1500,1605,40.0471761667,-88.2331278333,0.0,0.0,0.0,0.0,0.0,0.0,0.0,0.0,0.0,0.0,0.0,0.0,0.0,0,0.0,0.21000003809999998,0.1283859164,0.2626577616,90.0,60.0,60.0,89.1904296875,119.81184387209998,118.6022567749,39.5279998779,15.790863037100001,25.340000152600002,2,-1,10,1,36,257
28,1532114461384,607384, RC,0,40.0434592604,-88.2344147,0,-107.91849348,411.31395142019994,425.23589673019995,-109.5428476576,413.3011196672,0.1962575763,0.0,-110.03901709590001,412.4129852879,0.9584956208,-24.0289622008,0.0,0.0,1500,1605,40.0471761667,-88.2331278333,0.0,0.0,0.0,0.0,0.0,0.0,0.0,0.0,0.0,0.0,0.0,0.0,0.0,0,0.0,0.21000003809999998,0.1313288808,0.2611862719,90.0,60.0,60.0,89.1904296875,119.3025436401,119.1752166748,39.5279998779,15.790863037100001,25.340000152600002,2,-1,10,1,25,266
29,1532114461584,607584, RC,0,40.0434592604,-88.2344147,0,-107.91849348,411.31395142019994,425.23589673019995,-109.5428476576,413.3011196672,0.1950619966,0.0,-110.03901709590001,412.4129852879,0.9584956208,-24.0289622008,0.0,0.0,1500,1605,40.0471761667,-88.2331278333,0.0,0.0,0.0,0.0,0.0,0.0,0.0,0.0,0.0,0.0,0.0,0.0,0.0,0,0.0,0.21000003809999998,0.1313288808,0.25879511239999997,90.0,60.0,60.0,89.12677001950001,119.62085723879999,118.856918335,39.5279998779,15.7738676071,32.9899978638,2,-1,10,1,30,275
30,1532114461785,607785, RC,0,40.0434592604,-88.2344147,0,-107.91849348,411.31395142019994,425.23589673019995,-109.5428476576,413.3011196672,0.1870608628,0.0,-110.03901709590001,412.4129852879,0.9584956208,-24.0289622008,0.0,0.0,1500,1605,40.0471761667,-88.2331278333,0.0,0.0,0.0,0.0,0.0,0.0,0.0,0.0,0.0,0.0,0.0,0.0,0.0,0,0.0,0.21000003809999998,0.116614148,0.2575075924,90.0,60.0,60.0,90.2726821899,119.42987060549999,119.0479049683,39.5279998779,15.7738676071,32.9899978638,2,-1,10,1,28,284
31,1532114461985,607985, RC,0,40.0434592604,-88.2344147,0,-107.73244810370001,411.5580877583,425.4248934579,-109.6989068303,413.43084708160006,0.17841596899999998,0.0,-109.85297171959999,412.657121626,1.0782243363,-24.0797166399,0.0,0.0,1500,1605,40.0471773333,-88.233126,0.0,0.0,0.0,0.0,0.0,0.0,0.0,0.0,0.0,0.0,0.0,0.0,0.0,0,0.0,0.21000003809999998,0.11771775039999999,0.2391141802,90.0,60.0,60.0,89.44507598879999,118.9842300415,119.3662033081,39.5279998779,15.7738676071,32.9899978638,2,-1,10,1,54,292
32,1532114462185,608185, RC,0,40.0434592604,-88.2344147,0,-107.73244810370001,411.5580877583,425.4248934579,-109.6989068303,413.43084708160006,0.18558940289999998,0.0,-109.85297171959999,412.657121626,1.0782243363,-24.0797166399,0.0,0.0,1500,1605,40.0471773333,-88.233126,0.0,0.0,0.0,0.0,0.0,0.0,0.0,0.0,0.0,0.0,0.0,0.0,0.0,0,0.0,0.21000003809999998,0.1280180514,0.2431607395,90.0,60.0,60.0,90.2726821899,119.42987060549999,118.9205703735,39.5279998779,15.7738676071,32.9899978638,2,-1,10,1,48,301
33,1532114462386,608386, RC,0,40.0434592604,-88.2344147,0,-107.73244810370001,411.5580877583,425.4248934579,-109.6989068303,413.43084708160006,0.1956138015,0.0,-109.85297171959999,412.657121626,1.0782243363,-24.0797166399,0.0,0.0,1500,1605,40.0471773333,-88.233126,0.0,0.0,0.0,0.0,0.0,0.0,0.0,0.0,0.0,0.0,0.0,0.0,0.0,0,0.0,0.21000003809999998,0.1291216612,0.2621059418,90.0,60.0,60.0,90.01803588870001,119.42987060549999,119.5571899414,39.5279998779,15.7738676071,32.9899978638,2,-1,10,1,47,310
34,1532114462586,608586, RC,0,40.0434592604,-88.2344147,0,-107.73244810370001,411.5580877583,425.4248934579,-109.6989068303,413.43084708160006,0.1889921725,0.0,-109.85297171959999,412.657121626,1.0782243363,-24.0797166399,0.0,0.0,1500,1605,40.0471773333,-88.233126,0.0,0.0,0.0,0.0,0.0,0.0,0.0,0.0,0.0,0.0,0.0,0.0,0.0,0,0.0,0.21000003809999998,0.1274662614,0.2505180836,90.0,60.0,60.0,90.145362854,119.2388916016,119.6845169067,39.5279998779,15.7644271851,43.059997558599996,2,-1,10,1,54,319
35,1532114462786,608786, RC,0,40.0434592604,-88.2344147,0,-107.73244810370001,411.5580877583,425.4248934579,-109.6989068303,413.43084708160006,0.1894520223,0.0,-109.85297171959999,412.657121626,1.0782243363,-24.0797166399,0.0,0.0,1500,1605,40.0471773333,-88.233126,0.0,0.0,0.0,0.0,0.0,0.0,0.0,0.0,0.0,0.0,0.0,0.0,0.0,0,0.0,0.21000003809999998,0.1241554469,0.2547485828,90.0,60.0,60.0,89.5724029541,119.1115570068,119.81184387209998,39.5279998779,15.7644271851,43.059997558599996,2,-1,10,1,46,327
36,1532114462987,608987, RC,0,40.0434592604,-88.2344147,0,-107.70778126379999,411.82553192949996,425.6773835827,-109.6563457865,413.3196521553,0.1945102066,0.0,-109.8283048797,412.9245657972,1.0850975712,-24.001700887800002,0.0,0.0,1504,1605,40.0471763333,-88.2331265,0.0,0.0,0.0,0.0,0.0,0.0,0.0,0.0,0.0,0.0,0.0,0.0,0.0,0,0.008468985600000001,0.21000003809999998,0.1261787117,0.26284170149999997,90.0,60.0,60.0,89.5724029541,118.6022567749,120.00283050540001,40.0660018921,15.7644271851,43.059997558599996,2,-1,10,1,42,336
37,1532114463187,609187, RC,0,40.0434592604,-88.2344147,0,-107.70778126379999,411.82553192949996,425.6773835827,-109.6563457865,413.3196521553,0.1602984667,0.0,-109.8283048797,412.9245657972,1.0850975712,-24.001700887800002,0.0,0.0,1591,1605,40.0471763333,-88.2331265,0.0,0.0,0.0,0.0,0.0,0.0,0.0,0.0,0.0,0.0,0.0,0.0,0.0,0,0.1831279993,0.21000003809999998,0.1204767674,0.2001201808,90.0,60.0,60.0,89.9543762207,118.856918335,119.1115570068,40.0660018921,15.7644271851,43.059997558599996,2,-1,10,1,37,345
38,1532114463388,609388, RC,0,40.0434592604,-88.2344147,0,-107.70778126379999,411.82553192949996,425.6773835827,-109.6563457865,413.3196521553,0.10741744939999999,0.0,-109.8283048797,412.9245657972,1.0850975712,-24.001700887800002,0.0,0.0,1606,1605,40.0471763333,-88.2331265,0.0,0.0,0.0,0.0,0.0,0.0,0.0,0.0,0.0,0.0,0.0,0.0,0.0,0,0.2126239538,0.21000003809999998,0.130593136,0.0842417628,90.0,60.0,60.0,89.7633895874,118.53860473629999,119.4935302734,40.0660018921,15.7644271851,43.059997558599996,2,-1,10,1,40,353
39,1532114463588,609588, RC,0,40.0434592604,-88.2344147,0,-107.70778126379999,411.82553192949996,425.6773835827,-109.6563457865,413.3196521553,0.09389830380000001,0.0,-109.8283048797,412.9245657972,1.0850975712,-24.001700887800002,0.0,0.0,1607,1605,40.0471763333,-88.2331265,0.0,0.0,0.0,0.0,0.0,0.0,0.0,0.0,0.0,0.0,0.0,0.0,0.0,0,0.2153520584,0.21000003809999998,0.1609422415,0.026854364199999998,90.0,60.0,60.0,90.145362854,118.7932434082,119.81184387209998,40.0660018921,15.756639480599999,49.8799972534,2,-1,10,1,38,362
40,1532114463788,609788, RC,0,40.0434592604,-88.2344147,0,-107.70778126379999,411.82553192949996,425.6773835827,-109.6563457865,413.3196521553,0.10723351689999999,0.0,-109.8283048797,412.9245657972,1.0850975712,-24.001700887800002,0.0,0.0,1607,1605,40.0471763333,-88.2331265,0.0,0.0,0.0,0.0,0.0,0.0,0.0,0.0,0.0,0.0,0.0,0.0,0.0,0,0.2153520584,0.21000003809999998,0.2069257349,0.0075412933,90.0,60.0,60.0,90.0816955566,119.0479049683,119.3662033081,40.0660018921,15.756639480599999,49.8799972534,2,-1,10,1,34,370
41,1532114463989,609989, RC,0,40.0434592604,-88.2344147,0,-107.6028751114,412.0156563964,425.834803472,-109.94008929040001,413.61617195959997,0.14236490429999998,0.0,-109.7233987273,413.11469026410003,1.0458317323000001,-24.0285605452,0.0,0.0,1500,1605,40.047179,-88.2331231667,0.0,0.0,0.0,0.0,0.0,0.0,0.0,0.0,0.0,0.0,0.0,0.0,0.0,0,0.0,0.21000003809999998,0.1762087643,0.1085210517,90.0,60.0,60.0,89.9543762207,119.3025436401,119.1752166748,39.5279998779,15.756639480599999,49.8799972534,2,-1,10,1,36,379
42,1532114464190,610190, RC,0,40.0434592604,-88.2344147,0,-107.6028751114,412.0156563964,425.834803472,-109.94008929040001,413.61617195959997,0.1362031102,0.0,-109.7233987273,413.11469026410003,1.0458317323000001,-24.0285605452,0.0,0.0,1500,1605,40.047179,-88.2331231667,0.0,0.0,0.0,0.0,0.0,0.0,0.0,0.0,0.0,0.0,0.0,0.0,0.0,0,0.0,0.21000003809999998,0.13096100089999999,0.1414452344,90.0,60.0,60.0,88.4901504517,117.6473312378,120.2574768066,39.5279998779,15.756639480599999,49.8799972534,2,-1,10,1,37,387
43,1532114464390,610390, RC,0,40.0434592604,-88.2344147,0,-107.6028751114,412.0156563964,425.834803472,-109.94008929040001,413.61617195959997,0.1613101065,0.0,-109.7233987273,413.11469026410003,1.0458317323000001,-24.0285605452,0.0,0.0,1500,1605,40.047179,-88.2331231667,0.0,0.0,0.0,0.0,0.0,0.0,0.0,0.0,0.0,0.0,0.0,0.0,0.0,0,0.0,0.21000003809999998,0.1291216612,0.1934985667,90.0,60.0,60.0,89.25408935549999,119.1115570068,119.6845169067,39.5279998779,15.756639480599999,49.8799972534,2,-1,10,1,26,396
44,1532114464591,610591, RC,0,40.0434592604,-88.2344147,0,-107.6028751114,412.0156563964,425.834803472,-109.94008929040001,413.61617195959997,0.17896777390000002,0.0,-109.7233987273,413.11469026410003,1.0458317323000001,-24.0285605452,0.0,0.0,1500,1605,40.047179,-88.2331231667,0.0,0.0,0.0,0.0,0.0,0.0,0.0,0.0,0.0,0.0,0.0,0.0,0.0,0,0.0,0.21000003809999998,0.1333521456,0.2271584868,90.0,60.0,60.0,89.63606262209998,119.0479049683,119.42987060549999,39.5279998779,15.7376270294,62.800003051800005,2,-1,10,1,16,405
45,1532114464791,610791, RC,0,40.0434592604,-88.2344147,0,-107.6028751114,412.0156563964,425.834803472,-109.94008929040001,413.61617195959997,0.18595725300000002,0.0,-109.7233987273,413.11469026410003,1.0458317323000001,-24.0285605452,0.0,0.0,1500,1605,40.047179,-88.2331231667,0.0,0.0,0.0,0.0,0.0,0.0,0.0,0.0,0.0,0.0,0.0,0.0,0.0,0,0.0,0.21000003809999998,0.130409196,0.2415053248,90.0,60.0,60.0,89.0631027222,118.856918335,119.6845169067,39.5279998779,15.7376270294,62.800003051800005,2,-1,10,1,21,414
46,1532114464992,610992, RC,0,40.0434592604,-88.2344147,0,-107.6707510565,412.31148476050004,426.1381831032,-110.02520948870001,414.09801664199995,0.1950619966,0.0,-109.7912746724,413.4105186282,0.9968656834999999,-23.921374405300003,0.0,0.0,1500,1605,40.0471833333,-88.2331221667,0.0,0.0,0.0,0.0,0.0,0.0,0.0,0.0,0.0,0.0,0.0,0.0,0.0,0,0.0,0.21000003809999998,0.1329842806,0.2571397126,90.0,60.0,60.0,89.63606262209998,119.3025436401,119.1752166748,39.5279998779,15.7376270294,62.800003051800005,2,-1,10,1,14,422
47,1532114465193,611193, RC,0,40.0434592604,-88.2344147,0,-107.6707510565,412.31148476050004,426.1381831032,-110.02520948870001,414.09801664199995,0.19285479190000002,0.0,-109.7912746724,413.4105186282,0.9968656834999999,-23.921374405300003,0.0,0.0,1516,1605,40.0471833333,-88.2331221667,0.0,0.0,0.0,0.0,0.0,0.0,0.0,0.0,0.0,0.0,0.0,0.0,0.0,0,0.0320930481,0.21000003809999998,0.13629509509999999,0.24941448870000002,90.0,60.0,60.0,89.9543762207,119.62085723879999,118.7932434082,39.5279998779,15.7376270294,62.800003051800005,2,-1,10,1,41,431
48,1532114465394,611394, RC,0,40.0434592604,-88.2344147,0,-107.6707510565,412.31148476050004,426.1381831032,-110.02520948870001,414.09801664199995,0.16967910530000002,0.0,-109.7912746724,413.4105186282,0.9968656834999999,-23.921374405300003,0.0,0.0,1607,1605,40.0471833333,-88.2331221667,0.0,0.0,0.0,0.0,0.0,0.0,0.0,0.0,0.0,0.0,0.0,0.0,0.0,0,0.2153520584,0.21000003809999998,0.14015769960000002,0.19920051100000002,90.0,60.0,60.0,89.3814163208,120.2574768066,118.2839584351,39.5279998779,15.7376270294,62.800003051800005,2,-1,10,1,217,440
49,1532114465594,611594, RC,0,40.0434592604,-88.2344147,0,-107.6707510565,412.31148476050004,426.1381831032,-110.02520948870001,414.09801664199995,0.13473165039999999,0.0,-109.7912746724,413.4105186282,0.9968656834999999,-23.921374405300003,0.0,0.0,1500,1605,40.0471833333,-88.2331221667,0.0,0.0,0.0,0.0,0.0,0.0,0.0,0.0,0.0,0.0,0.0,0.0,0.0,0,0.0,0.21000003809999998,0.1868769377,0.082586363,90.0,60.0,60.0,90.2726821899,119.0479049683,118.9842300415,39.5279998779,15.7213106155,55.7000007629,2,-1,10,1,241,448
50,1532114465795,611795, RC,0,40.0434592604,-88.2344147,0,-107.6707510565,412.31148476050004,426.1381831032,-110.02520948870001,414.09801664199995,0.1486186683,0.0,-109.7912746724,413.4105186282,0.9968656834999999,-23.921374405300003,0.0,0.0,1500,1605,40.0471833333,-88.2331221667,0.0,0.0,0.0,0.0,0.0,0.0,0.0,0.0,0.0,0.0,0.0,0.0,0.0,0,0.0,0.21000003809999998,0.11974103,0.1774962991,90.0,60.0,60.0,89.82704925540001,118.7932434082,119.1752166748,39.5279998779,15.7213106155,55.7000007629,2,-1,10,1,227,457
51,1532114465996,611996, RC,0,40.0434592604,-88.2344147,0,-107.6161796633,412.5724887061,426.3769465655,-109.9258944835,414.6539912746,0.17124255,0.0,-109.7367032792,413.67152257379996,0.9475119506,-23.8973612103,0.0,0.0,1500,1605,40.0471883333,-88.2331233333,0.0,0.0,0.0,0.0,0.0,0.0,0.0,0.0,0.0,0.0,0.0,0.0,0.0,0,0.0,0.21000003809999998,0.12470724429999999,0.2177778482,90.0,60.0,60.0,89.1904296875,118.2839584351,119.87550354,39.5279998779,15.7213106155,55.7000007629,2,-1,10,1,135,465
52,1532114466196,612196, RC,0,40.0434592604,-88.2344147,0,-107.6161796633,412.5724887061,426.3769465655,-109.9258944835,414.6539912746,0.1022672951,0.0,-109.7367032792,413.67152257379996,0.9475119506,-23.8973612103,0.0,0.0,1500,1500,40.0471883333,-88.2331233333,0.0,0.0,0.0,0.0,0.0,0.0,0.0,0.0,0.0,0.0,0.0,0.0,0.0,0,0.0,0.0,0.0671359077,0.13739869,90.0,60.0,60.0,90.145362854,118.7932434082,120.0664901733,39.5279998779,15.7213106155,55.7000007629,2,-1,10,1,21,473
53,1532114466397,612397, RC,0,40.0434592604,-88.2344147,0,-107.6161796633,412.5724887061,426.3769465655,-109.9258944835,414.6539912746,0.011036038400000002,0.0,-109.7367032792,413.67152257379996,0.9475119506,-23.8973612103,0.0,0.0,1607,1500,40.0471883333,-88.2331233333,0.0,0.0,0.0,0.0,0.0,0.0,0.0,0.0,0.0,0.0,0.0,0.0,0.0,0,0.2153520584,0.0,0.035683196,-0.0577552728,90.0,60.0,60.0,90.01803588870001,118.6659317017,119.3025436401,39.5279998779,15.7213106155,55.7000007629,2,-1,10,1,28,482
54,1532114466597,612597, RC,0,40.0434592604,-88.2344147,0,-107.6161796633,412.5724887061,426.3769465655,-109.9258944835,414.6539912746,0.0283258352,0.0,-109.7367032792,413.67152257379996,0.9475119506,-23.8973612103,0.0,0.0,1500,1500,40.0471883333,-88.2331233333,0.0,0.0,0.0,0.0,0.0,0.0,0.0,0.0,0.0,0.0,0.0,0.0,0.0,0,0.0,0.0,0.006069821800000001,-0.0627214909,90.0,60.0,60.0,89.5087432861,119.87550354,118.6659317017,39.5279998779,15.7183933258,0.8199999928,2,-1,10,1,32,490
55,1532114466798,612798, RC,0,40.0434592604,-88.2344147,0,-107.6161796633,412.5724887061,426.3769465655,-109.9258944835,414.6539912746,0.012047676399999999,0.0,-109.7367032792,413.67152257379996,0.9475119506,-23.8973612103,0.0,0.0,1500,1500,40.0471883333,-88.2331233333,0.0,0.0,0.0,0.0,0.0,0.0,0.0,0.0,0.0,0.0,0.0,0.0,0.0,0,0.0,0.0,0.00018393400000000002,-0.024279287099999998,90.0,60.0,60.0,89.5087432861,119.3662033081,119.0479049683,39.5279998779,15.7183933258,0.8199999928,2,-1,10,1,31,499
56,1532114466999,612999, RC,0,40.0434592604,-88.2344147,0,-107.6842041165,412.83020140379995,426.6434846652,-109.8975200543,414.6354587865,0.0045983498,0.0,-109.8047277324,413.92923527150003,0.8696881371999999,-23.7731886969,0.0,0.0,1500,1500,40.0471881667,-88.2331236667,0.0,0.0,0.0,0.0,0.0,0.0,0.0,0.0,0.0,0.0,0.0,0.0,0.0,0,0.0,0.0,0.0,-0.0091966996,90.0,60.0,60.0,89.5087432861,119.3025436401,119.0479049683,39.5279998779,15.7183933258,0.8199999928,2,-1,10,1,31,508
57,1532114467199,613199, RC,0,40.0434592604,-88.2344147,0,-107.6842041165,412.83020140379995,426.6434846652,-109.8975200543,414.6354587865,0.0017473729000000002,0.0,-109.8047277324,413.92923527150003,0.8696881371999999,-23.7731886969,0.0,0.0,1500,1500,40.0471881667,-88.2331236667,0.0,0.0,0.0,0.0,0.0,0.0,0.0,0.0,0.0,0.0,0.0,0.0,0.0,0,0.0,0.0,0.0,-0.0034947458000000003,90.0,60.0,60.0,89.5087432861,119.3662033081,119.0479049683,39.5279998779,15.7183933258,0.8199999928,2,-1,10,1,28,516
58,1532114467400,613400, RC,0,40.0434592604,-88.2344147,0,-107.6842041165,412.83020140379995,426.6434846652,-109.8975200543,414.6354587865,0.000643769,0.0,-109.8047277324,413.92923527150003,0.8696881371999999,-23.7731886969,0.0,0.0,1500,1500,40.0471881667,-88.2331236667,0.0,0.0,0.0,0.0,0.0,0.0,0.0,0.0,0.0,0.0,0.0,0.0,0.0,0,0.0,0.0,0.0,-0.001287538,90.0,60.0,60.0,89.5087432861,119.3662033081,119.0479049683,39.5279998779,15.7183933258,0.8199999928,2,-1,10,1,36,525
59,1532114467600,613600, RC,0,40.0434592604,-88.2344147,0,-107.6842041165,412.83020140379995,426.6434846652,-109.8975200543,414.6354587865,0.0059778551,0.0,-109.8047277324,413.92923527150003,0.8696881371999999,-23.7731886969,0.0,0.0,1563,1500,40.0471881667,-88.2331236667,0.0,0.0,0.0,0.0,0.0,0.0,0.0,0.0,0.0,0.0,0.0,0.0,0.0,0,0.12728703019999998,0.0,0.0007357360000000001,-0.0126914456,90.0,60.0,60.0,89.5087432861,119.3662033081,119.0479049683,39.5279998779,15.7297954559,0.8799999951999999,2,-1,10,1,31,533
60,1532114467801,613801, RC,0,40.0434592604,-88.2344147,0,-107.6842041165,412.83020140379995,426.6434846652,-109.8975200543,414.6354587865,0.029705338199999997,0.0,-109.8047277324,413.92923527150003,0.8696881371999999,-23.7731886969,0.0,0.0,1607,1500,40.0471881667,-88.2331236667,0.0,0.0,0.0,0.0,0.0,0.0,0.0,0.0,0.0,0.0,0.0,0.0,0.0,0,0.2153520584,0.0,0.00036786800000000004,-0.0597785451,90.0,60.0,60.0,89.12677001950001,120.51211547850001,117.77465820309999,39.5279998779,15.7297954559,0.8799999951999999,2,-1,10,1,39,542
61,1532114468002,614002, RC,0,40.0434592604,-88.2344147,0,-107.6981250156,413.0245917394,426.8350963936,-110.1103283357,414.7651862017,0.047914803,0.0,-109.8186486315,414.1236256071,0.7769520875,-23.713338261100002,0.0,0.0,1607,1500,40.0471893333,-88.2331211667,0.0,0.0,0.0,0.0,0.0,0.0,0.0,0.0,0.0,0.0,0.0,0.0,0.0,0,0.2153520584,0.0,0.0,-0.09582960609999999,90.0,60.0,60.0,90.2726821899,119.1115570068,118.0293045044,39.5279998779,15.7297954559,0.8799999951999999,2,-1,10,1,53,551
62,1532114468202,614202, RC,0,40.0434592604,-88.2344147,0,-107.6981250156,413.0245917394,426.8350963936,-110.1103283357,414.7651862017,0.0712744221,0.0,-109.8186486315,414.1236256071,0.7769520875,-23.713338261100002,0.0,0.0,1607,1500,40.0471893333,-88.2331211667,0.0,0.0,0.0,0.0,0.0,0.0,0.0,0.0,0.0,0.0,0.0,0.0,0.0,0,0.2153520584,0.0,0.00036786800000000004,-0.1429167092,90.0,60.0,60.0,90.145362854,118.34761810299999,120.00283050540001,39.5279998779,15.7297954559,0.8799999951999999,2,-1,10,1,135,559
63,1532114468403,614403, RC,0,40.0434592604,-88.2344147,0,-107.6981250156,413.0245917394,426.8350963936,-110.1103283357,414.7651862017,0.0591347776,0.0,-109.8186486315,414.1236256071,0.7769520875,-23.713338261100002,0.0,0.0,1500,1500,40.0471893333,-88.2331211667,0.0,0.0,0.0,0.0,0.0,0.0,0.0,0.0,0.0,0.0,0.0,0.0,0.0,0,0.0,0.0,-0.0057019535,-0.1125676036,90.0,60.0,60.0,89.12677001950001,118.6659317017,120.00283050540001,39.5279998779,15.7297954559,0.8799999951999999,2,-1,10,1,266,568
64,1532114468603,614603, RC,0,40.0434592604,-88.2344147,0,-107.6981250156,413.0245917394,426.8350963936,-110.1103283357,414.7651862017,0.0187612679,0.0,-109.8186486315,414.1236256071,0.7769520875,-23.713338261100002,0.0,0.0,1500,1500,40.0471893333,-88.2331211667,0.0,0.0,0.0,0.0,0.0,0.0,0.0,0.0,0.0,0.0,0.0,0.0,0.0,0,0.0,0.0,-0.002575076,-0.0349474587,90.0,60.0,60.0,89.63606262209998,119.2388916016,118.856918335,39.5279998779,15.7420473099,0.9300000072,2,-1,10,1,227,577
65,1532114468804,614804, RC,0,40.0434592604,-88.2344147,0,-107.6981250156,413.0245917394,426.8350963936,-110.1103283357,414.7651862017,0.0054260525,0.0,-109.8186486315,414.1236256071,0.7769520875,-23.713338261100002,0.0,0.0,1500,1500,40.0471893333,-88.2331211667,0.0,0.0,0.0,0.0,0.0,0.0,0.0,0.0,0.0,0.0,0.0,0.0,0.0,0,0.0,0.0,-0.0009196699,-0.0099324351,90.0,60.0,60.0,89.63606262209998,119.2388916016,118.9205703735,39.5279998779,15.7420473099,0.9300000072,2,-1,10,1,186,585
66,1532114469005,615005, RC,0,40.0434592604,-88.2344147,0,-107.82568664969999,413.20333779919997,427.0402522829,-110.1245156168,414.7651862017,0.0030349107000000003,0.0,-109.9462102656,414.3023716669,0.6719014392,-23.5326856173,0.0,0.0,1559,1500,40.0471893333,-88.233121,0.0,0.0,0.0,0.0,0.0,0.0,0.0,0.0,0.0,0.0,0.0,0.0,0.0,0,0.1193829775,0.0,0.0058858879,-0.0119557092,90.0,60.0,60.0,89.63606262209998,119.1752166748,118.9205703735,39.5279998779,15.7420473099,0.9300000072,2,-1,10,1,204,593
67,1532114469205,615205, RC,0,40.0434592604,-88.2344147,0,-107.82568664969999,413.20333779919997,427.0402522829,-110.1245156168,414.7651862017,0.0084609631,0.0,-109.9462102656,414.3023716669,0.6719014392,-23.5326856173,0.0,0.0,1500,1500,40.0471893333,-88.233121,0.0,0.0,0.0,0.0,0.0,0.0,0.0,0.0,0.0,0.0,0.0,0.0,0.0,0,0.0,0.0,0.0518693849,-0.0349474587,90.0,60.0,60.0,90.7183227539,119.62085723879999,118.6022567749,39.5279998779,15.7420473099,0.9300000072,2,-1,10,1,267,601
68,1532114469406,615406, RC,0,40.0434592604,-88.2344147,0,-107.82568664969999,413.20333779919997,427.0402522829,-110.1245156168,414.7651862017,0.0072653927000000005,0.0,-109.9462102656,414.3023716669,0.6719014392,-23.5326856173,0.0,0.0,1500,1500,40.0471893333,-88.233121,0.0,0.0,0.0,0.0,0.0,0.0,0.0,0.0,0.0,0.0,0.0,0.0,0.0,0,0.0,0.0,0.0182094648,-0.0036786796999999996,90.0,60.0,60.0,89.44507598879999,118.9842300415,119.62085723879999,39.5279998779,15.7420473099,0.9300000072,2,-1,10,1,253,609
69,1532114469607,615607, RC,0,40.0434592604,-88.2344147,0,-107.82568664969999,413.20333779919997,427.0402522829,-110.1245156168,414.7651862017,0.001011637,0.0,-109.9462102656,414.3023716669,0.6719014392,-23.5326856173,0.0,0.0,1569,1500,40.0471893333,-88.233121,0.0,0.0,0.0,0.0,0.0,0.0,0.0,0.0,0.0,0.0,0.0,0.0,0.0,0,0.1396670341,0.0,0.014898653100000001,-0.012875379099999999,90.0,60.0,60.0,89.44507598879999,118.9205703735,119.6845169067,39.5279998779,15.7383346558,20.9399986267,2,-1,10,1,201,617
70,1532114469807,615807, RC,0,40.0434592604,-88.2344147,0,-107.82568664969999,413.20333779919997,427.0402522829,-110.1245156168,414.7651862017,0.0040465482,0.0,-109.9462102656,414.3023716669,0.6719014392,-23.5326856173,0.0,0.0,1607,1500,40.0471893333,-88.233121,0.0,0.0,0.0,0.0,0.0,0.0,0.0,0.0,0.0,0.0,0.0,0.0,0.0,0,0.2153520584,0.0,0.0805630833,-0.08865617960000001,90.0,60.0,60.0,89.8907089233,119.3662033081,119.3662033081,39.5279998779,15.7383346558,20.9399986267,2,-1,10,1,251,625
71,1532114470008,616008, RC,0,40.0434592604,-88.2344147,0,-107.8683707186,413.3260202314,427.1697372261,-110.09614091889999,414.78371868910006,0.0013795010999999998,0.0,-109.9888943345,414.4250540991,0.5854515313,-23.408251217300002,0.0,0.0,1500,1500,40.0471895,-88.2331213333,0.0,0.0,0.0,0.0,0.0,0.0,0.0,0.0,0.0,0.0,0.0,0.0,0.0,0,0.0,0.0,0.1195570901,-0.11679808800000001,90.0,60.0,60.0,89.8907089233,118.856918335,119.81184387209998,38.9899978638,15.7383346558,20.9399986267,2,-1,10,1,265,632
72,1532114470208,616208, RC,0,40.0434592604,-88.2344147,0,-107.8683707186,413.3260202314,427.1697372261,-110.09614091889999,414.78371868910006,0.0052421186,0.0,-109.9888943345,414.4250540991,0.5854515313,-23.408251217300002,0.0,0.0,1500,1500,40.0471895,-88.2331213333,0.0,0.0,0.0,0.0,0.0,0.0,0.0,0.0,0.0,0.0,0.0,0.0,0.0,0,0.0,0.0,0.048006772999999996,-0.0375225358,90.0,60.0,60.0,89.6997299194,118.6659317017,119.6845169067,38.9899978638,15.7383346558,20.9399986267,2,-1,10,1,251,639
73,1532114470409,616409, RC,0,40.0434592604,-88.2344147,0,-107.8683707186,413.3260202314,427.1697372261,-110.09614091889999,414.78371868910006,0.0056099864,0.0,-109.9888943345,414.4250540991,0.5854515313,-23.408251217300002,0.0,0.0,1500,1500,40.0471895,-88.2331213333,0.0,0.0,0.0,0.0,0.0,0.0,0.0,0.0,0.0,0.0,0.0,0.0,0.0,0,0.0,0.0,0.0183933992,-0.007173426,90.0,60.0,60.0,89.5724029541,118.53860473629999,119.81184387209998,38.9899978638,15.7383346558,20.9399986267,2,-1,10,1,192,646
74,1532114470610,616610, RC,0,40.0434592604,-88.2344147,0,-107.8683707186,413.3260202314,427.1697372261,-110.09614091889999,414.78371868910006,0.0150825866,0.0,-109.9888943345,414.4250540991,0.5854515313,-23.408251217300002,0.0,0.0,1500,1605,40.0471895,-88.2331213333,0.0,0.0,0.0,0.0,0.0,0.0,0.0,0.0,0.0,0.0,0.0,0.0,0.0,0,0.0,0.21000003809999998,0.0110360393,0.0191291347,90.0,60.0,60.0,89.5087432861,118.6659317017,120.0664901733,38.9899978638,15.7580919266,44.36999893189999,2,-1,10,1,231,653
75,1532114470810,616810, RC,0,40.0434592604,-88.2344147,0,-107.8683707186,413.3260202314,427.1697372261,-110.09614091889999,414.78371868910006,0.0675957426,0.0,-109.9888943345,414.4250540991,0.5854515313,-23.408251217300002,0.0,0.0,1500,1605,40.0471895,-88.2331213333,0.0,0.0,0.0,0.0,0.0,0.0,0.0,0.0,0.0,0.0,0.0,0.0,0.0,0,0.0,0.21000003809999998,0.012323576999999999,0.12286790460000001,90.0,60.0,60.0,89.44507598879999,118.9205703735,118.9205703735,38.9899978638,15.7580919266,44.36999893189999,2,-1,10,1,237,660
76,1532114471011,617011, RC,0,40.0434592604,-88.2344147,0,-107.90253846809999,413.44258621949996,427.2911535566,-110.1103283357,414.7651862017,0.1145908758,0.0,-110.023062084,414.5416200872,0.5490663745000001,-23.3377481918,0.0,0.0,1500,1605,40.0471893333,-88.2331211667,0.0,0.0,0.0,0.0,0.0,0.0,0.0,0.0,0.0,0.0,0.0,0.0,0.0,0,0.0,0.21000003809999998,0.058491006500000005,0.1706907451,90.0,60.0,60.0,89.25408935549999,119.1115570068,118.6659317017,39.5279998779,15.7580919266,44.36999893189999,2,-1,10,1,208,667
77,1532114471211,617211, RC,0,40.0434592604,-88.2344147,0,-107.90253846809999,413.44258621949996,427.2911535566,-110.1103283357,414.7651862017,0.15468849240000002,0.0,-110.023062084,414.5416200872,0.5490663745000001,-23.3377481918,0.0,0.0,1500,1605,40.0471893333,-88.2331211667,0.0,0.0,0.0,0.0,0.0,0.0,0.0,0.0,0.0,0.0,0.0,0.0,0.0,0,0.0,0.21000003809999998,0.1030030325,0.2063739449,90.0,60.0,60.0,89.3177566528,119.1115570068,118.6659317017,39.5279998779,15.7580919266,44.36999893189999,2,-1,10,1,43,674
78,1532114471412,617412, RC,0,40.0434592604,-88.2344147,0,-107.90253846809999,413.44258621949996,427.2911535566,-110.1103283357,414.7651862017,0.1705068201,0.0,-110.023062084,414.5416200872,0.5490663745000001,-23.3377481918,0.0,0.0,1500,1605,40.0471893333,-88.2331211667,0.0,0.0,0.0,0.0,0.0,0.0,0.0,0.0,0.0,0.0,0.0,0.0,0.0,0,0.0,0.21000003809999998,0.12213217470000001,0.218881458,90.0,60.0,60.0,90.145362854,119.3662033081,118.7932434082,39.5279998779,15.7580919266,44.36999893189999,2,-1,10,1,25,681
79,1532114471612,617612, RC,0,40.0434592604,-88.2344147,0,-107.90253846809999,413.44258621949996,427.2911535566,-110.1103283357,414.7651862017,0.1858652979,0.0,-110.023062084,414.5416200872,0.5490663745000001,-23.3377481918,0.0,0.0,1500,1605,40.0471893333,-88.2331211667,0.0,0.0,0.0,0.0,0.0,0.0,0.0,0.0,0.0,0.0,0.0,0.0,0.0,0,0.0,0.21000003809999998,0.1300413311,0.2416892648,90.0,60.0,60.0,91.3549346924,119.87550354,118.6659317017,39.5279998779,15.764262199400001,37.6699981689,2,-1,10,1,24,688
80,1532114471812,617812, RC,0,40.0434592604,-88.2344147,0,-107.90253846809999,413.44258621949996,427.2911535566,-110.1103283357,414.7651862017,0.1862331629,0.0,-110.023062084,414.5416200872,0.5490663745000001,-23.3377481918,0.0,0.0,1500,1605,40.0471893333,-88.2331211667,0.0,0.0,0.0,0.0,0.0,0.0,0.0,0.0,0.0,0.0,0.0,0.0,0.0,0,0.0,0.21000003809999998,0.1276501864,0.24481613929999999,90.0,60.0,60.0,89.25408935549999,119.42987060549999,118.856918335,39.5279998779,15.764262199400001,37.6699981689,2,-1,10,1,24,695
81,1532114472013,618013, RC,0,40.0434592604,-88.2344147,0,-107.9499483521,413.57415118089995,427.4304269401,-110.096140246,414.8763811281,0.18632513280000002,0.0,-110.07047196799999,414.67318504860003,0.5707212577,-23.2777955079,0.0,0.0,1500,1605,40.0471903333,-88.2331213333,0.0,0.0,0.0,0.0,0.0,0.0,0.0,0.0,0.0,0.0,0.0,0.0,0.0,0,0.0,0.21000003809999998,0.1259947866,0.2466554791,90.0,60.0,60.0,89.5724029541,119.3025436401,119.0479049683,39.5279998779,15.764262199400001,37.6699981689,2,-1,10,1,31,702
82,1532114472213,618213, RC,0,40.0434592604,-88.2344147,0,-107.9499483521,413.57415118089995,427.4304269401,-110.096140246,414.8763811281,0.1864171028,0.0,-110.07047196799999,414.67318504860003,0.5707212577,-23.2777955079,0.0,0.0,1500,1605,40.0471903333,-88.2331213333,0.0,0.0,0.0,0.0,0.0,0.0,0.0,0.0,0.0,0.0,0.0,0.0,0.0,0,0.0,0.21000003809999998,0.1261787117,0.2466554791,90.0,60.0,60.0,88.93578338620001,118.0929718018,120.2574768066,39.5279998779,15.764262199400001,37.6699981689,2,-1,10,1,288,709
83,1532114472413,618413, RC,0,40.0434592604,-88.2344147,0,-107.9499483521,413.57415118089995,427.4304269401,-110.096140246,414.8763811281,0.18540546300000002,0.0,-110.07047196799999,414.67318504860003,0.5707212577,-23.2777955079,0.0,0.0,1500,1605,40.0471903333,-88.2331213333,0.0,0.0,0.0,0.0,0.0,0.0,0.0,0.0,0.0,0.0,0.0,0.0,0.0,0,0.0,0.21000003809999998,0.1296734661,0.2411374748,90.0,60.0,60.0,89.44507598879999,119.42987060549999,120.0664901733,39.5279998779,15.764262199400001,37.6699981689,2,-1,10,1,242,716
84,1532114472614,618614, RC,0,40.0434592604,-88.2344147,0,-107.9499483521,413.57415118089995,427.4304269401,-110.096140246,414.8763811281,0.18752071260000003,0.0,-110.07047196799999,414.67318504860003,0.5707212577,-23.2777955079,0.0,0.0,1500,1605,40.0471903333,-88.2331213333,0.0,0.0,0.0,0.0,0.0,0.0,0.0,0.0,0.0,0.0,0.0,0.0,0.0,0,0.0,0.21000003809999998,0.1329842806,0.24205712969999998,90.0,60.0,60.0,89.5087432861,118.856918335,119.1115570068,39.5279998779,15.7590532303,82.2200012207,2,-1,10,1,273,723
85,1532114472814,618814, RC,0,40.0434592604,-88.2344147,0,-107.9499483521,413.57415118089995,427.4304269401,-110.096140246,414.8763811281,0.1842098832,0.0,-110.07047196799999,414.67318504860003,0.5707212577,-23.2777955079,0.0,0.0,1500,1605,40.0471903333,-88.2331213333,0.0,0.0,0.0,0.0,0.0,0.0,0.0,0.0,0.0,0.0,0.0,0.0,0.0,0,0.0,0.21000003809999998,0.12948952619999998,0.2389302552,90.0,60.0,60.0,89.63606262209998,119.4935302734,118.4749450684,39.5279998779,15.7590532303,82.2200012207,2,-1,10,1,48,730
86,1532114473014,619014, RC,0,40.0434592604,-88.2344147,0,-107.8941276,413.7726166878,427.60837350459997,-109.7982031782,415.45088824879997,0.1917511821,0.0,-110.0146512159,414.8716505555,0.5834812544,-23.3565809202,0.0,0.0,1500,1605,40.0471955,-88.2331248333,0.0,0.0,0.0,0.0,0.0,0.0,0.0,0.0,0.0,0.0,0.0,0.0,0.0,0,0.0,0.21000003809999998,0.130225271,0.254380703,90.0,60.0,60.0,89.44507598879999,119.42987060549999,119.3025436401,39.5279998779,15.7590532303,82.2200012207,2,-1,10,1,28,737
87,1532114473215,619215, RC,0,40.0434592604,-88.2344147,0,-107.8941276,413.7726166878,427.60837350459997,-109.7982031782,415.45088824879997,0.137030825,0.0,-110.0146512159,414.8716505555,0.5834812544,-23.3565809202,0.0,0.0,1500,1500,40.0471955,-88.2331248333,0.0,0.0,0.0,0.0,0.0,0.0,0.0,0.0,0.0,0.0,0.0,0.0,0.0,0,0.0,0.0,0.0906794593,0.18338218329999997,90.0,60.0,60.0,89.82704925540001,119.3662033081,119.42987060549999,39.5279998779,15.7590532303,82.2200012207,2,-1,10,1,18,744
88,1532114473415,619415, RC,0,40.0434592604,-88.2344147,0,-107.8941276,413.7726166878,427.60837350459997,-109.7982031782,415.45088824879997,0.0528810248,0.0,-110.0146512159,414.8716505555,0.5834812544,-23.3565809202,0.0,0.0,1500,1500,40.0471955,-88.2331248333,0.0,0.0,0.0,0.0,0.0,0.0,0.0,0.0,0.0,0.0,0.0,0.0,0.0,0,0.0,0.0,0.0351313911,0.0706306547,90.0,60.0,60.0,90.145362854,118.856918335,120.00283050540001,39.5279998779,15.7590532303,82.2200012207,2,-1,10,1,15,751
89,1532114473616,619616, RC,0,40.0434592604,-88.2344147,0,-107.8941276,413.7726166878,427.60837350459997,-109.7982031782,415.45088824879997,0.0085529294,0.0,-110.0146512159,414.8716505555,0.5834812544,-23.3565809202,0.0,0.0,1607,1500,40.0471955,-88.2331248333,0.0,0.0,0.0,0.0,0.0,0.0,0.0,0.0,0.0,0.0,0.0,0.0,0.0,0,0.2153520584,0.0,0.0353153273,-0.0524211861,90.0,60.0,60.0,89.8907089233,118.9842300415,119.0479049683,39.5279998779,15.7617998123,0.8700000048000001,2,-1,10,1,17,758
90,1532114473816,619816, RC,0,40.0434592604,-88.2344147,0,-107.8941276,413.7726166878,427.60837350459997,-109.7982031782,415.45088824879997,9.196809999999999e-05,0.0,-110.0146512159,414.8716505555,0.5834812544,-23.3565809202,0.0,0.0,1500,1500,40.0471955,-88.2331248333,0.0,0.0,0.0,0.0,0.0,0.0,0.0,0.0,0.0,0.0,0.0,0.0,0.0,0,0.0,0.0,0.054260525899999995,-0.0544444621,90.0,60.0,60.0,89.5724029541,120.2574768066,118.7932434082,39.5279998779,15.7617998123,0.8700000048000001,2,-1,10,1,20,765
91,1532114474017,620017, RC,0,40.0434592604,-88.2344147,0,-107.74352894879999,413.9729189607,427.76424074849996,-109.2590846407,415.71034307839994,0.0001839334,0.0,-109.86405256469999,415.07195282839996,0.5861610286,-23.528976197600002,0.0,0.0,1500,1500,40.0471978333,-88.2331311667,0.0,0.0,0.0,0.0,0.0,0.0,0.0,0.0,0.0,0.0,0.0,0.0,0.0,0,0.0,0.0,0.0176576637,-0.0180255305,90.0,60.0,60.0,89.7633895874,119.5571899414,119.3662033081,38.9899978638,15.7617998123,0.8700000048000001,2,-1,10,1,15,772
92,1532114474218,620218, RC,0,40.0434592604,-88.2344147,0,-107.74352894879999,413.9729189607,427.76424074849996,-109.2590846407,415.71034307839994,9.19669e-05,0.0,-109.86405256469999,415.07195282839996,0.5861610286,-23.528976197600002,0.0,0.0,1500,1500,40.0471978333,-88.2331311667,0.0,0.0,0.0,0.0,0.0,0.0,0.0,0.0,0.0,0.0,0.0,0.0,0.0,0,0.0,0.0,0.0068055578000000005,-0.006989491600000001,90.0,60.0,60.0,89.6997299194,119.5571899414,119.3025436401,38.9899978638,15.7617998123,0.8700000048000001,2,-1,10,1,17,779
93,1532114474418,620418, RC,0,40.0434592604,-88.2344147,0,-107.74352894879999,413.9729189607,427.76424074849996,-109.2590846407,415.71034307839994,9.19669e-05,0.0,-109.86405256469999,415.07195282839996,0.5861610286,-23.528976197600002,0.0,0.0,1500,1500,40.0471978333,-88.2331311667,0.0,0.0,0.0,0.0,0.0,0.0,0.0,0.0,0.0,0.0,0.0,0.0,0.0,0,0.0,0.0,0.002575076,-0.0027590097999999996,90.0,60.0,60.0,89.6997299194,119.5571899414,119.3025436401,38.9899978638,15.7617998123,0.8700000048000001,2,-1,10,1,19,786
94,1532114474619,620619, RC,0,40.0434592604,-88.2344147,0,-107.74352894879999,413.9729189607,427.76424074849996,-109.2590846407,415.71034307839994,0.0,0.0,-109.86405256469999,415.07195282839996,0.5861610286,-23.528976197600002,0.0,0.0,1500,1500,40.0471978333,-88.2331311667,0.0,0.0,0.0,0.0,0.0,0.0,0.0,0.0,0.0,0.0,0.0,0.0,0.0,0,0.0,0.0,0.0009196699,-0.0009196699,90.0,60.0,60.0,89.6997299194,119.5571899414,119.2388916016,38.9899978638,15.7713298798,0.9200000167,2,-1,10,1,22,793
95,1532114474819,620819, RC,0,40.0434592604,-88.2344147,0,-107.65288970350001,414.1697237033,427.93189258800004,-109.2307078104,416.0253953708,0.0031268774,0.0,-109.7734133194,415.268757571,0.6045503312,-23.6215827733,0.0,0.0,1607,1500,40.0472006667,-88.2331315,0.0,0.0,0.0,0.0,0.0,0.0,0.0,0.0,0.0,0.0,0.0,0.0,0.0,0,0.2153520584,0.0,0.0196809378,-0.0259346925,90.0,60.0,60.0,89.3814163208,120.13014221190001,118.72959136959999,38.9899978638,15.7713298798,0.9200000167,2,-1,10,1,18,801
96,1532114475028,621028, RC,0,40.0434592604,-88.2344147,0,-107.65288970350001,414.1697237033,427.93189258800004,-109.2307078104,416.0253953708,0.0029429439000000003,0.0,-109.7734133194,415.268757571,0.6045503312,-23.6215827733,0.0,0.0,1607,1500,40.0472006667,-88.2331315,0.0,0.0,0.0,0.0,0.0,0.0,0.0,0.0,0.0,0.0,0.0,0.0,0.0,0,0.2153520584,0.0,0.058674942699999996,-0.0645608306,90.0,60.0,60.0,90.7819747925,119.62085723879999,119.42987060549999,38.9899978638,15.7713298798,0.9200000167,2,-1,10,1,23,808
97,1532114475228,621228, RC,0,40.0434592604,-88.2344147,0,-107.65288970350001,414.1697237033,427.93189258800004,-109.2307078104,416.0253953708,0.017289795,0.0,-109.7734133194,415.268757571,0.6045503312,-23.6215827733,0.0,0.0,1607,1500,40.0472006667,-88.2331315,0.0,0.0,0.0,0.0,0.0,0.0,0.0,0.0,0.0,0.0,0.0,0.0,0.0,0,0.2153520584,0.0,0.0605142824,-0.0259346925,90.0,60.0,60.0,90.145362854,119.81184387209998,119.1752166748,38.9899978638,15.7713298798,0.9200000167,2,-1,10,1,31,816
98,1532114475429,621429, RC,0,40.0434592604,-88.2344147,0,-107.65288970350001,414.1697237033,427.93189258800004,-109.2307078104,416.0253953708,0.0274061635,0.0,-109.7734133194,415.268757571,0.6045503312,-23.6215827733,0.0,0.0,1500,1500,40.0472006667,-88.2331315,0.0,0.0,0.0,0.0,0.0,0.0,0.0,0.0,0.0,0.0,0.0,0.0,0.0,0,0.0,0.0,0.0649286956,-0.0101163695,90.0,60.0,60.0,89.44507598879999,119.87550354,119.1752166748,38.9899978638,15.7713298798,0.9200000167,2,-1,10,1,28,823
99,1532114475630,621630, RC,0,40.0434592604,-88.2344147,0,-107.65288970350001,414.1697237033,427.93189258800004,-109.2307078104,416.0253953708,0.0146227526,0.0,-109.7734133194,415.268757571,0.6045503312,-23.6215827733,0.0,0.0,1500,1500,40.0472006667,-88.2331315,0.0,0.0,0.0,0.0,0.0,0.0,0.0,0.0,0.0,0.0,0.0,0.0,0.0,0,0.0,0.0,0.0220720787,0.007173426,90.0,60.0,60.0,89.44507598879999,119.4935302734,119.5571899414,38.9899978638,15.7776918411,1.1499999762,2,-1,10,1,30,830
100,1532114475830,621830, RC,0,40.0434592604,-88.2344147,0,-107.65288970350001,414.1697237033,427.93189258800004,-109.5428315892,415.5250182004,0.0067135906,0.0,-109.7734133194,415.268757571,0.6045503312,-23.6215827733,0.0,0.0,1500,1500,40.0471961667,-88.2331278333,0.0,0.0,0.0,0.0,0.0,0.0,0.0,0.0,0.0,0.0,0.0,0.0,0.0,0,0.0,0.0,0.0080930954,0.0053340858,90.0,60.0,60.0,89.3177566528,119.3662033081,119.6845169067,38.9899978638,15.7776918411,1.1499999762,2,-1,10,1,23,837
101,1532114476031,622031, RC,0,40.0434592604,-88.2344147,0,-107.616497451,414.2757290508,428.0253382735,-109.5428315892,415.5250182004,0.0029429439000000003,0.0,-109.7370210669,415.3747629185,0.5604141243999999,-23.6618883376,0.0,0.0,1500,1500,40.0471961667,-88.2331278333,0.0,0.0,0.0,0.0,0.0,0.0,0.0,0.0,0.0,0.0,0.0,0.0,0.0,0,0.0,0.0,0.0031268778000000004,0.0027590097999999996,90.0,60.0,60.0,89.3814163208,119.3025436401,119.6845169067,38.9899978638,15.7776918411,1.1499999762,2,-1,10,1,20,844
102,1532114476231,622231, RC,0,40.0434592604,-88.2344147,0,-107.616497451,414.2757290508,428.0253382735,-109.5428315892,415.5250182004,0.0011955709,0.0,-109.7370210669,415.3747629185,0.5604141243999999,-23.6618883376,0.0,0.0,1550,1500,40.0471961667,-88.2331278333,0.0,0.0,0.0,0.0,0.0,0.0,0.0,0.0,0.0,0.0,0.0,0.0,0.0,0,0.1007070541,0.0,0.001287538,0.001103604,90.0,60.0,60.0,89.3177566528,119.3025436401,119.6845169067,38.9899978638,15.7776918411,1.1499999762,2,-1,10,1,25,852
103,1532114476432,622432, RC,0,40.0434592604,-88.2344147,0,-107.616497451,414.2757290508,428.0253382735,-109.5428315892,415.5250182004,0.027957968399999998,0.0,-109.7370210669,415.3747629185,0.5604141243999999,-23.6618883376,0.0,0.0,1550,1500,40.0471961667,-88.2331278333,0.0,0.0,0.0,0.0,0.0,0.0,0.0,0.0,0.0,0.0,0.0,0.0,0.0,0,0.1007070541,0.0,0.0014714720000000001,-0.0573874079,90.0,60.0,60.0,89.82704925540001,119.81184387209998,119.1752166748,38.9899978638,15.7776918411,1.1499999762,2,-1,10,1,24,859
104,1532114476633,622633, RC,0,40.0434592604,-88.2344147,0,-107.616497451,414.2757290508,428.0253382735,-109.5428315892,415.5250182004,0.0519613512,0.0,-109.7370210669,415.3747629185,0.5604141243999999,-23.6618883376,0.0,0.0,1607,1500,40.0471961667,-88.2331278333,0.0,0.0,0.0,0.0,0.0,0.0,0.0,0.0,0.0,0.0,0.0,0.0,0.0,0,0.2153520584,0.0,0.000551802,-0.1044745073,90.0,60.0,60.0,89.9543762207,119.81184387209998,119.2388916016,38.9899978638,15.7728223801,81.3399963379,2,-1,10,1,28,866
105,1532114476833,622833, RC,0,40.0434592604,-88.2344147,0,-107.616497451,414.2757290508,428.0253382735,-109.5428315892,415.5250182004,0.0674118027,0.0,-109.7370210669,415.3747629185,0.5604141243999999,-23.6618883376,0.0,0.0,1607,1500,40.0471961667,-88.2331278333,0.0,0.0,0.0,0.0,0.0,0.0,0.0,0.0,0.0,0.0,0.0,0.0,0.0,0,0.2153520584,0.0,0.00018393400000000002,-0.13500754539999998,90.0,60.0,60.0,89.3814163208,118.9205703735,119.5571899414,38.9899978638,15.7728223801,81.3399963379,2,-1,10,1,28,873
106,1532114477034,623034, RC,0,40.0434592604,-88.2344147,0,-107.4649046014,414.4190255289,428.1259562807,-109.2448956245,415.9512654185,0.0753209665,0.0,-109.58542821729999,415.51805939660005,0.5530737051,-23.8390663966,0.0,0.0,1607,1500,40.0472,-88.2331313333,0.0,0.0,0.0,0.0,0.0,0.0,0.0,0.0,0.0,0.0,0.0,0.0,0.0,0,0.2153520584,0.0,0.0,-0.15064193310000001,90.0,60.0,60.0,89.7633895874,118.856918335,119.42987060549999,38.9899978638,15.7728223801,81.3399963379,2,-1,10,1,35,881
107,1532114477235,623235, RC,0,40.0434592604,-88.2344147,0,-107.4649046014,414.4190255289,428.1259562807,-109.2448956245,415.9512654185,0.06474476309999999,0.0,-109.58542821729999,415.51805939660005,0.5530737051,-23.8390663966,0.0,0.0,1607,1500,40.0472,-88.2331313333,0.0,0.0,0.0,0.0,0.0,0.0,0.0,0.0,0.0,0.0,0.0,0.0,0.0,0,0.2153520584,0.0,0.00018393400000000002,-0.1296734661,90.0,60.0,60.0,89.5724029541,118.9842300415,119.6845169067,38.9899978638,15.7728223801,81.3399963379,2,-1,10,1,49,888
108,1532114477435,623435, RC,0,40.0434592604,-88.2344147,0,-107.4649046014,414.4190255289,428.1259562807,-109.2448956245,415.9512654185,0.06033035,0.0,-109.58542821729999,415.51805939660005,0.5530737051,-23.8390663966,0.0,0.0,1607,1500,40.0472,-88.2331313333,0.0,0.0,0.0,0.0,0.0,0.0,0.0,0.0,0.0,0.0,0.0,0.0,0.0,0,0.2153520584,0.0,0.0014714720000000001,-0.12213217470000001,90.0,60.0,60.0,89.6997299194,118.9205703735,119.6845169067,38.9899978638,15.7728223801,81.3399963379,2,-1,10,1,41,895
109,1532114477636,623636, RC,0,40.0434592604,-88.2344147,0,-107.4649046014,414.4190255289,428.1259562807,-109.2448956245,415.9512654185,0.0619857535,0.0,-109.58542821729999,415.51805939660005,0.5530737051,-23.8390663966,0.0,0.0,1607,1500,40.0472,-88.2331313333,0.0,0.0,0.0,0.0,0.0,0.0,0.0,0.0,0.0,0.0,0.0,0.0,0.0,0,0.2153520584,0.0,0.000551802,-0.12452331189999999,90.0,60.0,60.0,89.8907089233,118.9205703735,119.7481765747,38.9899978638,15.7532930374,82.7599945068,2,-1,10,1,41,902
110,1532114477836,623836, RC,0,40.0434592604,-88.2344147,0,-107.4649046014,414.4190255289,428.1259562807,-108.9895220471,416.3033826871,0.058858878899999995,0.0,-109.58542821729999,415.51805939660005,0.5530737051,-23.8390663966,0.0,0.0,1500,1500,40.0472031667,-88.2331343333,0.0,0.0,0.0,0.0,0.0,0.0,0.0,0.0,0.0,0.0,0.0,0.0,0.0,0,0.0,0.0,0.00036786800000000004,-0.1180856228,90.0,60.0,60.0,89.8907089233,118.9205703735,119.2388916016,38.9899978638,15.7532930374,82.7599945068,2,-1,10,1,42,910
111,1532114478037,624037, RC,0,40.0434592604,-88.2344147,0,-107.37374735280001,414.5883237703,428.2669726085,-108.9895220471,416.3033826871,0.0224399455,0.0,-109.49427096870001,415.68735763800004,0.5664923976,-23.9018808562,0.0,0.0,1500,1500,40.0472031667,-88.2331343333,0.0,0.0,0.0,0.0,0.0,0.0,0.0,0.0,0.0,0.0,0.0,0.0,0.0,0,0.0,0.0,-0.0027590097999999996,-0.0421208814,90.0,60.0,60.0,89.5724029541,118.72959136959999,119.62085723879999,38.9899978638,15.7532930374,82.7599945068,2,-1,10,1,38,917
112,1532114478238,624238, RC,0,40.0434592604,-88.2344147,0,-107.37374735280001,414.5883237703,428.2669726085,-108.9895220471,416.3033826871,0.007081458299999999,0.0,-109.49427096870001,415.68735763800004,0.5664923976,-23.9018808562,0.0,0.0,1500,1500,40.0472031667,-88.2331343333,0.0,0.0,0.0,0.0,0.0,0.0,0.0,0.0,0.0,0.0,0.0,0.0,0.0,0,0.0,0.0,-0.001287538,-0.012875379099999999,90.0,60.0,60.0,89.5724029541,118.6022567749,119.6845169067,38.9899978638,15.7532930374,82.7599945068,2,-1,10,1,34,924
113,1532114478438,624438, RC,0,40.0434592604,-88.2344147,0,-107.37374735280001,414.5883237703,428.2669726085,-108.9895220471,416.3033826871,0.0025750757000000003,0.0,-109.49427096870001,415.68735763800004,0.5664923976,-23.9018808562,0.0,0.0,1500,1500,40.0472031667,-88.2331343333,0.0,0.0,0.0,0.0,0.0,0.0,0.0,0.0,0.0,0.0,0.0,0.0,0.0,0,0.0,0.0,-0.00036786800000000004,-0.0047822837,90.0,60.0,60.0,89.5724029541,118.6022567749,119.6845169067,38.9899978638,15.7532930374,82.7599945068,2,-1,10,1,38,930
114,1532114478639,624639, RC,0,40.0434592604,-88.2344147,0,-107.37374735280001,414.5883237703,428.2669726085,-108.9895220471,416.3033826871,0.0018393398,0.0,-109.49427096870001,415.68735763800004,0.5664923976,-23.9018808562,0.0,0.0,1500,1500,40.0472031667,-88.2331343333,0.0,0.0,0.0,0.0,0.0,0.0,0.0,0.0,0.0,0.0,0.0,0.0,0.0,0,0.0,0.0,-0.00036786800000000004,-0.0033108116999999997,90.0,60.0,60.0,89.63606262209998,118.6022567749,119.6845169067,38.9899978638,15.748277664200002,0.8700000048000001,2,-1,10,1,37,937
115,1532114478840,624840, RC,0,40.0434592604,-88.2344147,0,-107.37374735280001,414.5883237703,428.2669726085,-108.9895220471,416.3033826871,0.00036786800000000004,0.0,-109.49427096870001,415.68735763800004,0.5664923976,-23.9018808562,0.0,0.0,1500,1500,40.0472031667,-88.2331343333,0.0,0.0,0.0,0.0,0.0,0.0,0.0,0.0,0.0,0.0,0.0,0.0,0.0,0,0.0,0.0,0.0,-0.0007357360000000001,90.0,60.0,60.0,89.63606262209998,118.6022567749,119.6845169067,38.9899978638,15.748277664200002,0.8700000048000001,2,-1,10,1,38,944
116,1532114479040,625040, RC,0,40.0434592604,-88.2344147,0,-107.2121297411,414.7564019153,428.3892081897,-108.9469578099,416.636967467,0.000643769,0.0,-109.33265335700001,415.855435783,0.5696703376,-24.059650874000003,0.0,0.0,1500,1500,40.0472061667,-88.2331348333,0.0,0.0,0.0,0.0,0.0,0.0,0.0,0.0,0.0,0.0,0.0,0.0,0.0,0,0.0,0.0,0.0,0.001287538,90.0,60.0,60.0,89.63606262209998,118.6022567749,119.6845169067,38.9899978638,15.748277664200002,0.8700000048000001,2,-1,10,1,40,951
