,(0)linux time (ms),    (1)uptime  (ms),      (2)drive mode,(3)mpc step counter,(4)mpc origin latitude  (deg),(5)mpc origin longitude  (deg),(6)closest trajectory point index to robot,(7)mpc error x (W;E)  (m),(8)mpc error y (W;E)  (m),(9)abs mpc error (m),(10)input [x] for mhe (m),(11)input [y] for mhe (m),(12)input [speed] for mhe (m/s),(13)input [vyaw] for mhe (rad/s),(14)mhe output x  (m),(15)mhe output y  (m),(16)mhe output speed  (m/s),(17)mhe output yaw  (rad),(18)mpc reference heading (rad),(19)mpc turn rate command (rad/s),(20)turn rate command as PWM,(21)throttle command as PWM,(22)primary gps latitude (deg),(23)primary gps longitude (deg),(24)secondary gps latitude  (deg),(25)secondary gps longitude (deg),(26)accelerometer x (m/s^2),(27)accelerometer y (m/s^2),(28)accelerometer z (m/s^2),(29)gyro yaw rate (rad/s),(30)gyro pitch rate   (rad/s),(31)gyro roll rate (rad/s),      (32)yaw (rad),  (33)pitch   (rad),     (34)roll (rad),(35)sonar1 measurement (m),(36)ultrasonic sensor measurement (m),(37)primary gps time (s),(38)normalized turn rate command,(39)normalized throttle command,(40)speed calculation from encoder left (m/s),(41)speed calculation from encoder right (m/s),(42)front gimbal target angle (degrees from straight down),(43)left gimbal target angle  (degrees from straight down),(44)right gimbal target angle  (degrees from straight down),(45)front gimbal measured angle  (degrees from straight down),(46)left gimbal measured angle    (degrees from straight down),(47)right gimbal measured angle  (degrees from straight down),(48)internal temperature (C),(49)battery voltage (V),(50)primary gps type,(51)secondary gps type,    (52)MPC R value, (53)MPC Q[0] value,Unnamed: 54,weed_num,start
0,1532113334803,814803, RC,0,40.0434592604,-88.2344147,0,-105.4935184194,518.2384067316,528.8666454223,-107.07351806969999,518.417390322,0.0,0.0,-107.6140420353,519.3374405993,0.5065147588000001,-51.326018436700004,0.0,0.0,1500,1500,40.0481215,-88.2331568333,0.0,0.0,0.0,0.0,0.0,0.0,0.0,0.0,0.0,0.0,0.0,0.0,0.0,0,0.0,0.0,0.0,0.0,90.0,60.0,60.0,89.82704925540001,118.72959136959999,118.53860473629999,33.0719985962,15.482012748699999,0.150000006,2,-1,10,1,41,10
1,1532113335003,815003, RC,0,40.0434592604,-88.2344147,0,-105.4935184194,518.2384067316,528.8666454223,-107.07351806969999,518.417390322,0.0,0.0,-107.6140420353,519.3374405993,0.5065147588000001,-51.326018436700004,0.0,0.0,1500,1500,40.0481215,-88.2331568333,0.0,0.0,0.0,0.0,0.0,0.0,0.0,0.0,0.0,0.0,0.0,0.0,0.0,0,0.0,0.0,0.0,0.0,90.0,60.0,60.0,89.1904296875,118.72959136959999,118.53860473629999,33.0719985962,15.482012748699999,0.150000006,2,-1,10,1,43,19
2,1532113335204,815204, RC,0,40.0434592604,-88.2344147,0,-105.642391942,518.0139194441,528.6763998071,-107.584253946,518.8065725647,0.0,0.0,-107.76291555790002,519.1129533118,0.5180447287,-51.6733076233,0.0,0.0,1500,1500,40.048125,-88.2331508333,0.0,0.0,0.0,0.0,0.0,0.0,0.0,0.0,0.0,0.0,0.0,0.0,0.0,0,0.0,0.0,0.0,0.0,90.0,60.0,60.0,89.1904296875,118.6659317017,118.53860473629999,33.0719985962,15.482012748699999,0.150000006,2,-1,10,1,40,28
3,1532113335404,815404, AUTO,0,40.0434592604,-88.2344147,0,-105.642391942,518.0139194441,528.6763998071,-107.584253946,518.8065725647,0.0204166733,0.0,-107.76291555790002,519.1129533118,0.5180447287,-51.6733076233,0.0,0.0,1540,1750,40.048125,-88.2331508333,0.0,0.0,0.0,0.0,0.0,0.0,0.0,0.0,0.0,0.0,0.0,0.0,0.0,0,0.0800000429,0.5,0.012139643500000002,0.028693703900000003,90.0,60.0,60.0,89.1904296875,118.72959136959999,118.4749450684,33.0719985962,15.482012748699999,0.150000006,2,-1,10,1,38,37
4,1532113335604,815604, AUTO,0,40.0434592604,-88.2344147,0,-105.642391942,518.0139194441,528.6763998071,-107.584253946,518.8065725647,0.2261468321,0.0,-107.76291555790002,519.1129533118,0.5180447287,-51.6733076233,0.0,0.0,1260,1750,40.048125,-88.2331508333,0.0,0.0,0.0,0.0,0.0,0.0,0.0,0.0,0.0,0.0,0.0,0.0,0.0,0,-0.48000001909999995,0.5,0.1613101065,0.2909835577,90.0,60.0,60.0,89.6997299194,118.7932434082,119.3662033081,33.0719985962,15.442126274100001,21.3899993896,2,-1,10,1,29,46
5,1532113335805,815805, AUTO,0,40.0434592604,-88.2344147,0,-105.642391942,518.0139194441,528.6763998071,-107.584253946,518.8065725647,0.3732940257,0.0,-107.76291555790002,519.1129533118,0.5180447287,-51.6733076233,0.0,0.0,1570,1750,40.048125,-88.2331508333,0.0,0.0,0.0,0.0,0.0,0.0,0.0,0.0,0.0,0.0,0.0,0.0,0.0,0,0.1399999857,0.5,0.2475751489,0.49901291729999997,90.0,60.0,60.0,90.145362854,120.6394424438,117.0107192993,33.0719985962,15.442126274100001,21.3899993896,2,-1,10,1,289,56
6,1532113336005,816005, AUTO,0,40.0434592604,-88.2344147,0,-105.642391942,518.0139194441,528.6763998071,-107.584253946,518.8065725647,0.3759610653,0.0,-107.76291555790002,519.1129533118,0.5180447287,-51.6733076233,0.0,0.0,1710,1750,40.048125,-88.2331508333,0.0,0.0,0.0,0.0,0.0,0.0,0.0,0.0,0.0,0.0,0.0,0.0,0.0,0,0.4199999571,0.5,0.314895004,0.4370271564,90.0,60.0,60.0,89.3814163208,120.0664901733,119.3025436401,33.0719985962,15.442126274100001,21.3899993896,2,-1,10,1,338,65
7,1532113336206,816206, AUTO,0,40.0434592604,-88.2344147,0,-105.42015209870002,517.8471760812,528.4686426305001,-107.6693824479,518.0467405667,0.40033233170000004,0.0,-107.54067571459998,518.9462099489,0.5716423022,-51.4000128537,0.0,0.0,1440,1750,40.0481181667,-88.2331498333,0.0,0.0,0.0,0.0,0.0,0.0,0.0,0.0,0.0,0.0,0.0,0.0,0.0,0,-0.1200000048,0.5,0.376696825,0.42396783829999996,90.0,60.0,60.0,90.2726821899,118.7932434082,118.7932434082,34.1479988098,15.442126274100001,21.3899993896,2,-1,10,1,345,74
8,1532113336406,816406, AUTO,0,40.0434592604,-88.2344147,0,-105.42015209870002,517.8471760812,528.4686426305001,-107.6693824479,518.0467405667,0.418081969,0.0,-107.54067571459998,518.9462099489,0.5716423022,-51.4000128537,0.0,0.0,1470,1750,40.0481181667,-88.2331498333,0.0,0.0,0.0,0.0,0.0,0.0,0.0,0.0,0.0,0.0,0.0,0.0,0.0,0,-0.0600000024,0.5,0.2584272623,0.5777366757,90.0,60.0,60.0,87.5988845825,119.3025436401,118.0929718018,34.1479988098,15.442126274100001,21.3899993896,2,-1,10,1,299,83
9,1532113336606,816606, AUTO,0,40.0434592604,-88.2344147,0,-105.42015209870002,517.8471760812,528.4686426305001,-107.6693824479,518.0467405667,0.403275311,0.0,-107.54067571459998,518.9462099489,0.5716423022,-51.4000128537,0.0,0.0,1540,1750,40.0481181667,-88.2331498333,0.0,0.0,0.0,0.0,0.0,0.0,0.0,0.0,0.0,0.0,0.0,0.0,0.0,0,0.0800000429,0.5,0.2352515757,0.5712990165,90.0,60.0,60.0,90.4636688232,118.15663146969999,120.0664901733,34.1479988098,15.405954361,16.170000076300003,2,-1,10,1,293,93
10,1532113336807,816807, AUTO,0,40.0434592604,-88.2344147,0,-105.42015209870002,517.8471760812,528.4686426305001,-107.6693824479,518.0467405667,0.3696153462,0.0,-107.54067571459998,518.9462099489,0.5716423022,-51.4000128537,0.0,0.0,1390,1750,40.0481181667,-88.2331498333,0.0,0.0,0.0,0.0,0.0,0.0,0.0,0.0,0.0,0.0,0.0,0.0,0.0,0,-0.22000002859999998,0.5,0.19920051100000002,0.5400301814,90.0,60.0,60.0,88.74479675290002,121.1487426758,117.13804626459999,34.1479988098,15.405954361,16.170000076300003,2,-1,10,1,193,105
11,1532113337008,817008, AUTO,0,40.0434592604,-88.2344147,0,-105.42015209870002,517.8471760812,528.4686426305001,-107.6693824479,518.0467405667,0.43573960659999994,0.0,-107.54067571459998,518.9462099489,0.5716423022,-51.4000128537,0.0,0.0,1550,1750,40.0481181667,-88.2331498333,0.0,0.0,0.0,0.0,0.0,0.0,0.0,0.0,0.0,0.0,0.0,0.0,0.0,0,0.1000000238,0.5,0.1765766293,0.6949025989000001,90.0,60.0,60.0,89.8907089233,119.62085723879999,118.0293045044,34.1479988098,15.405954361,16.170000076300003,2,-1,10,1,165,115
12,1532113337208,817208, AUTO,0,40.0434592604,-88.2344147,0,-105.6305983676,517.4609855630999,528.1322702612999,-107.6410125527,517.4166359825,0.4405219257,0.0,-107.7511219835,518.5600194308,0.645395191,-51.7996620079,0.0,0.0,1400,1750,40.0481125,-88.2331501667,0.0,0.0,0.0,0.0,0.0,0.0,0.0,0.0,0.0,0.0,0.0,0.0,0.0,0,-0.1999999881,0.5,0.1870608777,0.6939829587999999,90.0,60.0,60.0,88.681137085,118.411277771,119.6845169067,34.1479988098,15.405954361,16.170000076300003,2,-1,10,1,151,125
13,1532113337409,817409, AUTO,0,40.0434592604,-88.2344147,0,-105.6305983676,517.4609855630999,528.1322702612999,-107.6410125527,517.4166359825,0.43730306630000004,0.0,-107.7511219835,518.5600194308,0.645395191,-51.7996620079,0.0,0.0,1400,1750,40.0481125,-88.2331501667,0.0,0.0,0.0,0.0,0.0,0.0,0.0,0.0,0.0,0.0,0.0,0.0,0.0,0,-0.1999999881,0.5,0.18485365809999998,0.6897524595000001,90.0,60.0,60.0,88.8721160889,120.51211547850001,117.96564483639999,34.1479988098,15.405954361,16.170000076300003,2,-1,10,1,96,135
14,1532113337610,817610, AUTO,0,40.0434592604,-88.2344147,0,-105.6305983676,517.4609855630999,528.1322702612999,-107.6410125527,517.4166359825,0.4157828093,0.0,-107.7511219835,518.5600194308,0.645395191,-51.7996620079,0.0,0.0,1360,1750,40.0481125,-88.2331501667,0.0,0.0,0.0,0.0,0.0,0.0,0.0,0.0,0.0,0.0,0.0,0.0,0.0,0,-0.2799999714,0.5,0.1686674654,0.6628981233,90.0,60.0,60.0,86.5166244507,121.7853622437,116.1831054688,34.1479988098,15.372085571300001,25.7400016785,2,-1,10,1,108,144
15,1532113337810,817810, AUTO,0,40.0434592604,-88.2344147,0,-105.6305983676,517.4609855630999,528.1322702612999,-107.6410125527,517.4166359825,0.46618071200000005,0.0,-107.7511219835,518.5600194308,0.645395191,-51.7996620079,0.0,0.0,1410,1750,40.0481125,-88.2331501667,0.0,0.0,0.0,0.0,0.0,0.0,0.0,0.0,0.0,0.0,0.0,0.0,0.0,0,-0.18000000719999998,0.5,0.1830143332,0.7493470906999999,90.0,60.0,60.0,89.3177566528,119.62085723879999,116.9470443726,34.1479988098,15.372085571300001,25.7400016785,2,-1,10,1,63,153
16,1532113338011,818011, AUTO,0,40.0434592604,-88.2344147,0,-105.6305983676,517.4609855630999,528.1322702612999,-107.6410125527,517.4166359825,0.433624357,0.0,-107.7511219835,518.5600194308,0.645395191,-51.7996620079,0.0,0.0,1420,1750,40.0481125,-88.2331501667,0.0,0.0,0.0,0.0,0.0,0.0,0.0,0.0,0.0,0.0,0.0,0.0,0.0,0,-0.16000002619999998,0.5,0.1765766293,0.6906720996,90.0,60.0,60.0,89.7633895874,120.19381713870001,117.7109985352,34.1479988098,15.372085571300001,25.7400016785,2,-1,10,1,113,163
17,1532113338212,818212, AUTO,0,40.0434592604,-88.2344147,0,-105.30013219840001,517.2196050866,527.8297431244999,-107.5984531,517.1201161780999,0.4199213088,0.0,-107.4206558143,518.3186389543,0.7173969648999999,-51.4038309113,0.0,0.0,1440,1750,40.048109833299996,-88.2331506667,0.0,0.0,0.0,0.0,0.0,0.0,0.0,0.0,0.0,0.0,0.0,0.0,0.0,0,-0.1200000048,0.5,0.2034309953,0.6364116073,90.0,60.0,60.0,88.74479675290002,118.9205703735,118.4749450684,34.1479988098,15.372085571300001,25.7400016785,2,-1,10,1,111,173
18,1532113338412,818412, AUTO,0,40.0434592604,-88.2344147,0,-105.30013219840001,517.2196050866,527.8297431244999,-107.5984531,517.1201161780999,0.4280143976,0.0,-107.4206558143,518.3186389543,0.7173969648999999,-51.4038309113,0.0,0.0,1390,1750,40.048109833299996,-88.2331506667,0.0,0.0,0.0,0.0,0.0,0.0,0.0,0.0,0.0,0.0,0.0,0.0,0.0,0,-0.22000002859999998,0.5,0.2004880458,0.6555407643,90.0,60.0,60.0,89.63606262209998,117.2017059326,121.976348877,34.1479988098,15.372085571300001,25.7400016785,2,-1,10,1,19,183
19,1532113338613,818613, AUTO,0,40.0434592604,-88.2344147,0,-105.30013219840001,517.2196050866,527.8297431244999,-107.5984531,517.1201161780999,0.46480119229999994,0.0,-107.4206558143,518.3186389543,0.7173969648999999,-51.4038309113,0.0,0.0,1320,1750,40.048109833299996,-88.2331506667,0.0,0.0,0.0,0.0,0.0,0.0,0.0,0.0,0.0,0.0,0.0,0.0,0.0,0,-0.3600000143,0.5,0.20103986559999998,0.7285625339,90.0,60.0,60.0,89.25408935549999,118.15663146969999,119.3662033081,34.1479988098,15.3484859467,7.0900001526,2,-1,10,1,84,193
20,1532113338813,818813, AUTO,0,40.0434592604,-88.2344147,0,-105.30013219840001,517.2196050866,527.8297431244999,-107.5984531,517.1201161780999,0.41017279030000003,0.0,-107.4206558143,518.3186389543,0.7173969648999999,-51.4038309113,0.0,0.0,1410,1750,40.048109833299996,-88.2331506667,0.0,0.0,0.0,0.0,0.0,0.0,0.0,0.0,0.0,0.0,0.0,0.0,0.0,0,-0.18000000719999998,0.5,0.185589388,0.6347562075,90.0,60.0,60.0,88.74479675290002,120.19381713870001,118.7932434082,34.1479988098,15.3484859467,7.0900001526,2,-1,10,1,45,203
21,1532113339014,819014, AUTO,0,40.0434592604,-88.2344147,0,-105.30013219840001,517.2196050866,527.8297431244999,-107.5984531,517.1201161780999,0.4112764001,0.0,-107.4206558143,518.3186389543,0.7173969648999999,-51.4038309113,0.0,0.0,1420,1750,40.048109833299996,-88.2331506667,0.0,0.0,0.0,0.0,0.0,0.0,0.0,0.0,0.0,0.0,0.0,0.0,0.0,0,-0.16000002619999998,0.5,0.2157545835,0.6067982316,90.0,60.0,60.0,88.93578338620001,116.43775939940001,121.91268920899999,34.1479988098,15.3484859467,7.0900001526,2,-1,10,1,112,215
22,1532113339215,819215, AUTO,0,40.0434592604,-88.2344147,0,-105.64479728110001,516.7804341784,527.4683311273001,-107.3998349958,516.7679989101999,0.42580717799999995,0.0,-107.76532089700001,517.8794680461,0.7881921409,-51.9250123443,0.0,0.0,1430,1750,40.0481066667,-88.233153,0.0,0.0,0.0,0.0,0.0,0.0,0.0,0.0,0.0,0.0,0.0,0.0,0.0,0,-0.1399999857,0.5,0.233228296,0.6183860898,90.0,60.0,60.0,89.9543762207,119.81184387209998,116.81973266600001,34.1479988098,15.3484859467,7.0900001526,2,-1,10,1,99,225
23,1532113339415,819415, AUTO,0,40.0434592604,-88.2344147,0,-105.64479728110001,516.7804341784,527.4683311273001,-107.3998349958,516.7679989101999,0.4340842068,0.0,-107.76532089700001,517.8794680461,0.7881921409,-51.9250123443,0.0,0.0,1460,1750,40.0481066667,-88.233153,0.0,0.0,0.0,0.0,0.0,0.0,0.0,0.0,0.0,0.0,0.0,0.0,0.0,0,-0.07999998330000001,0.5,0.2440804094,0.6240879893,90.0,60.0,60.0,89.25408935549999,119.3025436401,118.6022567749,34.1479988098,15.3484859467,7.0900001526,2,-1,10,1,173,234
24,1532113339616,819616, AUTO,0,40.0434592604,-88.2344147,0,-105.64479728110001,516.7804341784,527.4683311273001,-107.3998349958,516.7679989101999,0.4562482834,0.0,-107.76532089700001,517.8794680461,0.7881921409,-51.9250123443,0.0,0.0,1440,1750,40.0481066667,-88.233153,0.0,0.0,0.0,0.0,0.0,0.0,0.0,0.0,0.0,0.0,0.0,0.0,0.0,0,-0.1200000048,0.5,0.2698311508,0.6426653862,90.0,60.0,60.0,89.44507598879999,118.0929718018,119.4935302734,34.1479988098,15.315328597999999,8.0200004578,2,-1,10,1,155,243
25,1532113339817,819817, AUTO,0,40.0434592604,-88.2344147,0,-105.64479728110001,516.7804341784,527.4683311273001,-107.3998349958,516.7679989101999,0.43408423659999995,0.0,-107.76532089700001,517.8794680461,0.7881921409,-51.9250123443,0.0,0.0,1400,1750,40.0481066667,-88.233153,0.0,0.0,0.0,0.0,0.0,0.0,0.0,0.0,0.0,0.0,0.0,0.0,0.0,0,-0.1999999881,0.5,0.2622898817,0.6058785915,90.0,60.0,60.0,88.681137085,119.4935302734,118.9205703735,34.1479988098,15.315328597999999,8.0200004578,2,-1,10,1,97,252
26,1532113340017,820017, AUTO,0,40.0434592604,-88.2344147,0,-105.64479728110001,516.7804341784,527.4683311273001,-107.3998349958,516.7679989101999,0.4499945045,0.0,-107.76532089700001,517.8794680461,0.7881921409,-51.9250123443,0.0,0.0,1450,1750,40.0481066667,-88.233153,0.0,0.0,0.0,0.0,0.0,0.0,0.0,0.0,0.0,0.0,0.0,0.0,0.0,0,-0.1000000238,0.5,0.21317949890000001,0.6868094802,90.0,60.0,60.0,89.5087432861,118.9842300415,118.4749450684,34.1479988098,15.315328597999999,8.0200004578,2,-1,10,1,125,261
27,1532113340218,820218, AUTO,0,40.0434592604,-88.2344147,0,-105.0662152467,516.5407210058,527.1178483446,-107.25796405290001,516.6382714958,0.4271867275,0.0,-107.18673886260001,517.6397548735,0.8481099752,-51.3331818583,0.0,0.0,1470,1750,40.0481055,-88.2331546667,0.0,0.0,0.0,0.0,0.0,0.0,0.0,0.0,0.0,0.0,0.0,0.0,0.0,0,-0.0600000024,0.5,0.2700150907,0.5843583345000001,90.0,60.0,60.0,88.74479675290002,118.411277771,120.00283050540001,33.0719985962,15.315328597999999,8.0200004578,2,-1,10,1,96,274
28,1532113340419,820419, AUTO,0,40.0434592604,-88.2344147,0,-105.0662152467,516.5407210058,527.1178483446,-107.25796405290001,516.6382714958,0.44649973509999996,0.0,-107.18673886260001,517.6397548735,0.8481099752,-51.3331818583,0.0,0.0,1670,1750,40.0481055,-88.2331546667,0.0,0.0,0.0,0.0,0.0,0.0,0.0,0.0,0.0,0.0,0.0,0.0,0.0,0,0.3400000334,0.5,0.2317568213,0.6612426639,90.0,60.0,60.0,89.82704925540001,119.1115570068,118.411277771,33.0719985962,15.315328597999999,8.0200004578,2,-1,10,1,91,283
29,1532113340619,820619, AUTO,0,40.0434592604,-88.2344147,0,-105.0662152467,516.5407210058,527.1178483446,-107.25796405290001,516.6382714958,0.40722987060000004,0.0,-107.18673886260001,517.6397548735,0.8481099752,-51.3331818583,0.0,0.0,1410,1750,40.0481055,-88.2331546667,0.0,0.0,0.0,0.0,0.0,0.0,0.0,0.0,0.0,0.0,0.0,0.0,0.0,0,-0.18000000719999998,0.5,0.24702334399999998,0.5674363971,90.0,60.0,60.0,88.681137085,118.9842300415,119.3025436401,33.0719985962,15.282409668,28.8600006104,2,-1,10,1,123,292
30,1532113340820,820820, AUTO,0,40.0434592604,-88.2344147,0,-105.0662152467,516.5407210058,527.1178483446,-107.25796405290001,516.6382714958,0.43279668689999995,0.0,-107.18673886260001,517.6397548735,0.8481099752,-51.3331818583,0.0,0.0,1490,1750,40.0481055,-88.2331546667,0.0,0.0,0.0,0.0,0.0,0.0,0.0,0.0,0.0,0.0,0.0,0.0,0.0,0,-0.019999980900000002,0.5,0.26008266210000003,0.6055107117,90.0,60.0,60.0,90.145362854,119.0479049683,118.2839584351,33.0719985962,15.282409668,28.8600006104,2,-1,10,1,129,301
31,1532113341020,821020, AUTO,0,40.0434592604,-88.2344147,0,-105.0662152467,516.5407210058,527.1178483446,-107.25796405290001,516.6382714958,0.4532133639,0.0,-107.18673886260001,517.6397548735,0.8481099752,-51.3331818583,0.0,0.0,1470,1750,40.0481055,-88.2331546667,0.0,0.0,0.0,0.0,0.0,0.0,0.0,0.0,0.0,0.0,0.0,0.0,0.0,0,-0.0600000024,0.5,0.2764527798,0.629973948,90.0,60.0,60.0,90.7183227539,119.62085723879999,118.34761810299999,33.0719985962,15.282409668,28.8600006104,2,-1,10,1,116,310
32,1532113341221,821221, AUTO,0,40.0434592604,-88.2344147,0,-105.7034586808,515.9318751773001,526.6487643592,-107.45659267049999,515.5077897418,0.44677567479999997,0.0,-107.8239822967,517.030909045,0.9280669816,-52.1047542899,0.0,0.0,1410,1750,40.0480953333,-88.2331523333,0.0,0.0,0.0,0.0,0.0,0.0,0.0,0.0,0.0,0.0,0.0,0.0,0.0,0,-0.18000000719999998,0.5,0.2793957293,0.6141556501,90.0,60.0,60.0,89.25408935549999,118.0293045044,120.0664901733,33.6100006104,15.282409668,28.8600006104,2,-1,10,1,152,319
33,1532113341422,821422, AUTO,0,40.0434592604,-88.2344147,0,-105.7034586808,515.9318751773001,526.6487643592,-107.45659267049999,515.5077897418,0.473905921,0.0,-107.8239822967,517.030909045,0.9280669816,-52.1047542899,0.0,0.0,1410,1750,40.0480953333,-88.2331523333,0.0,0.0,0.0,0.0,0.0,0.0,0.0,0.0,0.0,0.0,0.0,0.0,0.0,0,-0.18000000719999998,0.5,0.22697454690000002,0.7208372951,90.0,60.0,60.0,88.6174697876,119.2388916016,118.9842300415,33.6100006104,15.282409668,28.8600006104,2,-1,10,1,115,330
34,1532113341622,821622, AUTO,0,40.0434592604,-88.2344147,0,-105.7034586808,515.9318751773001,526.6487643592,-107.45659267049999,515.5077897418,0.48972424859999997,0.0,-107.8239822967,517.030909045,0.9280669816,-52.1047542899,0.0,0.0,1220,1750,40.0480953333,-88.2331523333,0.0,0.0,0.0,0.0,0.0,0.0,0.0,0.0,0.0,0.0,0.0,0.0,0.0,0,-0.5600000024,0.5,0.21961718800000002,0.7598313093000001,90.0,60.0,60.0,90.2726821899,119.7481765747,118.411277771,33.6100006104,15.2475528717,21.4400005341,2,-1,10,1,70,341
35,1532113341823,821823, AUTO,0,40.0434592604,-88.2344147,0,-105.7034586808,515.9318751773001,526.6487643592,-107.45659267049999,515.5077897418,0.44558012490000004,0.0,-107.8239822967,517.030909045,0.9280669816,-52.1047542899,0.0,0.0,1400,1750,40.0480953333,-88.2331523333,0.0,0.0,0.0,0.0,0.0,0.0,0.0,0.0,0.0,0.0,0.0,0.0,0.0,0,-0.1999999881,0.5,0.2056382,0.6855220199,90.0,60.0,60.0,89.6997299194,120.00283050540001,118.53860473629999,33.6100006104,15.2475528717,21.4400005341,2,-1,10,1,5,350
36,1532113342024,822024, AUTO,0,40.0434592604,-88.2344147,0,-105.7034586808,515.9318751773001,526.6487643592,-107.45659267049999,515.5077897418,0.4362914264,0.0,-107.8239822967,517.030909045,0.9280669816,-52.1047542899,0.0,0.0,1420,1750,40.0480953333,-88.2331523333,0.0,0.0,0.0,0.0,0.0,0.0,0.0,0.0,0.0,0.0,0.0,0.0,0.0,0,-0.16000002619999998,0.5,0.2210886627,0.651494205,90.0,60.0,60.0,89.1904296875,119.0479049683,118.0293045044,33.6100006104,15.2475528717,21.4400005341,2,-1,10,1,93,360
37,1532113342224,822224, AUTO,0,40.0434592604,-88.2344147,0,-105.00294078040001,515.5568941265,526.1411679901,-108.06664594370001,514.914750133,0.4621341527,0.0,-107.1234643963,516.6559279941999,0.9992187884999999,-51.3469196171,0.0,0.0,1400,1750,40.04809,-88.2331451667,0.0,0.0,0.0,0.0,0.0,0.0,0.0,0.0,0.0,0.0,0.0,0.0,0.0,0,-0.1999999881,0.5,0.1955218315,0.7287464737999999,90.0,60.0,60.0,88.9994430542,120.7031021118,117.0743713379,33.0719985962,15.2475528717,21.4400005341,2,-1,10,1,114,369
38,1532113342425,822425, AUTO,0,40.0434592604,-88.2344147,0,-105.00294078040001,515.5568941265,526.1411679901,-108.06664594370001,514.914750133,0.4827347398,0.0,-107.1234643963,516.6559279941999,0.9992187884999999,-51.3469196171,0.0,0.0,1500,1750,40.04809,-88.2331451667,0.0,0.0,0.0,0.0,0.0,0.0,0.0,0.0,0.0,0.0,0.0,0.0,0.0,0,0.0,0.5,0.1936824918,0.7717869878,90.0,60.0,60.0,89.3177566528,119.7481765747,117.2653579712,33.0719985962,15.2475528717,21.4400005341,2,-1,10,1,29,379
39,1532113342626,822626, AUTO,0,40.0434592604,-88.2344147,0,-105.00294078040001,515.5568941265,526.1411679901,-108.06664594370001,514.914750133,0.43849861619999997,0.0,-107.1234643963,516.6559279941999,0.9992187884999999,-51.3469196171,0.0,0.0,1440,1750,40.04809,-88.2331451667,0.0,0.0,0.0,0.0,0.0,0.0,0.0,0.0,0.0,0.0,0.0,0.0,0.0,0,-0.1200000048,0.5,0.2198011279,0.6571961045,90.0,60.0,60.0,87.7898712158,118.0293045044,119.5571899414,33.0719985962,15.205981254600001,14.460000038099999,2,-1,10,1,54,389
40,1532113342826,822826, AUTO,0,40.0434592604,-88.2344147,0,-105.00294078040001,515.5568941265,526.1411679901,-108.06664594370001,514.914750133,0.4409817457,0.0,-107.1234643963,516.6559279941999,0.9992187884999999,-51.3469196171,0.0,0.0,1420,1750,40.04809,-88.2331451667,0.0,0.0,0.0,0.0,0.0,0.0,0.0,0.0,0.0,0.0,0.0,0.0,0.0,0,-0.16000002619999998,0.5,0.1944182366,0.6875452398999999,90.0,60.0,60.0,88.4264831543,119.1115570068,119.0479049683,33.0719985962,15.205981254600001,14.460000038099999,2,-1,10,1,136,399
41,1532113343026,823026, AUTO,0,40.0434592604,-88.2344147,0,-105.00294078040001,515.5568941265,526.1411679901,-108.06664594370001,514.914750133,0.4308653772,0.0,-107.1234643963,516.6559279941999,0.9992187884999999,-51.3469196171,0.0,0.0,1390,1750,40.04809,-88.2331451667,0.0,0.0,0.0,0.0,0.0,0.0,0.0,0.0,0.0,0.0,0.0,0.0,0.0,0,-0.22000002859999998,0.5,0.19423429670000003,0.6674964428,90.0,60.0,60.0,89.44507598879999,120.0664901733,117.8383178711,33.0719985962,15.205981254600001,14.460000038099999,2,-1,10,1,66,408
42,1532113343227,823227, AUTO,0,40.0434592604,-88.2344147,0,-105.9737478108,514.9209793292,525.712897101,-107.7261558118,514.5811653532,0.45532858369999996,0.0,-108.0942714267,516.0200131969,1.0609009583,-52.3188116131,0.0,0.0,1390,1750,40.048087,-88.2331491667,0.0,0.0,0.0,0.0,0.0,0.0,0.0,0.0,0.0,0.0,0.0,0.0,0.0,0,-0.22000002859999998,0.5,0.2177778482,0.6928793192,90.0,60.0,60.0,88.8084564209,116.9470443726,120.51211547850001,34.1479988098,15.205981254600001,14.460000038099999,2,-1,10,1,81,420
43,1532113343427,823427, AUTO,0,40.0434592604,-88.2344147,0,-105.9737478108,514.9209793292,525.712897101,-107.7261558118,514.5811653532,0.464985162,0.0,-108.0942714267,516.0200131969,1.0609009583,-52.3188116131,0.0,0.0,1430,1750,40.048087,-88.2331491667,0.0,0.0,0.0,0.0,0.0,0.0,0.0,0.0,0.0,0.0,0.0,0.0,0.0,0,-0.1399999857,0.5,0.18485365809999998,0.7451166511,90.0,60.0,60.0,88.681137085,120.0664901733,119.3662033081,34.1479988098,15.205981254600001,14.460000038099999,2,-1,10,1,158,430
44,1532113343628,823628, AUTO,0,40.0434592604,-88.2344147,0,-105.9737478108,514.9209793292,525.712897101,-107.7261558118,514.5811653532,0.4571679235,0.0,-108.0942714267,516.0200131969,1.0609009583,-52.3188116131,0.0,0.0,1430,1750,40.048087,-88.2331491667,0.0,0.0,0.0,0.0,0.0,0.0,0.0,0.0,0.0,0.0,0.0,0.0,0.0,0,-0.1399999857,0.5,0.17179434,0.7425414920000001,90.0,60.0,60.0,89.63606262209998,118.9842300415,119.62085723879999,34.1479988098,15.1588134766,11.9300003052,2,-1,10,1,3,440
45,1532113343828,823828, AUTO,0,40.0434592604,-88.2344147,0,-105.9737478108,514.9209793292,525.712897101,-107.7261558118,514.5811653532,0.4221284986,0.0,-108.0942714267,516.0200131969,1.0609009583,-52.3188116131,0.0,0.0,1410,1750,40.048087,-88.2331491667,0.0,0.0,0.0,0.0,0.0,0.0,0.0,0.0,0.0,0.0,0.0,0.0,0.0,0,-0.18000000719999998,0.5,0.1912913471,0.6529656649000001,90.0,60.0,60.0,88.93578338620001,120.57579040530001,117.2017059326,34.1479988098,15.1588134766,11.9300003052,2,-1,10,1,9,450
46,1532113344028,824028, AUTO,0,40.0434592604,-88.2344147,0,-105.9737478108,514.9209793292,525.712897101,-107.7261558118,514.5811653532,0.4338083267,0.0,-108.0942714267,516.0200131969,1.0609009583,-52.3188116131,0.0,0.0,1410,1750,40.048087,-88.2331491667,0.0,0.0,0.0,0.0,0.0,0.0,0.0,0.0,0.0,0.0,0.0,0.0,0.0,0,-0.18000000719999998,0.5,0.2028791904,0.6647374629999999,90.0,60.0,60.0,89.3814163208,120.00283050540001,117.77465820309999,34.1479988098,15.1588134766,11.9300003052,2,-1,10,1,8,460
47,1532113344229,824229, AUTO,0,40.0434592604,-88.2344147,0,-104.81223097370001,514.3580868969,524.9284192325,-107.5984754598,513.9695932563,0.41550689939999996,0.0,-106.9327545896,515.4571207646,1.1331770496,-51.1868533574,0.0,0.0,1440,1750,40.0480815,-88.2331506667,0.0,0.0,0.0,0.0,0.0,0.0,0.0,0.0,0.0,0.0,0.0,0.0,0.0,0,-0.1200000048,0.5,0.2302853614,0.6007284522,90.0,60.0,60.0,88.8084564209,118.0293045044,120.0664901733,34.1479988098,15.1588134766,11.9300003052,2,-1,10,1,95,470
48,1532113344429,824429, AUTO,0,40.0434592604,-88.2344147,0,-104.81223097370001,514.3580868969,524.9284192325,-107.5984754598,513.9695932563,0.43527978659999994,0.0,-106.9327545896,515.4571207646,1.1331770496,-51.1868533574,0.0,0.0,1420,1750,40.0480815,-88.2331506667,0.0,0.0,0.0,0.0,0.0,0.0,0.0,0.0,0.0,0.0,0.0,0.0,0.0,0,-0.16000002619999998,0.5,0.2198011279,0.6507584453,90.0,60.0,60.0,89.25408935549999,119.5571899414,118.6022567749,34.1479988098,15.1588134766,11.9300003052,2,-1,10,1,8,480
49,1532113344629,824629, AUTO,0,40.0434592604,-88.2344147,0,-104.81223097370001,514.3580868969,524.9284192325,-107.5984754598,513.9695932563,0.44769531490000003,0.0,-106.9327545896,515.4571207646,1.1331770496,-51.1868533574,0.0,0.0,1460,1750,40.0480815,-88.2331506667,0.0,0.0,0.0,0.0,0.0,0.0,0.0,0.0,0.0,0.0,0.0,0.0,0.0,0,-0.07999998330000001,0.5,0.21317949890000001,0.6822111606999999,90.0,60.0,60.0,89.12677001950001,119.0479049683,119.1115570068,34.1479988098,15.1193008423,22.1000003815,2,-1,10,1,12,490
50,1532113344830,824830, AUTO,0,40.0434592604,-88.2344147,0,-104.81223097370001,514.3580868969,524.9284192325,-107.5984754598,513.9695932563,0.47546935079999997,0.0,-106.9327545896,515.4571207646,1.1331770496,-51.1868533574,0.0,0.0,1370,1750,40.0480815,-88.2331506667,0.0,0.0,0.0,0.0,0.0,0.0,0.0,0.0,0.0,0.0,0.0,0.0,0.0,0,-0.2599999905,0.5,0.20821328460000002,0.7427254319,90.0,60.0,60.0,89.3814163208,119.42987060549999,118.72959136959999,34.1479988098,15.1193008423,22.1000003815,2,-1,10,1,15,500
51,1532113345030,825030, AUTO,0,40.0434592604,-88.2344147,0,-104.81223097370001,514.3580868969,524.9284192325,-107.5984754598,513.9695932563,0.47464165090000004,0.0,-106.9327545896,515.4571207646,1.1331770496,-51.1868533574,0.0,0.0,1400,1750,40.0480815,-88.2331506667,0.0,0.0,0.0,0.0,0.0,0.0,0.0,0.0,0.0,0.0,0.0,0.0,0.0,0,-0.1999999881,0.5,0.20619000489999997,0.7430933118,90.0,60.0,60.0,89.25408935549999,119.1115570068,120.32112884520001,34.1479988098,15.1193008423,22.1000003815,2,-1,10,1,100,510
52,1532113345231,825231, AUTO,0,40.0434592604,-88.2344147,0,-106.1912423561,513.5644815009,524.4283140835,-107.3572975848,513.3580211594999,0.4861375093,0.0,-108.311765972,514.6635153686,1.1451417755,-52.606692520100005,0.0,0.0,1380,1750,40.048076,-88.2331535,0.0,0.0,0.0,0.0,0.0,0.0,0.0,0.0,0.0,0.0,0.0,0.0,0.0,0,-0.2400000095,0.5,0.2039828002,0.7682922482,90.0,60.0,60.0,88.681137085,119.1752166748,118.2839584351,33.6100006104,15.1193008423,22.1000003815,2,-1,10,1,22,519
53,1532113345431,825431, AUTO,0,40.0434592604,-88.2344147,0,-106.1912423561,513.5644815009,524.4283140835,-107.3572975848,513.3580211594999,0.4950583577,0.0,-108.311765972,514.6635153686,1.1451417755,-52.606692520100005,0.0,0.0,1380,1750,40.048076,-88.2331535,0.0,0.0,0.0,0.0,0.0,0.0,0.0,0.0,0.0,0.0,0.0,0.0,0.0,0,-0.2400000095,0.5,0.18338218329999997,0.8067345023,90.0,60.0,60.0,89.63606262209998,118.856918335,118.9205703735,33.6100006104,15.1193008423,22.1000003815,2,-1,10,1,11,530
54,1532113345631,825631, AUTO,0,40.0434592604,-88.2344147,0,-106.1912423561,513.5644815009,524.4283140835,-107.3572975848,513.3580211594999,0.49873700740000004,0.0,-108.311765972,514.6635153686,1.1451417755,-52.606692520100005,0.0,0.0,1410,1750,40.048076,-88.2331535,0.0,0.0,0.0,0.0,0.0,0.0,0.0,0.0,0.0,0.0,0.0,0.0,0.0,0,-0.18000000719999998,0.5,0.1568956822,0.8405783176,90.0,60.0,60.0,89.44507598879999,121.2760620117,117.7109985352,33.6100006104,15.110868454,27.659999847399998,2,-1,10,1,79,540
55,1532113345832,825832, AUTO,0,40.0434592604,-88.2344147,0,-106.1912423561,513.5644815009,524.4283140835,-107.3572975848,513.3580211594999,0.47988379,0.0,-108.311765972,514.6635153686,1.1451417755,-52.606692520100005,0.0,0.0,1290,1750,40.048076,-88.2331535,0.0,0.0,0.0,0.0,0.0,0.0,0.0,0.0,0.0,0.0,0.0,0.0,0.0,0,-0.42000001670000003,0.5,0.17915169890000002,0.7806158662,90.0,60.0,60.0,88.4264831543,120.38480377200001,118.856918335,33.6100006104,15.110868454,27.659999847399998,2,-1,10,1,77,550
56,1532113346032,826032, AUTO,0,40.0434592604,-88.2344147,0,-106.1912423561,513.5644815009,524.4283140835,-107.3572975848,513.3580211594999,0.4182658792,0.0,-108.311765972,514.6635153686,1.1451417755,-52.606692520100005,0.0,0.0,1400,1750,40.048076,-88.2331535,0.0,0.0,0.0,0.0,0.0,0.0,0.0,0.0,0.0,0.0,0.0,0.0,0.0,0,-0.1999999881,0.5,0.1563438922,0.6801878809999999,90.0,60.0,60.0,88.2991638184,121.2760620117,116.6924057007,33.6100006104,15.110868454,27.659999847399998,2,-1,10,1,65,560
57,1532113346232,826232, AUTO,0,40.0434592604,-88.2344147,0,-104.6577738019,512.8162529795,523.3868157845,-107.6410437374,513.0244363797,0.4636056125,0.0,-106.7782974178,513.9152868472,1.0960021897,-50.9110081212,0.0,0.0,1400,1750,40.048073,-88.2331501667,0.0,0.0,0.0,0.0,0.0,0.0,0.0,0.0,0.0,0.0,0.0,0.0,0.0,0,-0.1999999881,0.5,0.1804392487,0.7467719912999999,90.0,60.0,60.0,90.145362854,118.2839584351,123.3132476807,34.1479988098,15.110868454,27.659999847399998,2,-1,10,1,67,570
58,1532113346433,826433, AUTO,0,40.0434592604,-88.2344147,0,-104.6577738019,512.8162529795,523.3868157845,-107.6410437374,513.0244363797,0.4512820542,0.0,-106.7782974178,513.9152868472,1.0960021897,-50.9110081212,0.0,0.0,1390,1750,40.048073,-88.2331501667,0.0,0.0,0.0,0.0,0.0,0.0,0.0,0.0,0.0,0.0,0.0,0.0,0.0,0,-0.22000002859999998,0.5,0.1756569594,0.7269071341,90.0,60.0,60.0,88.9994430542,120.38480377200001,118.0293045044,34.1479988098,15.110868454,27.659999847399998,2,-1,10,1,34,580
59,1532113346633,826633, AUTO,0,40.0434592604,-88.2344147,0,-104.6577738019,512.8162529795,523.3868157845,-107.6410437374,513.0244363797,0.4344520867,0.0,-106.7782974178,513.9152868472,1.0960021897,-50.9110081212,0.0,0.0,1390,1750,40.048073,-88.2331501667,0.0,0.0,0.0,0.0,0.0,0.0,0.0,0.0,0.0,0.0,0.0,0.0,0.0,0,-0.22000002859999998,0.5,0.1642530411,0.7046511173000001,90.0,60.0,60.0,88.1081771851,119.7481765747,119.4935302734,34.1479988098,15.0835666656,46.9599990845,2,-1,10,1,101,590
60,1532113346834,826834, AUTO,0,40.0434592604,-88.2344147,0,-104.6577738019,512.8162529795,523.3868157845,-107.6410437374,513.0244363797,0.38515779380000004,0.0,-106.7782974178,513.9152868472,1.0960021897,-50.9110081212,0.0,0.0,1470,1750,40.048073,-88.2331501667,0.0,0.0,0.0,0.0,0.0,0.0,0.0,0.0,0.0,0.0,0.0,0.0,0.0,0,-0.0600000024,0.5,0.1944182366,0.575897336,90.0,60.0,60.0,87.28057098389999,117.77465820309999,120.32112884520001,34.1479988098,15.0835666656,46.9599990845,2,-1,10,1,103,600
61,1532113347034,827034, AUTO,0,40.0434592604,-88.2344147,0,-104.6577738019,512.8162529795,523.3868157845,-107.6410437374,513.0244363797,0.3981251419,0.0,-106.7782974178,513.9152868472,1.0960021897,-50.9110081212,0.0,0.0,1410,1750,40.048073,-88.2331501667,0.0,0.0,0.0,0.0,0.0,0.0,0.0,0.0,0.0,0.0,0.0,0.0,0.0,0,-0.18000000719999998,0.5,0.1995683759,0.5966818929,90.0,60.0,60.0,89.3814163208,118.9842300415,118.2839584351,34.1479988098,15.0835666656,46.9599990845,2,-1,10,1,44,610
62,1532113347235,827235, AUTO,0,40.0434592604,-88.2344147,0,-106.15046051590001,512.1099960403,522.9957631876,-107.31473706780001,513.209761257,0.3901239932,0.0,-108.2709841318,513.209029908,0.9469946628,-52.9688924079,0.0,0.0,1410,1750,40.0480746667,-88.233154,0.0,0.0,0.0,0.0,0.0,0.0,0.0,0.0,0.0,0.0,0.0,0.0,0.0,0,-0.18000000719999998,0.5,0.1752890944,0.6049588919,90.0,60.0,60.0,88.36282348629999,118.2839584351,119.939163208,34.1479988098,15.0835666656,46.9599990845,2,-1,10,1,41,620
63,1532113347435,827435, AUTO,0,40.0434592604,-88.2344147,0,-106.15046051590001,512.1099960403,522.9957631876,-107.31473706780001,513.209761257,0.4007921815,0.0,-108.2709841318,513.209029908,0.9469946628,-52.9688924079,0.0,0.0,1410,1750,40.0480746667,-88.233154,0.0,0.0,0.0,0.0,0.0,0.0,0.0,0.0,0.0,0.0,0.0,0.0,0.0,0,-0.18000000719999998,0.5,0.185037598,0.6165467500999999,90.0,60.0,60.0,88.4901504517,118.0293045044,119.6845169067,34.1479988098,15.0835666656,46.9599990845,2,-1,10,1,41,630
64,1532113347636,827636, AUTO,0,40.0434592604,-88.2344147,0,-106.15046051590001,512.1099960403,522.9957631876,-107.31473706780001,513.209761257,0.432060957,0.0,-108.2709841318,513.209029908,0.9469946628,-52.9688924079,0.0,0.0,1410,1750,40.0480746667,-88.233154,0.0,0.0,0.0,0.0,0.0,0.0,0.0,0.0,0.0,0.0,0.0,0.0,0.0,0,-0.18000000719999998,0.5,0.19662544129999998,0.6674964428,90.0,60.0,60.0,89.0631027222,119.42987060549999,119.5571899414,34.1479988098,15.0267410278,38.4400024414,2,-1,10,1,29,640
65,1532113347836,827836, AUTO,0,40.0434592604,-88.2344147,0,-106.15046051590001,512.1099960403,522.9957631876,-107.31473706780001,513.209761257,0.453581214,0.0,-108.2709841318,513.209029908,0.9469946628,-52.9688924079,0.0,0.0,1410,1750,40.0480746667,-88.233154,0.0,0.0,0.0,0.0,0.0,0.0,0.0,0.0,0.0,0.0,0.0,0.0,0.0,0,-0.18000000719999998,0.5,0.20306313039999999,0.7040992975,90.0,60.0,60.0,89.0631027222,118.6659317017,119.1752166748,34.1479988098,15.0267410278,38.4400024414,2,-1,10,1,41,650
66,1532113348036,828036, AUTO,0,40.0434592604,-88.2344147,0,-106.15046051590001,512.1099960403,522.9957631876,-107.31473706780001,513.209761257,0.38019153479999995,0.0,-108.2709841318,513.209029908,0.9469946628,-52.9688924079,0.0,0.0,1410,1750,40.0480746667,-88.233154,0.0,0.0,0.0,0.0,0.0,0.0,0.0,0.0,0.0,0.0,0.0,0.0,0.0,0,-0.18000000719999998,0.5,0.2047185302,0.5556645393,90.0,60.0,60.0,89.0631027222,119.3025436401,118.53860473629999,34.1479988098,15.0267410278,38.4400024414,2,-1,10,1,53,660
67,1532113348237,828237, AUTO,0,40.0434592604,-88.2344147,0,-104.87903955440001,511.5032131,522.144759573,-106.9600549816,513.5433460368,0.3209648132,0.0,-106.99956317030001,512.6022469677,0.7064280761,-50.3529823879,0.0,0.0,1410,1750,40.0480776667,-88.2331581667,0.0,0.0,0.0,0.0,0.0,0.0,0.0,0.0,0.0,0.0,0.0,0.0,0.0,0,-0.18000000719999998,0.5,0.2067418098,0.43518781659999994,90.0,60.0,60.0,89.5724029541,116.9470443726,120.57579040530001,34.1479988098,15.0267410278,38.4400024414,2,-1,10,1,112,670
68,1532113348437,828437, AUTO,0,40.0434592604,-88.2344147,0,-104.87903955440001,511.5032131,522.144759573,-106.9600549816,513.5433460368,0.2958578169,0.0,-106.99956317030001,512.6022469677,0.7064280761,-50.3529823879,0.0,0.0,1410,1750,40.0480776667,-88.2331581667,0.0,0.0,0.0,0.0,0.0,0.0,0.0,0.0,0.0,0.0,0.0,0.0,0.0,0,-0.18000000719999998,0.5,0.21225982899999998,0.37945580479999996,90.0,60.0,60.0,88.93578338620001,116.5014190674,120.51211547850001,34.1479988098,15.0267410278,38.4400024414,2,-1,10,1,71,680
69,1532113348638,828638, AUTO,0,40.0434592604,-88.2344147,0,-104.87903955440001,511.5032131,522.144759573,-106.9600549816,513.5433460368,0.2032470703,0.0,-106.99956317030001,512.6022469677,0.7064280761,-50.3529823879,0.0,0.0,1410,1750,40.0480776667,-88.2331581667,0.0,0.0,0.0,0.0,0.0,0.0,0.0,0.0,0.0,0.0,0.0,0.0,0.0,0,-0.18000000719999998,0.5,0.20821328460000002,0.1982808411,90.0,60.0,60.0,89.3814163208,118.6659317017,120.2574768066,34.1479988098,15.0040969849,36.5099983215,2,-1,10,1,6,690
70,1532113348838,828838, AUTO,0,40.0434592604,-88.2344147,0,-104.87903955440001,511.5032131,522.144759573,-106.9600549816,513.5433460368,0.1414452344,0.0,-106.99956317030001,512.6022469677,0.7064280761,-50.3529823879,0.0,0.0,1410,1750,40.0480776667,-88.2331581667,0.0,0.0,0.0,0.0,0.0,0.0,0.0,0.0,0.0,0.0,0.0,0.0,0.0,0,-0.18000000719999998,0.5,0.2065578699,0.0763326064,90.0,60.0,60.0,88.681137085,119.42987060549999,119.5571899414,34.1479988098,15.0040969849,36.5099983215,2,-1,10,1,7,699
71,1532113349038,829038, AUTO,0,40.0434592604,-88.2344147,0,-104.87903955440001,511.5032131,522.144759573,-106.9600549816,513.5433460368,0.1182695553,0.0,-106.99956317030001,512.6022469677,0.7064280761,-50.3529823879,0.0,0.0,1410,1750,40.0480776667,-88.2331581667,0.0,0.0,0.0,0.0,0.0,0.0,0.0,0.0,0.0,0.0,0.0,0.0,0.0,0,-0.18000000719999998,0.5,0.2098686844,0.026670428,90.0,60.0,60.0,90.5909881592,122.3583145142,116.5014190674,34.1479988098,15.0040969849,36.5099983215,2,-1,10,1,22,709
72,1532113349239,829239, AUTO,0,40.0434592604,-88.2344147,0,-105.0975968191,511.01734564620006,521.7127872771,-107.0026178566,513.3580211594999,0.2796716094,0.0,-107.218120435,512.1163795139,0.3552728555,-53.98180518979999,0.0,0.0,1790,1750,40.048076,-88.2331576667,0.0,0.0,0.0,0.0,0.0,0.0,0.0,0.0,0.0,0.0,0.0,0.0,0.0,0,0.5800000429,0.5,0.1865090579,0.3728341758,90.0,60.0,60.0,96.8935317993,121.0850753784,118.53860473629999,34.1479988098,15.0040969849,36.5099983215,2,-1,10,1,119,719
73,1532113349439,829439, AUTO,0,40.0434592604,-88.2344147,0,-105.0975968191,511.01734564620006,521.7127872771,-107.0026178566,513.3580211594999,0.2323086262,0.0,-107.218120435,512.1163795139,0.3552728555,-53.98180518979999,0.0,0.0,1280,1750,40.048076,-88.2331576667,0.0,0.0,0.0,0.0,0.0,0.0,0.0,0.0,0.0,0.0,0.0,0.0,0.0,0,-0.43999999759999997,0.5,0.2385623902,0.226054877,90.0,60.0,60.0,85.6890182495,117.39268493649999,121.2760620117,34.1479988098,15.0040969849,36.5099983215,2,-1,10,1,110,729
74,1532113349639,829639, AUTO,0,40.0434592604,-88.2344147,0,-105.0975968191,511.01734564620006,521.7127872771,-107.0026178566,513.3580211594999,0.2673480511,0.0,-107.218120435,512.1163795139,0.3552728555,-53.98180518979999,0.0,0.0,1370,1750,40.048076,-88.2331576667,0.0,0.0,0.0,0.0,0.0,0.0,0.0,0.0,0.0,0.0,0.0,0.0,0.0,0,-0.2599999905,0.5,0.1475150585,0.3871810734,90.0,60.0,60.0,93.8377532959,121.6580352783,116.5014190674,34.1479988098,14.979391097999999,29.2000007629,2,-1,10,1,120,739
75,1532113349840,829840, AUTO,0,40.0434592604,-88.2344147,0,-105.0975968191,511.01734564620006,521.7127872771,-107.0026178566,513.3580211594999,0.37917989490000004,0.0,-107.218120435,512.1163795139,0.3552728555,-53.98180518979999,0.0,0.0,1500,1750,40.048076,-88.2331576667,0.0,0.0,0.0,0.0,0.0,0.0,0.0,0.0,0.0,0.0,0.0,0.0,0.0,0,0.0,0.5,0.1537688076,0.604591012,90.0,60.0,60.0,88.93578338620001,119.62085723879999,116.9470443726,34.1479988098,14.979391097999999,29.2000007629,2,-1,10,1,122,749
76,1532113350040,830040, AUTO,0,40.0434592604,-88.2344147,0,-105.0975968191,511.01734564620006,521.7127872771,-107.0026178566,513.3580211594999,0.36878764630000005,0.0,-107.218120435,512.1163795139,0.3552728555,-53.98180518979999,0.0,0.0,1530,1750,40.048076,-88.2331576667,0.0,0.0,0.0,0.0,0.0,0.0,0.0,0.0,0.0,0.0,0.0,0.0,0.0,0,0.059999942800000004,0.5,0.23801058530000002,0.49956470729999997,90.0,60.0,60.0,84.9887390137,116.6924057007,120.7031021118,34.1479988098,14.979391097999999,29.2000007629,2,-1,10,1,179,759
77,1532113350241,830241, AUTO,0,40.0434592604,-88.2344147,0,-106.5035582561,512.0652334906,523.0237196064,-107.1019264775,513.5989435011,0.3079054952,0.0,-108.624081872,513.1642673583,-0.0,-49.5795886781,0.0,0.0,1470,1750,40.0480781667,-88.2331565,0.0,0.0,0.0,0.0,0.0,0.0,0.0,0.0,0.0,0.0,0.0,0.0,0.0,0,-0.0600000024,0.5,0.1870608777,0.4287501276,90.0,60.0,60.0,89.82704925540001,119.1752166748,118.72959136959999,34.686000824000004,14.979391097999999,29.2000007629,2,-1,10,1,72,769
78,1532113350441,830441, AUTO,0,40.0434592604,-88.2344147,0,-106.5035582561,512.0652334906,523.0237196064,-107.1019264775,513.5989435011,0.3026633859,0.0,-108.624081872,513.1642673583,-0.0,-49.5795886781,0.0,0.0,1480,1750,40.0480781667,-88.2331565,0.0,0.0,0.0,0.0,0.0,0.0,0.0,0.0,0.0,0.0,0.0,0.0,0.0,0,-0.040000021499999996,0.5,0.1734497547,0.4318769872,90.0,60.0,60.0,87.5988845825,117.6473312378,120.8940887451,34.686000824000004,14.979391097999999,29.2000007629,2,-1,10,1,71,779
79,1532113350641,830641, AUTO,0,40.0434592604,-88.2344147,0,-106.5035582561,512.0652334906,523.0237196064,-107.1019264775,513.5989435011,0.36179816719999996,0.0,-108.624081872,513.1642673583,-0.0,-49.5795886781,0.0,0.0,1870,1750,40.0480781667,-88.2331565,0.0,0.0,0.0,0.0,0.0,0.0,0.0,0.0,0.0,0.0,0.0,0.0,0.0,0,0.7400000095,0.5,0.23561944070000002,0.4879768789,90.0,60.0,60.0,88.55381011959999,118.4749450684,120.6394424438,34.686000824000004,14.9677448273,22.270000457800002,2,-1,10,1,84,789
80,1532113350842,830842, AUTO,0,40.0434592604,-88.2344147,0,-106.5035582561,512.0652334906,523.0237196064,-107.1019264775,513.5989435011,0.2994445264,0.0,-108.624081872,513.1642673583,-0.0,-49.5795886781,0.0,0.0,1600,1750,40.0480781667,-88.2331565,0.0,0.0,0.0,0.0,0.0,0.0,0.0,0.0,0.0,0.0,0.0,0.0,0.0,0,0.2000000477,0.5,0.1938664168,0.405022651,90.0,60.0,60.0,87.2169113159,115.80113220209999,123.504234314,34.686000824000004,14.9677448273,22.270000457800002,2,-1,10,1,27,799
81,1532113351042,831042, AUTO,0,40.0434592604,-88.2344147,0,-106.5035582561,512.0652334906,523.0237196064,-107.1019264775,513.5989435011,0.375593245,0.0,-108.624081872,513.1642673583,-0.0,-49.5795886781,0.0,0.0,1530,1750,40.0480781667,-88.2331565,0.0,0.0,0.0,0.0,0.0,0.0,0.0,0.0,0.0,0.0,0.0,0.0,0.0,0,0.059999942800000004,0.5,0.2689115107,0.4822749496,90.0,60.0,60.0,88.1081771851,121.2760620117,117.3290328979,34.686000824000004,14.9677448273,22.270000457800002,2,-1,10,1,22,809
82,1532113351242,831242, AUTO,0,40.0434592604,-88.2344147,0,-105.1352067395,513.9512124656,524.5943771058,-106.5769985332,513.8769308166001,0.41596671939999996,0.0,-107.2557303554,515.0502463333,0.14695038789999998,-49.5782857354,0.0,0.0,1330,1750,40.0480806667,-88.2331626667,0.0,0.0,0.0,0.0,0.0,0.0,0.0,0.0,0.0,0.0,0.0,0.0,0.0,0,-0.3399999738,0.5,0.28601735829999997,0.5459160805,90.0,60.0,60.0,90.20902252200001,118.9842300415,119.6845169067,34.686000824000004,14.9677448273,22.270000457800002,2,-1,10,1,197,819
83,1532113351443,831443, AUTO,0,40.0434592604,-88.2344147,0,-105.1352067395,513.9512124656,524.5943771058,-106.5769985332,513.8769308166001,0.3948142827,0.0,-107.2557303554,515.0502463333,0.14695038789999998,-49.5782857354,0.0,0.0,1460,1750,40.0480806667,-88.2331626667,0.0,0.0,0.0,0.0,0.0,0.0,0.0,0.0,0.0,0.0,0.0,0.0,0.0,0,-0.07999998330000001,0.5,0.27774029969999997,0.5118882656,90.0,60.0,60.0,90.01803588870001,119.2388916016,119.4935302734,34.686000824000004,14.9677448273,22.270000457800002,2,-1,10,1,182,829
84,1532113351643,831643, AUTO,0,40.0434592604,-88.2344147,0,-105.1352067395,513.9512124656,524.5943771058,-106.5769985332,513.8769308166001,0.42194458840000004,0.0,-107.2557303554,515.0502463333,0.14695038789999998,-49.5782857354,0.0,0.0,1490,1750,40.0480806667,-88.2331626667,0.0,0.0,0.0,0.0,0.0,0.0,0.0,0.0,0.0,0.0,0.0,0.0,0.0,0,-0.019999980900000002,0.5,0.28233867879999996,0.561550498,90.0,60.0,60.0,90.145362854,119.1752166748,119.4935302734,34.686000824000004,14.957758903499998,21.5,2,-1,10,1,280,839
85,1532113351844,831844, AUTO,0,40.0434592604,-88.2344147,0,-105.1352067395,513.9512124656,524.5943771058,-106.5769985332,513.8769308166001,0.4640654325,0.0,-107.2557303554,515.0502463333,0.14695038789999998,-49.5782857354,0.0,0.0,1440,1750,40.0480806667,-88.2331626667,0.0,0.0,0.0,0.0,0.0,0.0,0.0,0.0,0.0,0.0,0.0,0.0,0.0,0,-0.1200000048,0.5,0.3031232059,0.625007689,90.0,60.0,60.0,88.36282348629999,117.0743713379,120.0664901733,34.686000824000004,14.957758903499998,21.5,2,-1,10,1,101,849
86,1532113352044,832044, AUTO,0,40.0434592604,-88.2344147,0,-105.1352067395,513.9512124656,524.5943771058,-106.5769985332,513.8769308166001,0.4957020879,0.0,-107.2557303554,515.0502463333,0.14695038789999998,-49.5782857354,0.0,0.0,1420,1750,40.0480806667,-88.2331626667,0.0,0.0,0.0,0.0,0.0,0.0,0.0,0.0,0.0,0.0,0.0,0.0,0.0,0,-0.16000002619999998,0.5,0.29135143760000004,0.7000527381999999,90.0,60.0,60.0,89.6997299194,120.13014221190001,117.6473312378,34.686000824000004,14.957758903499998,21.5,2,-1,10,1,37,859
87,1532113352245,832245, AUTO,0,40.0434592604,-88.2344147,0,-104.84058479950001,513.4494048007,524.0437381662999,-106.32163095940001,513.6174759891001,0.4682039618,0.0,-106.9611084154,514.5484386684,0.2137464841,-51.2478505312,0.0,0.0,1350,1750,40.0480783333,-88.2331656667,0.0,0.0,0.0,0.0,0.0,0.0,0.0,0.0,0.0,0.0,0.0,0.0,0.0,0,-0.30000001190000003,0.5,0.2392981201,0.6971098185,90.0,60.0,60.0,88.8084564209,119.3662033081,118.53860473629999,34.1479988098,14.957758903499998,21.5,2,-1,10,1,28,869
88,1532113352454,832454, AUTO,0,40.0434592604,-88.2344147,0,-104.84058479950001,513.4494048007,524.0437381662999,-106.32163095940001,513.6174759891001,0.46710035200000005,0.0,-106.9611084154,514.5484386684,0.2137464841,-51.2478505312,0.0,0.0,1410,1750,40.0480783333,-88.2331656667,0.0,0.0,0.0,0.0,0.0,0.0,0.0,0.0,0.0,0.0,0.0,0.0,0.0,0,-0.18000000719999998,0.5,0.19736117120000002,0.7368395329,90.0,60.0,60.0,89.1904296875,121.2124023438,116.81973266600001,34.1479988098,14.957758903499998,21.5,2,-1,10,1,9,879
89,1532113352654,832654, AUTO,0,40.0434592604,-88.2344147,0,-104.84058479950001,513.4494048007,524.0437381662999,-106.32163095940001,513.6174759891001,0.5042550564,0.0,-106.9611084154,514.5484386684,0.2137464841,-51.2478505312,0.0,0.0,1410,1750,40.0480783333,-88.2331656667,0.0,0.0,0.0,0.0,0.0,0.0,0.0,0.0,0.0,0.0,0.0,0.0,0.0,0,-0.18000000719999998,0.5,0.21299555899999997,0.7955145240000001,90.0,60.0,60.0,89.5087432861,118.4749450684,119.3662033081,34.1479988098,14.9505205154,25.510000228899997,2,-1,10,1,110,889
90,1532113352855,832855, AUTO,0,40.0434592604,-88.2344147,0,-104.84058479950001,513.4494048007,524.0437381662999,-106.32163095940001,513.6174759891001,0.5088534355,0.0,-106.9611084154,514.5484386684,0.2137464841,-51.2478505312,0.0,0.0,1420,1750,40.0480783333,-88.2331656667,0.0,0.0,0.0,0.0,0.0,0.0,0.0,0.0,0.0,0.0,0.0,0.0,0.0,0,-0.16000002619999998,0.5,0.21060442920000003,0.8071023822,90.0,60.0,60.0,89.7633895874,119.3662033081,117.2653579712,34.1479988098,14.9505205154,25.510000228899997,2,-1,10,1,52,899
91,1532113353055,833055, AUTO,0,40.0434592604,-88.2344147,0,-104.84058479950001,513.4494048007,524.0437381662999,-106.32163095940001,513.6174759891001,0.4007921815,0.0,-106.9611084154,514.5484386684,0.2137464841,-51.2478505312,0.0,0.0,1370,1750,40.0480783333,-88.2331656667,0.0,0.0,0.0,0.0,0.0,0.0,0.0,0.0,0.0,0.0,0.0,0.0,0.0,0,-0.2599999905,0.5,0.2091329545,0.5924513936,90.0,60.0,60.0,88.8084564209,118.6659317017,117.6473312378,34.1479988098,14.9505205154,25.510000228899997,2,-1,10,1,103,909
92,1532113353256,833256, AUTO,0,40.0434592604,-88.2344147,0,-104.9003046582,512.7457223255001,523.3662672359,-105.9669586207,512.5611241854,0.41008082030000004,0.0,-107.0208282741,513.8447561931999,0.703183562,-51.86236422060001,0.0,0.0,1490,1750,40.0480688333,-88.2331698333,0.0,0.0,0.0,0.0,0.0,0.0,0.0,0.0,0.0,0.0,0.0,0.0,0.0,0,-0.019999980900000002,0.5,0.2004880458,0.6196736097,90.0,60.0,60.0,88.74479675290002,119.1115570068,119.4935302734,34.1479988098,14.9505205154,25.510000228899997,2,-1,10,1,83,919
93,1532113353457,833457, AUTO,0,40.0434592604,-88.2344147,0,-104.9003046582,512.7457223255001,523.3662672359,-105.9669586207,512.5611241854,0.41532295939999997,0.0,-107.0208282741,513.8447561931999,0.703183562,-51.86236422060001,0.0,0.0,1430,1750,40.0480688333,-88.2331698333,0.0,0.0,0.0,0.0,0.0,0.0,0.0,0.0,0.0,0.0,0.0,0.0,0.0,0,-0.1399999857,0.5,0.2516216934,0.5790241957,90.0,60.0,60.0,89.3814163208,119.2388916016,118.856918335,34.1479988098,14.9505205154,25.510000228899997,2,-1,10,1,82,929
94,1532113353657,833657, AUTO,0,40.0434592604,-88.2344147,0,-104.9003046582,512.7457223255001,523.3662672359,-105.9669586207,512.5611241854,0.4126559198,0.0,-107.0208282741,513.8447561931999,0.703183562,-51.86236422060001,0.0,0.0,1410,1750,40.0480688333,-88.2331698333,0.0,0.0,0.0,0.0,0.0,0.0,0.0,0.0,0.0,0.0,0.0,0.0,0.0,0,-0.18000000719999998,0.5,0.2547485828,0.5705632567,90.0,60.0,60.0,89.82704925540001,120.13014221190001,117.7109985352,34.1479988098,14.9573879242,19.3999996185,2,-1,10,1,87,939
95,1532113353858,833858, AUTO,0,40.0434592604,-88.2344147,0,-104.9003046582,512.7457223255001,523.3662672359,-105.9669586207,512.5611241854,0.4129318297,0.0,-107.0208282741,513.8447561931999,0.703183562,-51.86236422060001,0.0,0.0,1480,1750,40.0480688333,-88.2331698333,0.0,0.0,0.0,0.0,0.0,0.0,0.0,0.0,0.0,0.0,0.0,0.0,0.0,0,-0.040000021499999996,0.5,0.232676506,0.5931871532999999,90.0,60.0,60.0,88.681137085,118.9205703735,119.939163208,34.1479988098,14.9573879242,19.3999996185,2,-1,10,1,56,949
96,1532113354059,834059, AUTO,0,40.0434592604,-88.2344147,0,-104.9003046582,512.7457223255001,523.3662672359,-105.9669586207,512.5611241854,0.43233686689999995,0.0,-107.0208282741,513.8447561931999,0.703183562,-51.86236422060001,0.0,0.0,1440,1750,40.0480688333,-88.2331698333,0.0,0.0,0.0,0.0,0.0,0.0,0.0,0.0,0.0,0.0,0.0,0.0,0.0,0,-0.1200000048,0.5,0.2606344819,0.6040392518,90.0,60.0,60.0,88.93578338620001,118.34761810299999,119.7481765747,34.1479988098,14.9573879242,19.3999996185,2,-1,10,1,71,959
97,1532113354259,834259, AUTO,0,40.0434592604,-88.2344147,0,-104.3188024483,511.7044862007,522.2297327251,-106.9175055682,511.81982467480003,0.43077337740000005,0.0,-106.4393260642,512.8035200684,0.9410888019,-51.047406790699995,0.0,0.0,1460,1750,40.0480621667,-88.2331586667,0.0,0.0,0.0,0.0,0.0,0.0,0.0,0.0,0.0,0.0,0.0,0.0,0.0,0,-0.07999998330000001,0.5,0.2554843128,0.6060624719,90.0,60.0,60.0,89.3177566528,118.9842300415,119.3662033081,34.1479988098,14.9573879242,19.3999996185,2,-1,10,1,43,969
98,1532113354460,834460, AUTO,0,40.0434592604,-88.2344147,0,-104.3188024483,511.7044862007,522.2297327251,-106.9175055682,511.81982467480003,0.4640654624,0.0,-106.4393260642,512.8035200684,0.9410888019,-51.047406790699995,0.0,0.0,1350,1750,40.0480621667,-88.2331586667,0.0,0.0,0.0,0.0,0.0,0.0,0.0,0.0,0.0,0.0,0.0,0.0,0.0,0,-0.30000001190000003,0.5,0.2564039826,0.6717269421,90.0,60.0,60.0,89.6997299194,119.2388916016,119.3662033081,34.1479988098,14.9573879242,19.3999996185,2,-1,10,1,33,979
99,1532113354661,834661, AUTO,0,40.0434592604,-88.2344147,0,-104.3188024483,511.7044862007,522.2297327251,-106.9175055682,511.81982467480003,0.42792242770000005,0.0,-106.4393260642,512.8035200684,0.9410888019,-51.047406790699995,0.0,0.0,1390,1750,40.0480621667,-88.2331586667,0.0,0.0,0.0,0.0,0.0,0.0,0.0,0.0,0.0,0.0,0.0,0.0,0.0,0,-0.22000002859999998,0.5,0.1953378916,0.6605069637,90.0,60.0,60.0,89.63606262209998,118.9842300415,120.51211547850001,34.1479988098,14.9523162842,21.8199996948,2,-1,10,1,28,989
100,1532113354861,834861, AUTO,0,40.0434592604,-88.2344147,0,-104.3188024483,511.7044862007,522.2297327251,-106.9175055682,511.81982467480003,0.4645252824,0.0,-106.4393260642,512.8035200684,0.9410888019,-51.047406790699995,0.0,0.0,1450,1750,40.0480621667,-88.2331586667,0.0,0.0,0.0,0.0,0.0,0.0,0.0,0.0,0.0,0.0,0.0,0.0,0.0,0,-0.1000000238,0.5,0.20379886030000002,0.7252517343000001,90.0,60.0,60.0,89.3814163208,119.6845169067,119.81184387209998,34.1479988098,14.9523162842,21.8199996948,2,-1,10,1,52,999
101,1532113355062,835062, AUTO,0,40.0434592604,-88.2344147,0,-104.3188024483,511.7044862007,522.2297327251,-106.9175055682,511.81982467480003,0.4496266246,0.0,-106.4393260642,512.8035200684,0.9410888019,-51.047406790699995,0.0,0.0,1410,1750,40.0480621667,-88.2331586667,0.0,0.0,0.0,0.0,0.0,0.0,0.0,0.0,0.0,0.0,0.0,0.0,0.0,0,-0.18000000719999998,0.5,0.2118919492,0.6873613,90.0,60.0,60.0,89.8907089233,119.1115570068,118.856918335,34.1479988098,14.9523162842,21.8199996948,2,-1,10,1,64,1009
102,1532113355262,835262, AUTO,0,40.0434592604,-88.2344147,0,-104.8537148232,511.153794526,521.7973775045,-107.15869095299999,511.3750449679,0.4743657708,0.0,-106.97423843909999,512.2528283937,0.8842790162,-51.7906683471,0.0,0.0,1410,1750,40.0480581667,-88.2331558333,0.0,0.0,0.0,0.0,0.0,0.0,0.0,0.0,0.0,0.0,0.0,0.0,0.0,0,-0.18000000719999998,0.5,0.2041667402,0.7445648313,90.0,60.0,60.0,87.7898712158,120.00283050540001,118.0929718018,33.0719985962,14.9523162842,21.8199996948,2,-1,10,1,44,1018
103,1532113355463,835463, AUTO,0,40.0434592604,-88.2344147,0,-104.8537148232,511.153794526,521.7973775045,-107.15869095299999,511.3750449679,0.4687557518,0.0,-106.97423843909999,512.2528283937,0.8842790162,-51.7906683471,0.0,0.0,1470,1750,40.0480581667,-88.2331558333,0.0,0.0,0.0,0.0,0.0,0.0,0.0,0.0,0.0,0.0,0.0,0.0,0.0,0,-0.0600000024,0.5,0.2003041059,0.7372074127,90.0,60.0,60.0,87.1532516479,120.7031021118,116.7560577393,33.0719985962,14.9523162842,21.8199996948,2,-1,10,1,53,1028
104,1532113355664,835664, AUTO,0,40.0434592604,-88.2344147,0,-104.8537148232,511.153794526,521.7973775045,-107.15869095299999,511.3750449679,0.4562482536,0.0,-106.97423843909999,512.2528283937,0.8842790162,-51.7906683471,0.0,0.0,1340,1750,40.0480581667,-88.2331558333,0.0,0.0,0.0,0.0,0.0,0.0,0.0,0.0,0.0,0.0,0.0,0.0,0.0,0,-0.3199999928,0.5,0.2354355007,0.6770610212999999,90.0,60.0,60.0,89.44507598879999,117.8383178711,118.9842300415,33.0719985962,14.9594020844,16.0,2,-1,10,1,82,1036
105,1532113355864,835864, AUTO,0,40.0434592604,-88.2344147,0,-104.8537148232,511.153794526,521.7973775045,-107.15869095299999,511.3750449679,0.4925752282,0.0,-106.97423843909999,512.2528283937,0.8842790162,-51.7906683471,0.0,0.0,1390,1750,40.0480581667,-88.2331558333,0.0,0.0,0.0,0.0,0.0,0.0,0.0,0.0,0.0,0.0,0.0,0.0,0.0,0,-0.22000002859999998,0.5,0.18779660760000003,0.7973538637,90.0,60.0,60.0,89.7633895874,119.1752166748,119.7481765747,33.0719985962,14.9594020844,16.0,2,-1,10,1,78,1044
106,1532113356065,836065, AUTO,0,40.0434592604,-88.2344147,0,-104.8537148232,511.153794526,521.7973775045,-107.15869095299999,511.3750449679,0.474917531,0.0,-106.97423843909999,512.2528283937,0.8842790162,-51.7906683471,0.0,0.0,1390,1750,40.0480581667,-88.2331558333,0.0,0.0,0.0,0.0,0.0,0.0,0.0,0.0,0.0,0.0,0.0,0.0,0.0,0,-0.22000002859999998,0.5,0.18761266769999999,0.7622224092000001,90.0,60.0,60.0,89.5087432861,118.72959136959999,120.51211547850001,33.0719985962,14.9594020844,16.0,2,-1,10,1,43,1053
107,1532113356266,836266, AUTO,0,40.0434592604,-88.2344147,0,-104.47492945319999,511.0479465693,521.6176900537,-107.37150524879999,510.46695306730004,0.49229931829999996,0.0,-106.5954530691,512.146980437,0.921357773,-51.3412112395,0.0,0.0,1980,1750,40.04805,-88.2331533333,0.0,0.0,0.0,0.0,0.0,0.0,0.0,0.0,0.0,0.0,0.0,0.0,0.0,0,0.9600000381,0.5,0.17896775899999998,0.8056308627,90.0,60.0,60.0,89.3177566528,119.3025436401,120.00283050540001,33.0719985962,14.9594020844,16.0,2,-1,10,1,62,1062
108,1532113356466,836466, AUTO,0,40.0434592604,-88.2344147,0,-104.47492945319999,511.0479465693,521.6176900537,-107.37150524879999,510.46695306730004,0.40962100030000004,0.0,-106.5954530691,512.146980437,0.921357773,-51.3412112395,0.0,0.0,1530,1750,40.04805,-88.2331533333,0.0,0.0,0.0,0.0,0.0,0.0,0.0,0.0,0.0,0.0,0.0,0.0,0.0,0,0.059999942800000004,0.5,0.3527854085,0.4664565921,90.0,60.0,60.0,87.8535232544,117.9019851685,120.7031021118,33.0719985962,14.9594020844,16.0,2,-1,10,1,69,1070
109,1532113356667,836667, AUTO,0,40.0434592604,-88.2344147,0,-104.47492945319999,511.0479465693,521.6176900537,-107.37150524879999,510.46695306730004,0.3993206918,0.0,-106.5954530691,512.146980437,0.921357773,-51.3412112395,0.0,0.0,1470,1750,40.04805,-88.2331533333,0.0,0.0,0.0,0.0,0.0,0.0,0.0,0.0,0.0,0.0,0.0,0.0,0.0,0,-0.0600000024,0.5,0.3207808733,0.4778605103,90.0,60.0,60.0,87.9808578491,118.7932434082,119.1752166748,33.0719985962,14.9822511673,18.3600006104,2,-1,10,1,18,1078
110,1532113356868,836868, AUTO,0,40.0434592604,-88.2344147,0,-104.47492945319999,511.0479465693,521.6176900537,-107.37150524879999,510.46695306730004,0.43868258600000004,0.0,-106.5954530691,512.146980437,0.921357773,-51.3412112395,0.0,0.0,1510,1750,40.04805,-88.2331533333,0.0,0.0,0.0,0.0,0.0,0.0,0.0,0.0,0.0,0.0,0.0,0.0,0.0,0,0.019999980900000002,0.5,0.3060661554,0.5712990165,90.0,60.0,60.0,90.6546554565,119.81184387209998,118.2202911377,33.0719985962,14.9822511673,18.3600006104,2,-1,10,1,13,1087
111,1532113357068,837068, AUTO,0,40.0434592604,-88.2344147,0,-104.47492945319999,511.0479465693,521.6176900537,-107.37150524879999,510.46695306730004,0.4339002967,0.0,-106.5954530691,512.146980437,0.921357773,-51.3412112395,0.0,0.0,1550,1750,40.04805,-88.2331533333,0.0,0.0,0.0,0.0,0.0,0.0,0.0,0.0,0.0,0.0,0.0,0.0,0.0,0,0.1000000238,0.5,0.2974212468,0.5703793168,90.0,60.0,60.0,88.93578338620001,117.2653579712,121.0850753784,33.0719985962,14.9822511673,18.3600006104,2,-1,10,1,23,1096
112,1532113357269,837269, AUTO,0,40.0434592604,-88.2344147,0,-105.0595246469,510.5388407501,521.2364258506,-108.080866427,510.2445632139,0.4407978058,0.0,-107.18004826280001,511.6378746178,0.9249808277,-51.865896440200004,0.0,0.0,1510,1750,40.048048,-88.233145,0.0,0.0,0.0,0.0,0.0,0.0,0.0,0.0,0.0,0.0,0.0,0.0,0.0,0,0.019999980900000002,0.5,0.2828904688,0.5987051129,90.0,60.0,60.0,90.145362854,119.3025436401,119.1115570068,33.6100006104,14.9822511673,18.3600006104,2,-1,10,1,11,1105
113,1532113357470,837470, AUTO,0,40.0434592604,-88.2344147,0,-105.0595246469,510.5388407501,521.2364258506,-108.080866427,510.2445632139,0.4240598083,0.0,-107.18004826280001,511.6378746178,0.9249808277,-51.865896440200004,0.0,0.0,1490,1750,40.048048,-88.233145,0.0,0.0,0.0,0.0,0.0,0.0,0.0,0.0,0.0,0.0,0.0,0.0,0.0,0,-0.019999980900000002,0.5,0.2166742384,0.6314453483,90.0,60.0,60.0,88.9994430542,119.7481765747,117.77465820309999,33.6100006104,14.9822511673,18.3600006104,2,-1,10,1,93,1113
114,1532113357670,837670, AUTO,0,40.0434592604,-88.2344147,0,-105.0595246469,510.5388407501,521.2364258506,-108.080866427,510.2445632139,0.4506382942,0.0,-107.18004826280001,511.6378746178,0.9249808277,-51.865896440200004,0.0,0.0,1500,1750,40.048048,-88.233145,0.0,0.0,0.0,0.0,0.0,0.0,0.0,0.0,0.0,0.0,0.0,0.0,0.0,0,0.0,0.5,0.2495984286,0.6516781449,90.0,60.0,60.0,89.0631027222,119.7481765747,118.2202911377,33.6100006104,15.030731201199998,12.359999656700001,2,-1,10,1,89,1122
115,1532113357871,837871, AUTO,0,40.0434592604,-88.2344147,0,-105.0595246469,510.5388407501,521.2364258506,-108.080866427,510.2445632139,0.4433729053,0.0,-107.18004826280001,511.6378746178,0.9249808277,-51.865896440200004,0.0,0.0,1570,1750,40.048048,-88.233145,0.0,0.0,0.0,0.0,0.0,0.0,0.0,0.0,0.0,0.0,0.0,0.0,0.0,0,0.1399999857,0.5,0.22403159739999998,0.6627141833,90.0,60.0,60.0,90.2726821899,120.4484634399,117.2653579712,33.6100006104,15.030731201199998,12.359999656700001,2,-1,10,1,125,1131
116,1532113358071,838071, AUTO,0,40.0434592604,-88.2344147,0,-105.0595246469,510.5388407501,521.2364258506,-108.080866427,510.2445632139,0.41835784909999996,0.0,-107.18004826280001,511.6378746178,0.9249808277,-51.865896440200004,0.0,0.0,1340,1750,40.048048,-88.233145,0.0,0.0,0.0,0.0,0.0,0.0,0.0,0.0,0.0,0.0,0.0,0.0,0.0,0,-0.3199999928,0.5,0.2210886627,0.6156270504,90.0,60.0,60.0,88.235496521,118.53860473629999,119.1115570068,33.6100006104,15.030731201199998,12.359999656700001,2,-1,10,1,85,1139
