,(0)linux time (ms),    (1)uptime  (ms),      (2)drive mode,(3)mpc step counter,(4)mpc origin latitude  (deg),(5)mpc origin longitude  (deg),(6)closest trajectory point index to robot,(7)mpc error x (W;E)  (m),(8)mpc error y (W;E)  (m),(9)abs mpc error (m),(10)input [x] for mhe (m),(11)input [y] for mhe (m),(12)input [speed] for mhe (m/s),(13)input [vyaw] for mhe (rad/s),(14)mhe output x  (m),(15)mhe output y  (m),(16)mhe output speed  (m/s),(17)mhe output yaw  (rad),(18)mpc reference heading (rad),(19)mpc turn rate command (rad/s),(20)turn rate command as PWM,(21)throttle command as PWM,(22)primary gps latitude (deg),(23)primary gps longitude (deg),(24)secondary gps latitude  (deg),(25)secondary gps longitude (deg),(26)accelerometer x (m/s^2),(27)accelerometer y (m/s^2),(28)accelerometer z (m/s^2),(29)gyro yaw rate (rad/s),(30)gyro pitch rate   (rad/s),(31)gyro roll rate (rad/s),      (32)yaw (rad),  (33)pitch   (rad),     (34)roll (rad),(35)sonar1 measurement (m),(36)ultrasonic sensor measurement (m),(37)primary gps time (s),(38)normalized turn rate command,(39)normalized throttle command,(40)speed calculation from encoder left (m/s),(41)speed calculation from encoder right (m/s),(42)front gimbal target angle (degrees from straight down),(43)left gimbal target angle  (degrees from straight down),(44)right gimbal target angle  (degrees from straight down),(45)front gimbal measured angle  (degrees from straight down),(46)left gimbal measured angle    (degrees from straight down),(47)right gimbal measured angle  (degrees from straight down),(48)internal temperature (C),(49)battery voltage (V),(50)primary gps type,(51)secondary gps type,    (52)MPC R value, (53)MPC Q[0] value,Unnamed: 54,weed_num,start
0,1532114270209,416209, AUTO,0,40.0434592604,-88.2344147,0,-103.6749612266,455.565551991,467.2135162281,-106.33621746120001,456.68567354690003,0.2769126296,0.0,-105.7954848425,456.66458585870004,0.45001261090000005,-19.5964442495,0.0,0.0,1540,1750,40.0475663333,-88.2331655,0.0,0.0,0.0,0.0,0.0,0.0,0.0,0.0,0.0,0.0,0.0,0.0,0.0,0,0.0800000429,0.5,0.1986487061,0.3551765382,90.0,60.0,60.0,91.10028839110001,120.51211547850001,118.9842300415,38.450996398899996,16.007202148399998,1.1399999856999998,2,-1,10,1,116,19
1,1532114270409,416409, AUTO,0,40.0434592604,-88.2344147,0,-103.6749612266,455.565551991,467.2135162281,-106.33621746120001,456.68567354690003,0.3256551325,0.0,-105.7954848425,456.66458585870004,0.45001261090000005,-19.5964442495,0.0,0.0,1560,1750,40.0475663333,-88.2331655,0.0,0.0,0.0,0.0,0.0,0.0,0.0,0.0,0.0,0.0,0.0,0.0,0.0,0,0.1200000048,0.5,0.21262769399999998,0.43868255619999996,90.0,60.0,60.0,88.235496521,118.9842300415,119.3662033081,38.450996398899996,16.007202148399998,1.1399999856999998,2,-1,10,1,109,29
2,1532114270610,416610, AUTO,0,40.0434592604,-88.2344147,0,-103.6749612266,455.565551991,467.2135162281,-106.33621746120001,456.68567354690003,0.3686037064,0.0,-105.7954848425,456.66458585870004,0.45001261090000005,-19.5964442495,0.0,0.0,1580,1750,40.0475663333,-88.2331655,0.0,0.0,0.0,0.0,0.0,0.0,0.0,0.0,0.0,0.0,0.0,0.0,0.0,0,0.15999996660000002,0.5,0.2882245481,0.44898286460000003,90.0,60.0,60.0,88.8084564209,119.2388916016,119.3662033081,38.450996398899996,15.9804792404,33.9300003052,2,-1,10,1,79,39
3,1532114270810,416810, AUTO,0,40.0434592604,-88.2344147,0,-103.8166238723,455.37922434949996,467.0633033769,-106.5206551243,456.1852963765,0.37651288509999997,0.0,-105.9371474882,456.4782582172,0.313230658,-19.9317521782,0.0,0.0,1570,1750,40.0475618333,-88.2331633333,0.0,0.0,0.0,0.0,0.0,0.0,0.0,0.0,0.0,0.0,0.0,0.0,0.0,0,0.1399999857,0.5,0.253093183,0.4999325871,90.0,60.0,60.0,89.5724029541,119.2388916016,118.856918335,38.450996398899996,15.9804792404,33.9300003052,2,-1,10,1,55,49
4,1532114271012,417012, AUTO,0,40.0434592604,-88.2344147,0,-103.8166238723,455.37922434949996,467.0633033769,-106.5206551243,456.1852963765,0.3729261458,0.0,-105.9371474882,456.4782582172,0.313230658,-19.9317521782,0.0,0.0,1520,1750,40.0475618333,-88.2331633333,0.0,0.0,0.0,0.0,0.0,0.0,0.0,0.0,0.0,0.0,0.0,0.0,0.0,0,0.0399999619,0.5,0.27167049050000003,0.47418180109999997,90.0,60.0,60.0,89.25408935549999,117.5200195312,120.8940887451,37.3759994507,15.9804792404,33.9300003052,2,-1,10,1,62,59
5,1532114271212,417212, AUTO,0,40.0434592604,-88.2344147,0,-103.8166238723,455.37922434949996,467.0633033769,-106.5206551243,456.1852963765,0.3942624927,0.0,-105.9371474882,456.4782582172,0.313230658,-19.9317521782,0.0,0.0,1530,1750,40.0475618333,-88.2331633333,0.0,0.0,0.0,0.0,0.0,0.0,0.0,0.0,0.0,0.0,0.0,0.0,0.0,0,0.059999942800000004,0.5,0.302387476,0.48613753909999996,90.0,60.0,60.0,89.8907089233,119.4935302734,120.0664901733,37.3759994507,15.9804792404,33.9300003052,2,-1,10,1,304,69
6,1532114271413,417413, AUTO,0,40.0434592604,-88.2344147,0,-103.8166238723,455.37922434949996,467.0633033769,-106.5206551243,456.1852963765,0.3806514144,0.0,-105.9371474882,456.4782582172,0.313230658,-19.9317521782,0.0,0.0,1560,1750,40.0475618333,-88.2331633333,0.0,0.0,0.0,0.0,0.0,0.0,0.0,0.0,0.0,0.0,0.0,0.0,0.0,0,0.1200000048,0.5,0.267623961,0.49367883799999995,90.0,60.0,60.0,89.12677001950001,119.7481765747,119.7481765747,37.3759994507,15.9804792404,33.9300003052,2,-1,10,1,120,78
7,1532114271613,417613, AUTO,0,40.0434592604,-88.2344147,0,-103.8166238723,455.37922434949996,467.0633033769,-106.5206551243,456.1852963765,0.3755931854,0.0,-105.9371474882,456.4782582172,0.313230658,-19.9317521782,0.0,0.0,1550,1750,40.0475618333,-88.2331633333,0.0,0.0,0.0,0.0,0.0,0.0,0.0,0.0,0.0,0.0,0.0,0.0,0.0,0,0.1000000238,0.5,0.25015023350000004,0.5010361671,90.0,60.0,60.0,89.6997299194,119.1752166748,118.34761810299999,37.3759994507,15.9830656052,51.1499977112,2,-1,10,1,66,88
8,1532114271813,417813, AUTO,0,40.0434592604,-88.2344147,0,-104.05029084700001,455.1408174046,466.8828832727,-106.8469675817,455.3513344262,0.3895722032,0.0,-106.17081446290001,456.23985127230003,0.297609983,-20.5970816871,0.0,0.0,1670,1750,40.0475543333,-88.2331595,0.0,0.0,0.0,0.0,0.0,0.0,0.0,0.0,0.0,0.0,0.0,0.0,0.0,0,0.3400000334,0.5,0.2839941084,0.4951502979,90.0,60.0,60.0,88.55381011959999,119.0479049683,120.00283050540001,37.3759994507,15.9830656052,51.1499977112,2,-1,10,1,78,97
9,1532114272014,418014, AUTO,0,40.0434592604,-88.2344147,0,-104.05029084700001,455.1408174046,466.8828832727,-106.8469675817,455.3513344262,0.3348518014,0.0,-106.17081446290001,456.23985127230003,0.297609983,-20.5970816871,0.0,0.0,1630,1750,40.0475543333,-88.2331595,0.0,0.0,0.0,0.0,0.0,0.0,0.0,0.0,0.0,0.0,0.0,0.0,0.0,0,0.2599999905,0.5,0.2249512672,0.4447523654,90.0,60.0,60.0,90.0816955566,118.856918335,119.1115570068,38.450996398899996,15.9830656052,51.1499977112,2,-1,10,1,80,109
10,1532114272214,418214, AUTO,0,40.0434592604,-88.2344147,0,-104.05029084700001,455.1408174046,466.8828832727,-106.8469675817,455.3513344262,0.3510380387,0.0,-106.17081446290001,456.23985127230003,0.297609983,-20.5970816871,0.0,0.0,1550,1750,40.0475543333,-88.2331595,0.0,0.0,0.0,0.0,0.0,0.0,0.0,0.0,0.0,0.0,0.0,0.0,0.0,0,0.1000000238,0.5,0.30514648559999996,0.3969295621,90.0,60.0,60.0,88.2991638184,117.39268493649999,120.13014221190001,38.450996398899996,15.9830656052,51.1499977112,2,-1,10,1,91,119
11,1532114272414,418414, AUTO,0,40.0434592604,-88.2344147,0,-104.05029084700001,455.1408174046,466.8828832727,-106.8469675817,455.3513344262,0.35444080829999997,0.0,-106.17081446290001,456.23985127230003,0.297609983,-20.5970816871,0.0,0.0,1630,1750,40.0475543333,-88.2331595,0.0,0.0,0.0,0.0,0.0,0.0,0.0,0.0,0.0,0.0,0.0,0.0,0.0,0,0.2599999905,0.5,0.3031232059,0.40575838090000005,90.0,60.0,60.0,88.4901504517,120.83042907709999,118.2839584351,38.450996398899996,15.9830656052,51.1499977112,2,-1,10,1,198,129
12,1532114272615,418615, AUTO,0,40.0434592604,-88.2344147,0,-104.05029084700001,455.1408174046,466.8828832727,-106.8469675817,455.3513344262,0.34027791020000003,0.0,-106.17081446290001,456.23985127230003,0.297609983,-20.5970816871,0.0,0.0,1570,1750,40.0475543333,-88.2331595,0.0,0.0,0.0,0.0,0.0,0.0,0.0,0.0,0.0,0.0,0.0,0.0,0.0,0,0.1399999857,0.5,0.3066179752,0.3739378154,90.0,60.0,60.0,90.7183227539,118.856918335,119.6845169067,38.450996398899996,15.9676027298,19.0699996948,2,-1,10,1,236,139
13,1532114272815,418815, AUTO,0,40.0434592604,-88.2344147,0,-104.05029084700001,455.1408174046,466.8828832727,-106.8469675817,455.3513344262,0.3316329718,0.0,-106.17081446290001,456.23985127230003,0.297609983,-20.5970816871,0.0,0.0,1590,1750,40.0475478333,-88.2331638333,0.0,0.0,0.0,0.0,0.0,0.0,0.0,0.0,0.0,0.0,0.0,0.0,0.0,0,0.1799999475,0.5,0.2966855168,0.3665804267,90.0,60.0,60.0,89.7633895874,119.4935302734,119.1752166748,38.450996398899996,15.9676027298,19.0699996948,2,-1,10,1,91,149
14,1532114273015,419015, AUTO,0,40.0434592604,-88.2344147,0,-104.05635010809999,454.9105688821,466.65977936660005,-106.47810432950001,454.6285674037,0.2996284664,0.0,-106.17687372399999,456.0096027498,0.44184846380000004,-20.55367353,0.0,0.0,1590,1750,40.0475478333,-88.2331638333,0.0,0.0,0.0,0.0,0.0,0.0,0.0,0.0,0.0,0.0,0.0,0.0,0.0,0,0.1799999475,0.5,0.2223761827,0.37688073520000004,90.0,60.0,60.0,89.44507598879999,119.42987060549999,118.411277771,38.450996398899996,15.9676027298,19.0699996948,2,-1,10,1,83,157
15,1532114273216,419216, AUTO,0,40.0434592604,-88.2344147,0,-104.05635010809999,454.9105688821,466.65977936660005,-106.47810432950001,454.6285674037,0.364741087,0.0,-106.17687372399999,456.0096027498,0.44184846380000004,-20.55367353,0.0,0.0,1690,1750,40.0475478333,-88.2331638333,0.0,0.0,0.0,0.0,0.0,0.0,0.0,0.0,0.0,0.0,0.0,0.0,0.0,0,0.37999999520000005,0.5,0.2652328014,0.46424940229999995,90.0,60.0,60.0,88.93578338620001,120.2574768066,118.72959136959999,38.450996398899996,15.9676027298,19.0699996948,2,-1,10,1,74,166
16,1532114273416,419416, AUTO,0,40.0434592604,-88.2344147,0,-104.05635010809999,454.9105688821,466.65977936660005,-106.47810432950001,454.6285674037,0.3199531734,0.0,-106.17687372399999,456.0096027498,0.44184846380000004,-20.55367353,0.0,0.0,1590,1750,40.0475478333,-88.2331638333,0.0,0.0,0.0,0.0,0.0,0.0,0.0,0.0,0.0,0.0,0.0,0.0,0.0,0,0.1799999475,0.5,0.30109992620000003,0.33880642060000005,90.0,60.0,60.0,91.29127502440001,117.2017059326,121.0214157104,38.450996398899996,15.9676027298,19.0699996948,2,-1,10,1,79,176
17,1532114273617,419617, AUTO,0,40.0434592604,-88.2344147,0,-104.05635010809999,454.9105688821,466.65977936660005,-106.47810432950001,454.6285674037,0.3518657386,0.0,-106.17687372399999,456.0096027498,0.44184846380000004,-20.55367353,0.0,0.0,1590,1750,40.0475478333,-88.2331638333,0.0,0.0,0.0,0.0,0.0,0.0,0.0,0.0,0.0,0.0,0.0,0.0,0.0,0,0.1799999475,0.5,0.32298809289999997,0.3807433844,90.0,60.0,60.0,88.36282348629999,120.38480377200001,119.3025436401,38.450996398899996,15.9640750885,66.59000396729999,2,-1,10,1,85,185
18,1532114273817,419817, AUTO,0,40.0434592604,-88.2344147,0,-104.05635010809999,454.9105688821,466.65977936660005,-106.37878790030001,455.4439968659,0.3600507975,0.0,-106.17687372399999,456.0096027498,0.44184846380000004,-20.55367353,0.0,0.0,1590,1750,40.0475551667,-88.233165,0.0,0.0,0.0,0.0,0.0,0.0,0.0,0.0,0.0,0.0,0.0,0.0,0.0,0,0.1799999475,0.5,0.3463477194,0.37375387549999994,90.0,60.0,60.0,87.08958435059999,118.6659317017,119.42987060549999,38.450996398899996,15.9640750885,66.59000396729999,2,-1,10,1,91,193
19,1532114274018,420018, AUTO,0,40.0434592604,-88.2344147,0,-104.28958215690001,454.7662683564,466.571190475,-106.37878790030001,455.4439968659,0.3459798098,0.0,-106.41010577280001,455.86530222410005,0.5139485793999999,-21.000251918,0.0,0.0,1590,1750,40.0475551667,-88.233165,0.0,0.0,0.0,0.0,0.0,0.0,0.0,0.0,0.0,0.0,0.0,0.0,0.0,0,0.1799999475,0.5,0.3141592443,0.377800405,90.0,60.0,60.0,89.9543762207,122.9312744141,117.2017059326,37.9140014648,15.9640750885,66.59000396729999,2,-1,10,1,124,206
20,1532114274219,420219, AUTO,0,40.0434592604,-88.2344147,0,-104.28958215690001,454.7662683564,466.571190475,-106.37878790030001,455.4439968659,0.21538671850000002,0.0,-106.41010577280001,455.86530222410005,0.5139485793999999,-21.000251918,0.0,0.0,1600,1750,40.0475551667,-88.233165,0.0,0.0,0.0,0.0,0.0,0.0,0.0,0.0,0.0,0.0,0.0,0.0,0.0,0,0.2000000477,0.5,0.1567117721,0.27406165,90.0,60.0,60.0,90.20902252200001,120.0664901733,119.939163208,37.9140014648,15.9640750885,66.59000396729999,2,-1,10,1,101,216
21,1532114274419,420419, AUTO,0,40.0434592604,-88.2344147,0,-104.28958215690001,454.7662683564,466.571190475,-106.37878790030001,455.4439968659,0.1348236203,0.0,-106.41010577280001,455.86530222410005,0.5139485793999999,-21.000251918,0.0,0.0,1600,1750,40.0475551667,-88.233165,0.0,0.0,0.0,0.0,0.0,0.0,0.0,0.0,0.0,0.0,0.0,0.0,0.0,0,0.2000000477,0.5,0.0590428114,0.21060442920000003,90.0,60.0,60.0,89.7633895874,119.7481765747,119.4935302734,37.9140014648,15.9640750885,66.59000396729999,2,-1,10,1,109,226
22,1532114274620,420620, AUTO,0,40.0434592604,-88.2344147,0,-104.28958215690001,454.7662683564,466.571190475,-106.37878790030001,455.4439968659,0.1023592651,0.0,-106.41010577280001,455.86530222410005,0.5139485793999999,-21.000251918,0.0,0.0,1570,1750,40.0475551667,-88.233165,0.0,0.0,0.0,0.0,0.0,0.0,0.0,0.0,0.0,0.0,0.0,0.0,0.0,0,0.1399999857,0.5,0.022256012999999998,0.1824625134,90.0,60.0,60.0,89.8907089233,119.81184387209998,119.42987060549999,37.9140014648,15.9488372803,99.9199981689,2,-1,10,1,111,236
23,1532114274821,420821, AUTO,0,40.0434592604,-88.2344147,0,-104.28958215690001,454.7662683564,466.571190475,-106.37878790030001,455.4439968659,0.1009797603,0.0,-106.41010577280001,455.86530222410005,0.5139485793999999,-21.000251918,0.0,0.0,1570,1750,40.0475551667,-88.233165,0.0,0.0,0.0,0.0,0.0,0.0,0.0,0.0,0.0,0.0,0.0,0.0,0.0,0,0.1399999857,0.5,0.0091966996,0.19276282190000002,90.0,60.0,60.0,89.7633895874,119.6845169067,119.62085723879999,37.9140014648,15.9488372803,99.9199981689,2,-1,10,1,111,245
24,1532114275021,421021, AUTO,0,40.0434592604,-88.2344147,0,-104.2221638643,454.5795838388,466.3741603944,-106.7618429474,455.5181268168,0.09628944099999999,0.0,-106.3426874802,455.6786177065,0.5897890148,-20.7378287294,0.0,0.0,1600,1750,40.0475558333,-88.2331605,0.0,0.0,0.0,0.0,0.0,0.0,0.0,0.0,0.0,0.0,0.0,0.0,0.0,0,0.2000000477,0.5,0.0034947458000000003,0.1890841424,90.0,60.0,60.0,89.5724029541,119.6845169067,119.62085723879999,37.9140014648,15.9488372803,99.9199981689,2,-1,10,1,118,253
25,1532114275222,421222, AUTO,0,40.0434592604,-88.2344147,0,-104.2221638643,454.5795838388,466.3741603944,-106.7618429474,455.5181268168,0.09472600369999999,0.0,-106.3426874802,455.6786177065,0.5897890148,-20.7378287294,0.0,0.0,1570,1750,40.0475558333,-88.2331605,0.0,0.0,0.0,0.0,0.0,0.0,0.0,0.0,0.0,0.0,0.0,0.0,0.0,0,0.1399999857,0.5,0.001287538,0.18816447260000002,90.0,60.0,60.0,89.5724029541,119.7481765747,119.7481765747,37.9140014648,15.9488372803,99.9199981689,2,-1,10,1,117,262
26,1532114275422,421422, AUTO,0,40.0434592604,-88.2344147,0,-104.2221638643,454.5795838388,466.3741603944,-106.7618429474,455.5181268168,0.0807470232,0.0,-106.3426874802,455.6786177065,0.5897890148,-20.7378287294,0.0,0.0,1620,1750,40.0475558333,-88.2331605,0.0,0.0,0.0,0.0,0.0,0.0,0.0,0.0,0.0,0.0,0.0,0.0,0.0,0,0.2400000095,0.5,0.000551802,0.1609422415,90.0,60.0,60.0,89.63606262209998,119.7481765747,119.62085723879999,37.9140014648,15.9488372803,99.9199981689,2,-1,10,1,115,270
27,1532114275622,421622, AUTO,0,40.0434592604,-88.2344147,0,-104.2221638643,454.5795838388,466.3741603944,-106.7618429474,455.5181268168,0.0831381679,0.0,-106.3426874802,455.6786177065,0.5897890148,-20.7378287294,0.0,0.0,1600,1750,40.0475558333,-88.2331605,0.0,0.0,0.0,0.0,0.0,0.0,0.0,0.0,0.0,0.0,0.0,0.0,0.0,0,0.2000000477,0.5,0.00018393400000000002,0.16609239580000001,90.0,60.0,60.0,89.6997299194,119.6845169067,119.5571899414,37.9140014648,15.912811279300001,76.66999816890001,2,-1,10,1,108,278
28,1532114275823,421823, AUTO,0,40.0434592604,-88.2344147,0,-104.58082506219999,454.5523557239,466.42790768230003,-106.71928252309999,455.33280193879995,0.0842417628,0.0,-106.70134867809999,455.65138959160004,0.6169038585000001,-21.2141581185,0.0,0.0,1600,1750,40.0475541667,-88.233161,0.0,0.0,0.0,0.0,0.0,0.0,0.0,0.0,0.0,0.0,0.0,0.0,0.0,0,0.2000000477,0.5,0.0,0.1684835255,90.0,60.0,60.0,89.3814163208,119.7481765747,119.4935302734,37.9140014648,15.912811279300001,76.66999816890001,2,-1,10,1,110,286
29,1532114276023,422023, AUTO,0,40.0434592604,-88.2344147,0,-104.58082506219999,454.5523557239,466.42790768230003,-106.71928252309999,455.33280193879995,0.0915071666,0.0,-106.70134867809999,455.65138959160004,0.6169038585000001,-21.2141581185,0.0,0.0,1600,1750,40.0475541667,-88.233161,0.0,0.0,0.0,0.0,0.0,0.0,0.0,0.0,0.0,0.0,0.0,0.0,0.0,0,0.2000000477,0.5,0.0,0.1830143332,90.0,60.0,60.0,89.3177566528,119.81184387209998,119.42987060549999,38.450996398899996,15.912811279300001,76.66999816890001,2,-1,10,1,125,294
30,1532114276224,422224, AUTO,0,40.0434592604,-88.2344147,0,-104.58082506219999,454.5523557239,466.42790768230003,-106.71928252309999,455.33280193879995,0.09389830380000001,0.0,-106.70134867809999,455.65138959160004,0.6169038585000001,-21.2141581185,0.0,0.0,1610,1750,40.0475541667,-88.233161,0.0,0.0,0.0,0.0,0.0,0.0,0.0,0.0,0.0,0.0,0.0,0.0,0.0,0,0.22000002859999998,0.5,0.0,0.18779660760000003,90.0,60.0,60.0,89.12677001950001,119.81184387209998,119.3662033081,38.450996398899996,15.912811279300001,76.66999816890001,2,-1,10,1,113,302
31,1532114276424,422424, AUTO,0,40.0434592604,-88.2344147,0,-104.58082506219999,454.5523557239,466.42790768230003,-106.71928252309999,455.33280193879995,0.1818187535,0.0,-106.70134867809999,455.65138959160004,0.6169038585000001,-21.2141581185,0.0,0.0,1600,1750,40.0475541667,-88.233161,0.0,0.0,0.0,0.0,0.0,0.0,0.0,0.0,0.0,0.0,0.0,0.0,0.0,0,0.2000000477,0.5,0.07578080150000001,0.287856698,90.0,60.0,60.0,93.1374740601,121.2124023438,116.88338470459999,38.450996398899996,15.912811279300001,76.66999816890001,2,-1,10,1,74,310
32,1532114276624,422624, AUTO,0,40.0434592604,-88.2344147,0,-104.58082506219999,454.5523557239,466.42790768230003,-106.71928252309999,455.33280193879995,0.2782921195,0.0,-106.70134867809999,455.65138959160004,0.6169038585000001,-21.2141581185,0.0,0.0,1620,1750,40.0475541667,-88.233161,0.0,0.0,0.0,0.0,0.0,0.0,0.0,0.0,0.0,0.0,0.0,0.0,0.0,0,0.2400000095,0.5,0.2067418098,0.3498424292,90.0,60.0,60.0,88.93578338620001,115.0371856689,123.0586013794,38.450996398899996,15.8880615234,21.989999771100003,2,-1,10,1,79,319
33,1532114276825,422825, AUTO,0,40.0434592604,-88.2344147,0,-104.32439623139999,454.1326523508,465.96142069940004,-106.421356394,454.4803075018,0.267440021,0.0,-106.4449198473,455.2316862185,0.6323223078,-20.7236469668,0.0,0.0,1170,1750,40.0475465,-88.2331645,0.0,0.0,0.0,0.0,0.0,0.0,0.0,0.0,0.0,0.0,0.0,0.0,0.0,0,-0.6599999665999999,0.5,0.0961974785,0.43868255619999996,90.0,60.0,60.0,87.7898712158,121.5307159424,116.88338470459999,38.450996398899996,15.8880615234,21.989999771100003,2,-1,10,1,68,328
34,1532114277025,423025, AUTO,0,40.0434592604,-88.2344147,0,-104.32439623139999,454.1326523508,465.96142069940004,-106.421356394,454.4803075018,0.27406165,0.0,-106.4449198473,455.2316862185,0.6323223078,-20.7236469668,0.0,0.0,1520,1750,40.0475465,-88.2331645,0.0,0.0,0.0,0.0,0.0,0.0,0.0,0.0,0.0,0.0,0.0,0.0,0.0,0,0.0399999619,0.5,0.1018994302,0.44622388479999997,90.0,60.0,60.0,89.5724029541,118.6022567749,119.6845169067,38.450996398899996,15.8880615234,21.989999771100003,2,-1,10,1,82,336
35,1532114277225,423225, AUTO,0,40.0434592604,-88.2344147,0,-104.32439623139999,454.1326523508,465.96142069940004,-106.421356394,454.4803075018,0.35894718770000006,0.0,-106.4449198473,455.2316862185,0.6323223078,-20.7236469668,0.0,0.0,1560,1750,40.0475465,-88.2331645,0.0,0.0,0.0,0.0,0.0,0.0,0.0,0.0,0.0,0.0,0.0,0.0,0.0,0,0.1200000048,0.5,0.1934985667,0.5243958235,90.0,60.0,60.0,89.25408935549999,120.9577560425,117.6473312378,38.450996398899996,15.8880615234,21.989999771100003,2,-1,10,1,82,344
36,1532114277426,423426, AUTO,0,40.0434592604,-88.2344147,0,-104.32439623139999,454.1326523508,465.96142069940004,-106.421356394,454.4803075018,0.3826746643,0.0,-106.4449198473,455.2316862185,0.6323223078,-20.7236469668,0.0,0.0,1480,1750,40.0475465,-88.2331645,0.0,0.0,0.0,0.0,0.0,0.0,0.0,0.0,0.0,0.0,0.0,0.0,0.0,0,-0.040000021499999996,0.5,0.2549325228,0.5104168057,90.0,60.0,60.0,89.82704925540001,118.0929718018,120.32112884520001,38.450996398899996,15.8880615234,21.989999771100003,2,-1,10,1,62,352
37,1532114277626,423626, AUTO,0,40.0434592604,-88.2344147,0,-104.32439623139999,454.1326523508,465.96142069940004,-106.421356394,454.4803075018,0.4167944193,0.0,-106.4449198473,455.2316862185,0.6323223078,-20.7236469668,0.0,0.0,1520,1750,40.0475465,-88.2331645,0.0,0.0,0.0,0.0,0.0,0.0,0.0,0.0,0.0,0.0,0.0,0.0,0.0,0,0.0399999619,0.5,0.24702334399999998,0.5865654945000001,90.0,60.0,60.0,88.55381011959999,119.6845169067,118.856918335,38.450996398899996,15.8570804596,77.0500030518,2,-1,10,1,71,360
38,1532114277827,423827, AUTO,0,40.0434592604,-88.2344147,0,-104.6962430564,454.0103659313,465.92565467379995,-107.0172258844,453.73900799050006,0.4249794483,0.0,-106.81676667229999,455.109399799,0.654730954,-21.1101607024,0.0,0.0,1540,1750,40.0475398333,-88.2331575,0.0,0.0,0.0,0.0,0.0,0.0,0.0,0.0,0.0,0.0,0.0,0.0,0.0,0,0.0800000429,0.5,0.2650488615,0.5849100351,90.0,60.0,60.0,91.2276153564,119.3662033081,119.1752166748,38.450996398899996,15.8570804596,77.0500030518,2,-1,10,1,278,372
39,1532114278027,424027, AUTO,0,40.0434592604,-88.2344147,0,-104.6962430564,454.0103659313,465.92565467379995,-107.0172258844,453.73900799050006,0.4178060889,0.0,-106.81676667229999,455.109399799,0.654730954,-21.1101607024,0.0,0.0,1460,1750,40.0475398333,-88.2331575,0.0,0.0,0.0,0.0,0.0,0.0,0.0,0.0,0.0,0.0,0.0,0.0,0.0,0,-0.07999998330000001,0.5,0.2810511291,0.5545610189,90.0,60.0,60.0,88.1081771851,118.15663146969999,119.7481765747,38.450996398899996,15.8570804596,77.0500030518,2,-1,10,1,202,383
40,1532114278227,424227, AUTO,0,40.0434592604,-88.2344147,0,-104.6962430564,454.0103659313,465.92565467379995,-107.0172258844,453.73900799050006,0.4206570387,0.0,-106.81676667229999,455.109399799,0.654730954,-21.1101607024,0.0,0.0,1560,1750,40.0475398333,-88.2331575,0.0,0.0,0.0,0.0,0.0,0.0,0.0,0.0,0.0,0.0,0.0,0.0,0.0,0,0.1200000048,0.5,0.26615247129999997,0.5751615763,90.0,60.0,60.0,88.6174697876,119.62085723879999,117.9019851685,38.450996398899996,15.8570804596,77.0500030518,2,-1,10,1,94,393
41,1532114278428,424428, AUTO,0,40.0434592604,-88.2344147,0,-104.6962430564,454.0103659313,465.92565467379995,-107.0172258844,453.73900799050006,0.38616940380000003,0.0,-106.81676667229999,455.109399799,0.654730954,-21.1101607024,0.0,0.0,1520,1750,40.0475398333,-88.2331575,0.0,0.0,0.0,0.0,0.0,0.0,0.0,0.0,0.0,0.0,0.0,0.0,0.0,0,0.0399999619,0.5,0.2597147822,0.5126240253000001,90.0,60.0,60.0,89.8907089233,119.2388916016,118.6659317017,38.450996398899996,15.8570804596,77.0500030518,2,-1,10,1,31,402
42,1532114278628,424628, AUTO,0,40.0434592604,-88.2344147,0,-104.6962430564,454.0103659313,465.92565467379995,-107.0172258844,453.73900799050006,0.397205472,0.0,-106.81676667229999,455.109399799,0.654730954,-21.1101607024,0.0,0.0,1560,1750,40.0475398333,-88.2331575,0.0,0.0,0.0,0.0,0.0,0.0,0.0,0.0,0.0,0.0,0.0,0.0,0.0,0,0.1200000048,0.5,0.2850976884,0.5093132257,90.0,60.0,60.0,90.0816955566,119.6845169067,119.1752166748,38.450996398899996,15.8309049606,76.1100006104,2,-1,10,1,49,409
43,1532114278829,424829, AUTO,0,40.0434592604,-88.2344147,0,-104.4991174819,453.5350162192,465.4181737873,-107.1307243684,453.6648780396,0.3513139188,0.0,-106.61964109780001,454.6340500869,0.7330227286,-20.6019375171,0.0,0.0,1470,1750,40.0475391667,-88.2331561667,0.0,0.0,0.0,0.0,0.0,0.0,0.0,0.0,0.0,0.0,0.0,0.0,0.0,0,-0.0600000024,0.5,0.2621059418,0.4405218959,90.0,60.0,60.0,89.0631027222,118.2839584351,118.856918335,38.450996398899996,15.8309049606,76.1100006104,2,-1,10,1,231,417
44,1532114279029,425029, AUTO,0,40.0434592604,-88.2344147,0,-104.4991174819,453.5350162192,465.4181737873,-107.1307243684,453.6648780396,0.3459798396,0.0,-106.61964109780001,454.6340500869,0.7330227286,-20.6019375171,0.0,0.0,1580,1750,40.0475391667,-88.2331561667,0.0,0.0,0.0,0.0,0.0,0.0,0.0,0.0,0.0,0.0,0.0,0.0,0.0,0,0.15999996660000002,0.5,0.260818392,0.4311412871,90.0,60.0,60.0,89.5087432861,119.7481765747,118.72959136959999,37.9140014648,15.8309049606,76.1100006104,2,-1,10,1,66,428
45,1532114279230,425230, AUTO,0,40.0434592604,-88.2344147,0,-104.4991174819,453.5350162192,465.4181737873,-107.1307243684,453.6648780396,0.3703510761,0.0,-106.61964109780001,454.6340500869,0.7330227286,-20.6019375171,0.0,0.0,1590,1750,40.0475391667,-88.2331561667,0.0,0.0,0.0,0.0,0.0,0.0,0.0,0.0,0.0,0.0,0.0,0.0,0.0,0,0.1799999475,0.5,0.3334723115,0.40722984079999996,90.0,60.0,60.0,90.4636688232,118.9205703735,119.3025436401,37.9140014648,15.8309049606,76.1100006104,2,-1,10,1,49,439
46,1532114279430,425430, AUTO,0,40.0434592604,-88.2344147,0,-104.4991174819,453.5350162192,465.4181737873,-107.1307243684,453.6648780396,0.3172861338,0.0,-106.61964109780001,454.6340500869,0.7330227286,-20.6019375171,0.0,0.0,1610,1750,40.0475391667,-88.2331561667,0.0,0.0,0.0,0.0,0.0,0.0,0.0,0.0,0.0,0.0,0.0,0.0,0.0,0,0.22000002859999998,0.5,0.24536794420000002,0.3892043233,90.0,60.0,60.0,89.63606262209998,119.81184387209998,119.1752166748,37.9140014648,15.8309049606,76.1100006104,2,-1,10,1,42,449
47,1532114279631,425631, AUTO,0,40.0434592604,-88.2344147,0,-104.4991174819,453.5350162192,465.4181737873,-107.1307243684,453.6648780396,0.3041348457,0.0,-106.61964109780001,454.6340500869,0.7330227286,-20.6019375171,0.0,0.0,1610,1750,40.0475391667,-88.2331561667,0.0,0.0,0.0,0.0,0.0,0.0,0.0,0.0,0.0,0.0,0.0,0.0,0.0,0,0.22000002859999998,0.5,0.240033865,0.36823585630000005,90.0,60.0,60.0,89.8907089233,119.3662033081,119.3025436401,37.9140014648,15.797131538399999,26.0499992371,2,-1,10,1,92,459
48,1532114279831,425831, AUTO,0,40.0434592604,-88.2344147,0,-104.81925449149999,453.4256353791,465.38358687339996,-106.7476686227,453.683410527,0.2992606163,0.0,-106.9397781074,454.5246692468,0.7922118962000001,-20.9440549336,0.0,0.0,1620,1750,40.0475393333,-88.2331606667,0.0,0.0,0.0,0.0,0.0,0.0,0.0,0.0,0.0,0.0,0.0,0.0,0.0,0,0.2400000095,0.5,0.2575075924,0.3410136104,90.0,60.0,60.0,90.0816955566,119.4935302734,118.856918335,38.9899978638,15.797131538399999,26.0499992371,2,-1,10,1,218,469
49,1532114280031,426031, AUTO,0,40.0434592604,-88.2344147,0,-104.81925449149999,453.4256353791,465.38358687339996,-106.7476686227,453.683410527,0.2975132167,0.0,-106.9397781074,454.5246692468,0.7922118962000001,-20.9440549336,0.0,0.0,1620,1750,40.0475393333,-88.2331606667,0.0,0.0,0.0,0.0,0.0,0.0,0.0,0.0,0.0,0.0,0.0,0.0,0.0,0,0.2400000095,0.5,0.24518401920000002,0.3498424292,90.0,60.0,60.0,89.8907089233,118.9205703735,119.62085723879999,38.9899978638,15.797131538399999,26.0499992371,2,-1,10,1,85,479
50,1532114280232,426232, AUTO,0,40.0434592604,-88.2344147,0,-104.81925449149999,453.4256353791,465.38358687339996,-106.7476686227,453.683410527,0.2925470173,0.0,-106.9397781074,454.5246692468,0.7922118962000001,-20.9440549336,0.0,0.0,1410,1750,40.0475393333,-88.2331606667,0.0,0.0,0.0,0.0,0.0,0.0,0.0,0.0,0.0,0.0,0.0,0.0,0.0,0,-0.18000000719999998,0.5,0.1997523159,0.3853417039,90.0,60.0,60.0,89.7633895874,119.87550354,120.2574768066,38.9899978638,15.797131538399999,26.0499992371,2,-1,10,1,56,489
51,1532114280432,426432, AUTO,0,40.0434592604,-88.2344147,0,-104.81925449149999,453.4256353791,465.38358687339996,-106.7476686227,453.683410527,0.2942943871,0.0,-106.9397781074,454.5246692468,0.7922118962000001,-20.9440549336,0.0,0.0,1160,1750,40.0475393333,-88.2331606667,0.0,0.0,0.0,0.0,0.0,0.0,0.0,0.0,0.0,0.0,0.0,0.0,0.0,0,-0.6800000072,0.5,0.09987615789999998,0.48871263859999997,90.0,60.0,60.0,89.0631027222,119.81184387209998,118.411277771,38.9899978638,15.797131538399999,26.0499992371,2,-1,10,1,137,498
52,1532114280632,426632, AUTO,0,40.0434592604,-88.2344147,0,-104.81925449149999,453.4256353791,465.38358687339996,-106.7476686227,453.683410527,0.1812669486,0.0,-106.9397781074,454.5246692468,0.7922118962000001,-20.9440549336,0.0,0.0,1590,1750,40.0475393333,-88.2331606667,0.0,0.0,0.0,0.0,0.0,0.0,0.0,0.0,0.0,0.0,0.0,0.0,0.0,0,0.1799999475,0.5,0.12286790460000001,0.2396659851,90.0,60.0,60.0,90.2726821899,119.1115570068,118.9205703735,38.9899978638,15.815503120399999,47.40999603270001,2,-1,10,1,69,508
53,1532114280833,426833, AUTO,0,40.0434592604,-88.2344147,0,-104.4460429561,453.11020938080003,464.99229857529997,-106.3929843772,454.1281902332,0.1937744617,0.0,-106.56656657200001,454.2092432485,0.7743075527,-20.4759244634,0.0,0.0,1590,1750,40.0475433333,-88.2331648333,0.0,0.0,0.0,0.0,0.0,0.0,0.0,0.0,0.0,0.0,0.0,0.0,0.0,0,0.1799999475,0.5,0.085713245,0.301835686,90.0,60.0,60.0,90.20902252200001,119.87550354,118.856918335,38.450996398899996,15.815503120399999,47.40999603270001,2,-1,10,1,57,518
54,1532114281033,427033, AUTO,0,40.0434592604,-88.2344147,0,-104.4460429561,453.11020938080003,464.99229857529997,-106.3929843772,454.1281902332,0.2358953506,0.0,-106.56656657200001,454.2092432485,0.7743075527,-20.4759244634,0.0,0.0,1060,1750,40.0475433333,-88.2331648333,0.0,0.0,0.0,0.0,0.0,0.0,0.0,0.0,0.0,0.0,0.0,0.0,0.0,0,-0.8799999951999999,0.5,0.0750450715,0.3967456222,90.0,60.0,60.0,88.9994430542,116.5014190674,121.7217025757,38.450996398899996,15.815503120399999,47.40999603270001,2,-1,10,1,51,528
55,1532114281233,427233, AUTO,0,40.0434592604,-88.2344147,0,-104.4460429561,453.11020938080003,464.99229857529997,-106.3929843772,454.1281902332,0.2786599994,0.0,-106.56656657200001,454.2092432485,0.7743075527,-20.4759244634,0.0,0.0,1970,1750,40.0475433333,-88.2331648333,0.0,0.0,0.0,0.0,0.0,0.0,0.0,0.0,0.0,0.0,0.0,0.0,0.0,0,0.9400000572,0.5,0.1541366875,0.40318331119999995,90.0,60.0,60.0,88.1718444824,122.5493011475,116.7560577393,38.450996398899996,15.815503120399999,47.40999603270001,2,-1,10,1,53,538
56,1532114281434,427434, AUTO,0,40.0434592604,-88.2344147,0,-104.4460429561,453.11020938080003,464.99229857529997,-106.3929843772,454.1281902332,0.31958529350000003,0.0,-106.56656657200001,454.2092432485,0.7743075527,-20.4759244634,0.0,0.0,1400,1750,40.0475433333,-88.2331648333,0.0,0.0,0.0,0.0,0.0,0.0,0.0,0.0,0.0,0.0,0.0,0.0,0.0,0,-0.1999999881,0.5,0.21557064350000002,0.42359995840000003,90.0,60.0,60.0,89.44507598879999,118.0293045044,121.2124023438,38.450996398899996,15.815503120399999,47.40999603270001,2,-1,10,1,87,548
57,1532114281634,427634, AUTO,0,40.0434592604,-88.2344147,0,-104.4460429561,453.11020938080003,464.99229857529997,-106.3929843772,454.1281902332,0.3246434927,0.0,-106.56656657200001,454.2092432485,0.7743075527,-20.4759244634,0.0,0.0,1650,1750,40.0475433333,-88.2331648333,0.0,0.0,0.0,0.0,0.0,0.0,0.0,0.0,0.0,0.0,0.0,0.0,0.0,0,0.2999999523,0.5,0.1782320291,0.4710549414,90.0,60.0,60.0,89.82704925540001,119.3025436401,120.51211547850001,38.450996398899996,15.7857027054,31.9500007629,2,-1,10,1,90,558
58,1532114281835,427835, AUTO,0,40.0434592604,-88.2344147,0,-104.6233441825,452.97053326660006,464.8960616694,-106.20855591,453.31276077169997,0.30450272559999997,0.0,-106.7438677984,454.06956713430003,0.8043022717,-20.645751899100002,0.0,0.0,1470,1750,40.047536,-88.233167,0.0,0.0,0.0,0.0,0.0,0.0,0.0,0.0,0.0,0.0,0.0,0.0,0.0,0,-0.0600000024,0.5,0.20821328460000002,0.40079215170000004,90.0,60.0,60.0,89.7633895874,118.411277771,121.1487426758,38.9899978638,15.7857027054,31.9500007629,2,-1,10,1,85,566
59,1532114282035,428035, AUTO,0,40.0434592604,-88.2344147,0,-104.6233441825,452.97053326660006,464.8960616694,-106.20855591,453.31276077169997,0.3891123533,0.0,-106.7438677984,454.06956713430003,0.8043022717,-20.645751899100002,0.0,0.0,1520,1750,40.047536,-88.233167,0.0,0.0,0.0,0.0,0.0,0.0,0.0,0.0,0.0,0.0,0.0,0.0,0.0,0,0.0399999619,0.5,0.2659685612,0.5122561455,90.0,60.0,60.0,89.25408935549999,120.19381713870001,120.32112884520001,38.9899978638,15.7857027054,31.9500007629,2,-1,10,1,60,576
60,1532114282235,428235, AUTO,0,40.0434592604,-88.2344147,0,-104.6233441825,452.97053326660006,464.8960616694,-106.20855591,453.31276077169997,0.38497382399999996,0.0,-106.7438677984,454.06956713430003,0.8043022717,-20.645751899100002,0.0,0.0,1510,1750,40.047536,-88.233167,0.0,0.0,0.0,0.0,0.0,0.0,0.0,0.0,0.0,0.0,0.0,0.0,0.0,0,0.019999980900000002,0.5,0.2301014215,0.5398462414999999,90.0,60.0,60.0,89.6997299194,119.87550354,118.4749450684,38.9899978638,15.7857027054,31.9500007629,2,-1,10,1,89,588
61,1532114282436,428436, AUTO,0,40.0434592604,-88.2344147,0,-104.6233441825,452.97053326660006,464.8960616694,-106.20855591,453.31276077169997,0.4009761214,0.0,-106.7438677984,454.06956713430003,0.8043022717,-20.645751899100002,0.0,0.0,1440,1750,40.047536,-88.233167,0.0,0.0,0.0,0.0,0.0,0.0,0.0,0.0,0.0,0.0,0.0,0.0,0.0,0,-0.1200000048,0.5,0.2762688398,0.5256834029999999,90.0,60.0,60.0,90.01803588870001,117.77465820309999,121.3397293091,38.9899978638,15.7857027054,31.9500007629,2,-1,10,1,111,598
62,1532114282636,428636, AUTO,0,40.0434592604,-88.2344147,0,-104.6233441825,452.97053326660006,464.8960616694,-106.20855591,453.31276077169997,0.3993207216,0.0,-106.7438677984,454.06956713430003,0.8043022717,-20.645751899100002,0.0,0.0,1490,1750,40.047536,-88.233167,0.0,0.0,0.0,0.0,0.0,0.0,0.0,0.0,0.0,0.0,0.0,0.0,0.0,0,-0.019999980900000002,0.5,0.2738777101,0.5247637033,90.0,60.0,60.0,89.6997299194,120.2574768066,118.6022567749,38.9899978638,15.7773332596,45.590000152600005,2,-1,10,1,145,606
63,1532114282836,428836, AUTO,0,40.0434592604,-88.2344147,0,-104.2322421647,452.5096805792,464.3590973854,-105.9673816783,452.0340191159,0.39444643259999995,0.0,-106.3527657806,453.6087144469,0.8961087668000001,-20.2261496363,0.0,0.0,1520,1750,40.0475245,-88.2331698333,0.0,0.0,0.0,0.0,0.0,0.0,0.0,0.0,0.0,0.0,0.0,0.0,0.0,0,0.0399999619,0.5,0.2554843128,0.5334085822,90.0,60.0,60.0,89.63606262209998,119.939163208,118.7932434082,38.9899978638,15.7773332596,45.590000152600005,2,-1,10,1,106,614
64,1532114283037,429037, AUTO,0,40.0434592604,-88.2344147,0,-104.2322421647,452.5096805792,464.3590973854,-105.9673816783,452.0340191159,0.38598549369999996,0.0,-106.3527657806,453.6087144469,0.8961087668000001,-20.2261496363,0.0,0.0,1400,1750,40.0475245,-88.2331698333,0.0,0.0,0.0,0.0,0.0,0.0,0.0,0.0,0.0,0.0,0.0,0.0,0.0,0,-0.1999999881,0.5,0.2621059418,0.5098650455,90.0,60.0,60.0,89.9543762207,118.4749450684,120.2574768066,38.9899978638,15.7773332596,45.590000152600005,2,-1,10,1,91,621
65,1532114283237,429237, AUTO,0,40.0434592604,-88.2344147,0,-104.2322421647,452.5096805792,464.3590973854,-105.9673816783,452.0340191159,0.3818469644,0.0,-106.3527657806,453.6087144469,0.8961087668000001,-20.2261496363,0.0,0.0,1530,1750,40.0475245,-88.2331698333,0.0,0.0,0.0,0.0,0.0,0.0,0.0,0.0,0.0,0.0,0.0,0.0,0.0,0,0.059999942800000004,0.5,0.2821547389,0.4815391898,90.0,60.0,60.0,89.82704925540001,119.1752166748,119.87550354,38.9899978638,15.7773332596,45.590000152600005,2,-1,10,1,67,628
66,1532114283437,429437, AUTO,0,40.0434592604,-88.2344147,0,-104.2322421647,452.5096805792,464.3590973854,-105.9673816783,452.0340191159,0.3627178371,0.0,-106.3527657806,453.6087144469,0.8961087668000001,-20.2261496363,0.0,0.0,1550,1750,40.0475245,-88.2331698333,0.0,0.0,0.0,0.0,0.0,0.0,0.0,0.0,0.0,0.0,0.0,0.0,0.0,0,0.1000000238,0.5,0.2352515757,0.4901840985,90.0,60.0,60.0,89.9543762207,119.3025436401,119.0479049683,38.9899978638,15.7773332596,45.590000152600005,2,-1,10,1,83,636
67,1532114283638,429638, AUTO,0,40.0434592604,-88.2344147,0,-104.2322421647,452.5096805792,464.3590973854,-105.9673816783,452.0340191159,0.34800311920000004,0.0,-106.3527657806,453.6087144469,0.8961087668000001,-20.2261496363,0.0,0.0,1520,1750,40.0475245,-88.2331698333,0.0,0.0,0.0,0.0,0.0,0.0,0.0,0.0,0.0,0.0,0.0,0.0,0.0,0,0.0399999619,0.5,0.2221922725,0.4738139808,90.0,60.0,60.0,89.1904296875,118.4749450684,119.87550354,38.9899978638,15.753970146199999,13.1399993896,2,-1,10,1,203,647
68,1532114283839,429839, AUTO,0,40.0434592604,-88.2344147,0,-104.2322421647,452.5096805792,464.3590973854,-105.7120166683,451.25565462839995,0.3747655153,0.0,-106.3527657806,453.6087144469,0.8961087668000001,-20.2261496363,0.0,0.0,1550,1750,40.0475175,-88.2331728333,0.0,0.0,0.0,0.0,0.0,0.0,0.0,0.0,0.0,0.0,0.0,0.0,0.0,0,0.1000000238,0.5,0.2926389575,0.45689204340000006,90.0,60.0,60.0,89.7633895874,119.1115570068,119.3662033081,38.9899978638,15.753970146199999,13.1399993896,2,-1,10,1,139,657
69,1532114284039,430039, AUTO,0,40.0434592604,-88.2344147,0,-104.4134272172,452.0618125075,463.96341031459997,-105.7120166683,451.25565462839995,0.3896641433,0.0,-106.5339508331,453.1608463752,1.0537203340999999,-20.4851264348,0.0,0.0,1600,1750,40.0475175,-88.2331728333,0.0,0.0,0.0,0.0,0.0,0.0,0.0,0.0,0.0,0.0,0.0,0.0,0.0,0,0.2000000477,0.5,0.3220683932,0.45725989340000006,90.0,60.0,60.0,89.5724029541,120.00283050540001,118.53860473629999,38.450996398899996,15.753970146199999,13.1399993896,2,-1,10,1,170,667
70,1532114284240,430240, AUTO,0,40.0434592604,-88.2344147,0,-104.4134272172,452.0618125075,463.96341031459997,-105.7120166683,451.25565462839995,0.37559321520000005,0.0,-106.5339508331,453.1608463752,1.0537203340999999,-20.4851264348,0.0,0.0,1580,1750,40.0475175,-88.2331728333,0.0,0.0,0.0,0.0,0.0,0.0,0.0,0.0,0.0,0.0,0.0,0.0,0.0,0,0.15999996660000002,0.5,0.31507894399999997,0.4361074865,90.0,60.0,60.0,88.74479675290002,119.42987060549999,119.3025436401,38.450996398899996,15.753970146199999,13.1399993896,2,-1,10,1,93,678
71,1532114284441,430441, AUTO,0,40.0434592604,-88.2344147,0,-104.4134272172,452.0618125075,463.96341031459997,-105.7120166683,451.25565462839995,0.34754326939999997,0.0,-106.5339508331,453.1608463752,1.0537203340999999,-20.4851264348,0.0,0.0,1500,1750,40.0475175,-88.2331728333,0.0,0.0,0.0,0.0,0.0,0.0,0.0,0.0,0.0,0.0,0.0,0.0,0.0,0,0.0,0.5,0.268175751,0.4269107878,90.0,60.0,60.0,89.9543762207,118.6659317017,119.3662033081,38.450996398899996,15.753970146199999,13.1399993896,2,-1,10,1,117,688
72,1532114284641,430641, AUTO,0,40.0434592604,-88.2344147,0,-104.4134272172,452.0618125075,463.96341031459997,-105.7120166683,451.25565462839995,0.3409216404,0.0,-106.5339508331,453.1608463752,1.0537203340999999,-20.4851264348,0.0,0.0,1630,1750,40.0475175,-88.2331728333,0.0,0.0,0.0,0.0,0.0,0.0,0.0,0.0,0.0,0.0,0.0,0.0,0.0,0,0.2599999905,0.5,0.2816029489,0.4002403617,90.0,60.0,60.0,90.5909881592,120.19381713870001,118.4749450684,38.450996398899996,15.744728088399999,42.949996948199995,2,-1,10,1,218,698
73,1532114284842,430842, AUTO,0,40.0434592604,-88.2344147,0,-103.92739711440001,451.6637821987,463.4663698922,-105.91063799930001,451.2741871165,0.3059741855,0.0,-106.0479207303,452.7628160664,1.0968439439,-20.0865809575,0.0,0.0,1560,1750,40.0475176667,-88.2331705,0.0,0.0,0.0,0.0,0.0,0.0,0.0,0.0,0.0,0.0,0.0,0.0,0.0,0,0.1200000048,0.5,0.247759074,0.3641893268,90.0,60.0,60.0,89.82704925540001,119.1115570068,119.1752166748,38.450996398899996,15.744728088399999,42.949996948199995,2,-1,10,1,313,708
74,1532114285046,431046, AUTO,0,40.0434592604,-88.2344147,0,-103.92739711440001,451.6637821987,463.4663698922,-105.91063799930001,451.2741871165,0.3559122682,0.0,-106.0479207303,452.7628160664,1.0968439439,-20.0865809575,0.0,0.0,1600,1750,40.0475176667,-88.2331705,0.0,0.0,0.0,0.0,0.0,0.0,0.0,0.0,0.0,0.0,0.0,0.0,0.0,0,0.2000000477,0.5,0.2804993391,0.43132522700000003,90.0,60.0,60.0,89.5724029541,119.7481765747,118.6659317017,38.450996398899996,15.744728088399999,42.949996948199995,2,-1,10,1,140,716
75,1532114285247,431247, AUTO,0,40.0434592604,-88.2344147,0,-103.92739711440001,451.6637821987,463.4663698922,-105.91063799930001,451.2741871165,0.37734055520000004,0.0,-106.0479207303,452.7628160664,1.0968439439,-20.0865809575,0.0,0.0,1640,1750,40.0475176667,-88.2331705,0.0,0.0,0.0,0.0,0.0,0.0,0.0,0.0,0.0,0.0,0.0,0.0,0.0,0,0.2799999714,0.5,0.37927186490000003,0.3754092753,90.0,60.0,60.0,89.8907089233,118.15663146969999,119.939163208,38.450996398899996,15.744728088399999,42.949996948199995,2,-1,10,1,147,724
76,1532114285447,431447, AUTO,0,40.0434592604,-88.2344147,0,-103.92739711440001,451.6637821987,463.4663698922,-105.91063799930001,451.2741871165,0.314986974,0.0,-106.0479207303,452.7628160664,1.0968439439,-20.0865809575,0.0,0.0,1530,1750,40.0475176667,-88.2331705,0.0,0.0,0.0,0.0,0.0,0.0,0.0,0.0,0.0,0.0,0.0,0.0,0.0,0,0.059999942800000004,0.5,0.2689115107,0.3610624373,90.0,60.0,60.0,89.5087432861,118.72959136959999,119.3662033081,38.450996398899996,15.744728088399999,42.949996948199995,2,-1,10,1,58,735
77,1532114285648,431648, AUTO,0,40.0434592604,-88.2344147,0,-103.92739711440001,451.6637821987,463.4663698922,-105.91063799930001,451.2741871165,0.3343920112,0.0,-106.0479207303,452.7628160664,1.0968439439,-20.0865809575,0.0,0.0,1580,1750,40.0475176667,-88.2331705,0.0,0.0,0.0,0.0,0.0,0.0,0.0,0.0,0.0,0.0,0.0,0.0,0.0,0,0.15999996660000002,0.5,0.3303454518,0.3384385407,90.0,60.0,60.0,88.4264831543,118.7932434082,120.7031021118,38.450996398899996,15.7378969193,69.3499984741,2,-1,10,1,58,746
78,1532114285849,431849, AUTO,0,40.0434592604,-88.2344147,0,-104.3244959327,451.248384671,463.1508448873,-106.2085709701,451.1629921901,0.35370507840000004,0.0,-106.4450195486,452.3474185387,1.1251053261,-20.4251283678,0.0,0.0,1600,1750,40.0475166667,-88.233167,0.0,0.0,0.0,0.0,0.0,0.0,0.0,0.0,0.0,0.0,0.0,0.0,0.0,0,0.2000000477,0.5,0.3332884014,0.3741217554,90.0,60.0,60.0,93.1374740601,121.2124023438,117.9019851685,38.450996398899996,15.7378969193,69.3499984741,2,-1,10,1,65,754
79,1532114286050,432050, AUTO,0,40.0434592604,-88.2344147,0,-104.3244959327,451.248384671,463.1508448873,-106.2085709701,451.1629921901,0.35628014799999996,0.0,-106.4450195486,452.3474185387,1.1251053261,-20.4251283678,0.0,0.0,1630,1750,40.0475166667,-88.233167,0.0,0.0,0.0,0.0,0.0,0.0,0.0,0.0,0.0,0.0,0.0,0.0,0.0,0,0.2599999905,0.5,0.37044307590000003,0.3421172202,90.0,60.0,60.0,89.5087432861,119.3025436401,119.3662033081,37.9140014648,15.7378969193,69.3499984741,2,-1,10,1,59,761
80,1532114286250,432250, AUTO,0,40.0434592604,-88.2344147,0,-104.3244959327,451.248384671,463.1508448873,-106.2085709701,451.1629921901,0.335955441,0.0,-106.4450195486,452.3474185387,1.1251053261,-20.4251283678,0.0,0.0,1610,1750,40.0475166667,-88.233167,0.0,0.0,0.0,0.0,0.0,0.0,0.0,0.0,0.0,0.0,0.0,0.0,0.0,0,0.22000002859999998,0.5,0.3445083797,0.3274025023,90.0,60.0,60.0,88.93578338620001,119.1115570068,119.0479049683,37.9140014648,15.7378969193,69.3499984741,2,-1,10,1,41,769
81,1532114286451,432451, AUTO,0,40.0434592604,-88.2344147,0,-104.3244959327,451.248384671,463.1508448873,-106.2085709701,451.1629921901,0.2905237675,0.0,-106.4450195486,452.3474185387,1.1251053261,-20.4251283678,0.0,0.0,1650,1750,40.0475166667,-88.233167,0.0,0.0,0.0,0.0,0.0,0.0,0.0,0.0,0.0,0.0,0.0,0.0,0.0,0,0.2999999523,0.5,0.253277123,0.3277703822,90.0,60.0,60.0,90.5909881592,119.1752166748,120.51211547850001,37.9140014648,15.7378969193,69.3499984741,2,-1,10,1,43,777
82,1532114286652,432652, AUTO,0,40.0434592604,-88.2344147,0,-104.3244959327,451.248384671,463.1508448873,-106.2085709701,451.1629921901,0.3091010451,0.0,-106.4450195486,452.3474185387,1.1251053261,-20.4251283678,0.0,0.0,1610,1750,40.0475166667,-88.233167,0.0,0.0,0.0,0.0,0.0,0.0,0.0,0.0,0.0,0.0,0.0,0.0,0.0,0,0.22000002859999998,0.5,0.2930068374,0.3251952827,90.0,60.0,60.0,89.1904296875,118.53860473629999,119.1752166748,37.9140014648,15.7359342575,74.1399993896,2,-1,10,1,45,785
83,1532114286852,432852, AUTO,0,40.0434592604,-88.2344147,0,-104.3244959327,451.248384671,463.1508448873,-106.29369185690001,451.5336419454,0.29401847719999996,0.0,-106.4450195486,452.3474185387,1.1251053261,-20.4251283678,0.0,0.0,1610,1750,40.04752,-88.233166,0.0,0.0,0.0,0.0,0.0,0.0,0.0,0.0,0.0,0.0,0.0,0.0,0.0,0,0.22000002859999998,0.5,0.24205712969999998,0.3459798396,90.0,60.0,60.0,88.74479675290002,119.81184387209998,118.9205703735,37.9140014648,15.7359342575,74.1399993896,2,-1,10,1,78,793
84,1532114287053,433053, AUTO,0,40.0434592604,-88.2344147,0,-103.9027021913,451.0569143634,462.8694324728,-106.29369185690001,451.5336419454,0.3057902455,0.0,-106.02322580719999,452.1559482311,1.0985633812,-20.1150826042,0.0,0.0,1610,1750,40.04752,-88.233166,0.0,0.0,0.0,0.0,0.0,0.0,0.0,0.0,0.0,0.0,0.0,0.0,0.0,0,0.22000002859999998,0.5,0.2556682527,0.3559122682,90.0,60.0,60.0,89.9543762207,117.8383178711,121.0850753784,37.9140014648,15.7359342575,74.1399993896,2,-1,10,1,58,803
85,1532114287254,433254, AUTO,0,40.0434592604,-88.2344147,0,-103.9027021913,451.0569143634,462.8694324728,-106.29369185690001,451.5336419454,0.2605425119,0.0,-106.02322580719999,452.1559482311,1.0985633812,-20.1150826042,0.0,0.0,1580,1750,40.04752,-88.233166,0.0,0.0,0.0,0.0,0.0,0.0,0.0,0.0,0.0,0.0,0.0,0.0,0.0,0,0.15999996660000002,0.5,0.27111870050000003,0.2499662936,90.0,60.0,60.0,89.7633895874,119.2388916016,118.53860473629999,37.9140014648,15.7359342575,74.1399993896,2,-1,10,1,71,815
86,1532114287454,433454, AUTO,0,40.0434592604,-88.2344147,0,-103.9027021913,451.0569143634,462.8694324728,-106.29369185690001,451.5336419454,0.1950619966,0.0,-106.02322580719999,452.1559482311,1.0985633812,-20.1150826042,0.0,0.0,1600,1750,40.04752,-88.233166,0.0,0.0,0.0,0.0,0.0,0.0,0.0,0.0,0.0,0.0,0.0,0.0,0.0,0,0.2000000477,0.5,0.1585510969,0.23157289620000002,90.0,60.0,60.0,89.25408935549999,119.3662033081,119.3025436401,37.9140014648,15.7359342575,74.1399993896,2,-1,10,1,68,825
87,1532114287655,433655, AUTO,0,40.0434592604,-88.2344147,0,-103.9027021913,451.0569143634,462.8694324728,-106.29369185690001,451.5336419454,0.2289058566,0.0,-106.02322580719999,452.1559482311,1.0985633812,-20.1150826042,0.0,0.0,1600,1750,40.04752,-88.233166,0.0,0.0,0.0,0.0,0.0,0.0,0.0,0.0,0.0,0.0,0.0,0.0,0.0,0,0.2000000477,0.5,0.22899781170000003,0.2288138866,90.0,60.0,60.0,89.44507598879999,118.9842300415,119.6845169067,37.9140014648,15.7165145874,39.3700027466,2,-1,10,1,58,835
88,1532114287856,433856, AUTO,0,40.0434592604,-88.2344147,0,-104.3511465874,450.6200144068,462.544656415,-106.4639458468,450.5328876059,0.24214911460000002,0.0,-106.4716702033,451.7190482745,1.147294254,-20.480979983599997,0.0,0.0,1600,1750,40.047511,-88.233164,0.0,0.0,0.0,0.0,0.0,0.0,0.0,0.0,0.0,0.0,0.0,0.0,0.0,0,0.2000000477,0.5,0.2069257349,0.2654167414,90.0,60.0,60.0,88.9994430542,119.3662033081,118.9205703735,37.9140014648,15.7165145874,39.3700027466,2,-1,10,1,46,845
89,1532114288058,434058, AUTO,0,40.0434592604,-88.2344147,0,-104.3511465874,450.6200144068,462.544656415,-106.4639458468,450.5328876059,0.23157288129999998,0.0,-106.4716702033,451.7190482745,1.147294254,-20.480979983599997,0.0,0.0,1600,1750,40.047511,-88.233164,0.0,0.0,0.0,0.0,0.0,0.0,0.0,0.0,0.0,0.0,0.0,0.0,0.0,0,0.2000000477,0.5,0.1390540898,0.3240916729,90.0,60.0,60.0,91.67324829100001,121.91268920899999,117.2017059326,37.3759994507,15.7165145874,39.3700027466,2,-1,10,1,68,854
90,1532114288259,434259, AUTO,0,40.0434592604,-88.2344147,0,-104.3511465874,450.6200144068,462.544656415,-106.4639458468,450.5328876059,0.32105678320000003,0.0,-106.4716702033,451.7190482745,1.147294254,-20.480979983599997,0.0,0.0,1250,1750,40.047511,-88.233164,0.0,0.0,0.0,0.0,0.0,0.0,0.0,0.0,0.0,0.0,0.0,0.0,0.0,0,-0.5,0.5,0.2444482595,0.397665292,90.0,60.0,60.0,88.4264831543,115.9921188354,122.29466247559999,37.3759994507,15.7165145874,39.3700027466,2,-1,10,1,38,862
91,1532114288459,434459, AUTO,0,40.0434592604,-88.2344147,0,-104.3511465874,450.6200144068,462.544656415,-106.4639458468,450.5328876059,0.39131957289999997,0.0,-106.4716702033,451.7190482745,1.147294254,-20.480979983599997,0.0,0.0,1540,1750,40.047511,-88.233164,0.0,0.0,0.0,0.0,0.0,0.0,0.0,0.0,0.0,0.0,0.0,0.0,0.0,0,0.0800000429,0.5,0.15597602730000001,0.6266631484,90.0,60.0,60.0,87.7898712158,122.3583145142,117.58367156979999,37.3759994507,15.7165145874,39.3700027466,2,-1,10,1,44,870
92,1532114288660,434660, AUTO,0,40.0434592604,-88.2344147,0,-104.3511465874,450.6200144068,462.544656415,-106.4639458468,450.5328876059,0.4281983376,0.0,-106.4716702033,451.7190482745,1.147294254,-20.480979983599997,0.0,0.0,1410,1750,40.047511,-88.233164,0.0,0.0,0.0,0.0,0.0,0.0,0.0,0.0,0.0,0.0,0.0,0.0,0.0,0,-0.18000000719999998,0.5,0.2063739449,0.6500227451,90.0,60.0,60.0,88.74479675290002,119.1752166748,119.3662033081,37.3759994507,15.7317562103,57.0800018311,2,-1,10,1,38,881
93,1532114288861,434861, AUTO,0,40.0434592604,-88.2344147,0,-104.04925343059999,450.3218982195,462.1861736957,-107.00306218370001,450.4031601914,0.42314013840000003,0.0,-106.1697770465,451.4209320872,1.2343297186,-20.2220710842,0.0,0.0,1470,1750,40.0475098333,-88.2331576667,0.0,0.0,0.0,0.0,0.0,0.0,0.0,0.0,0.0,0.0,0.0,0.0,0.0,0,-0.0600000024,0.5,0.20802934469999998,0.6382509470000001,90.0,60.0,60.0,89.44507598879999,120.19381713870001,118.411277771,37.3759994507,15.7317562103,57.0800018311,2,-1,10,1,105,892
94,1532114289061,435061, AUTO,0,40.0434592604,-88.2344147,0,-104.04925343059999,450.3218982195,462.1861736957,-107.00306218370001,450.4031601914,0.4294858873,0.0,-106.1697770465,451.4209320872,1.2343297186,-20.2220710842,0.0,0.0,1470,1750,40.0475098333,-88.2331576667,0.0,0.0,0.0,0.0,0.0,0.0,0.0,0.0,0.0,0.0,0.0,0.0,0.0,0,-0.0600000024,0.5,0.2164903134,0.6424814463,90.0,60.0,60.0,88.8084564209,119.6845169067,118.9842300415,37.3759994507,15.7317562103,57.0800018311,2,-1,10,1,91,902
95,1532114289262,435262, AUTO,0,40.0434592604,-88.2344147,0,-104.04925343059999,450.3218982195,462.1861736957,-107.00306218370001,450.4031601914,0.4674682319,0.0,-106.1697770465,451.4209320872,1.2343297186,-20.2220710842,0.0,0.0,1480,1750,40.0475098333,-88.2331576667,0.0,0.0,0.0,0.0,0.0,0.0,0.0,0.0,0.0,0.0,0.0,0.0,0.0,0,-0.040000021499999996,0.5,0.24297679960000002,0.6919596791,90.0,60.0,60.0,89.82704925540001,119.3662033081,119.3662033081,37.3759994507,15.7317562103,57.0800018311,2,-1,10,1,271,911
96,1532114289463,435463, AUTO,0,40.0434592604,-88.2344147,0,-104.04925343059999,450.3218982195,462.1861736957,-107.00306218370001,450.4031601914,0.42323210840000003,0.0,-106.1697770465,451.4209320872,1.2343297186,-20.2220710842,0.0,0.0,1430,1750,40.0475098333,-88.2331576667,0.0,0.0,0.0,0.0,0.0,0.0,0.0,0.0,0.0,0.0,0.0,0.0,0.0,0,-0.1399999857,0.5,0.2049024701,0.6415617466,90.0,60.0,60.0,90.145362854,118.411277771,121.1487426758,37.3759994507,15.7317562103,57.0800018311,2,-1,10,1,129,919
97,1532114289664,435664, AUTO,0,40.0434592604,-88.2344147,0,-104.04925343059999,450.3218982195,462.1861736957,-107.00306218370001,450.4031601914,0.4560643435,0.0,-106.1697770465,451.4209320872,1.2343297186,-20.2220710842,0.0,0.0,1560,1750,40.0475098333,-88.2331576667,0.0,0.0,0.0,0.0,0.0,0.0,0.0,0.0,0.0,0.0,0.0,0.0,0.0,0,0.1200000048,0.5,0.2335961759,0.6785324812000001,90.0,60.0,60.0,88.93578338620001,120.8940887451,117.6473312378,37.3759994507,15.7388019562,74.2300033569,2,-1,10,1,210,927
98,1532114289864,435864, AUTO,0,40.0434592604,-88.2344147,0,-104.34781105379999,450.0081741031,461.94785683160006,-106.2369504,450.458757655,0.4028154314,0.0,-106.4683346697,451.1072079708,1.2211971853,-20.4409959157,0.0,0.0,1480,1750,40.047510333299996,-88.2331666667,0.0,0.0,0.0,0.0,0.0,0.0,0.0,0.0,0.0,0.0,0.0,0.0,0.0,0,-0.040000021499999996,0.5,0.22862994670000003,0.577000916,90.0,60.0,60.0,90.6546554565,118.856918335,119.81184387209998,37.3759994507,15.7388019562,74.2300033569,2,-1,10,1,153,935
99,1532114290065,436065, AUTO,0,40.0434592604,-88.2344147,0,-104.34781105379999,450.0081741031,461.94785683160006,-106.2369504,450.458757655,0.4124719799,0.0,-106.4683346697,451.1072079708,1.2211971853,-20.4409959157,0.0,0.0,1530,1750,40.047510333299996,-88.2331666667,0.0,0.0,0.0,0.0,0.0,0.0,0.0,0.0,0.0,0.0,0.0,0.0,0.0,0,0.059999942800000004,0.5,0.25456464289999997,0.5703793168,90.0,60.0,60.0,89.6997299194,119.4935302734,118.856918335,37.9140014648,15.7388019562,74.2300033569,2,-1,10,1,138,945
100,1532114290266,436266, AUTO,0,40.0434592604,-88.2344147,0,-104.34781105379999,450.0081741031,461.94785683160006,-106.2369504,450.458757655,0.41596671939999996,0.0,-106.4683346697,451.1072079708,1.2211971853,-20.4409959157,0.0,0.0,1370,1750,40.047510333299996,-88.2331666667,0.0,0.0,0.0,0.0,0.0,0.0,0.0,0.0,0.0,0.0,0.0,0.0,0.0,0,-0.2599999905,0.5,0.2560361028,0.575897336,90.0,60.0,60.0,90.0816955566,119.0479049683,119.42987060549999,37.9140014648,15.7388019562,74.2300033569,2,-1,10,1,144,956
101,1532114290466,436466, AUTO,0,40.0434592604,-88.2344147,0,-104.34781105379999,450.0081741031,461.94785683160006,-106.2369504,450.458757655,0.3945384324,0.0,-106.4683346697,451.1072079708,1.2211971853,-20.4409959157,0.0,0.0,1500,1750,40.047510333299996,-88.2331666667,0.0,0.0,0.0,0.0,0.0,0.0,0.0,0.0,0.0,0.0,0.0,0.0,0.0,0,0.0,0.5,0.23396402600000002,0.5551128386999999,90.0,60.0,60.0,89.1904296875,119.1752166748,120.2574768066,37.9140014648,15.7388019562,74.2300033569,2,-1,10,1,177,965
102,1532114290667,436667, AUTO,0,40.0434592604,-88.2344147,0,-104.34781105379999,450.0081741031,461.94785683160006,-106.2369504,450.458757655,0.4210249186,0.0,-106.4683346697,451.1072079708,1.2211971853,-20.4409959157,0.0,0.0,1780,1750,40.047510333299996,-88.2331666667,0.0,0.0,0.0,0.0,0.0,0.0,0.0,0.0,0.0,0.0,0.0,0.0,0.0,0,0.5599999428,0.5,0.2720383704,0.5700114369,90.0,60.0,60.0,89.44507598879999,119.939163208,117.0743713379,37.9140014648,15.7188596725,67.6399993896,2,-1,10,1,138,974
103,1532114290868,436868, AUTO,0,40.0434592604,-88.2344147,0,-104.1205151961,449.8260288073,461.719111449,-106.5348807837,450.7182124832,0.3134235144,0.0,-106.24103881200001,450.925062675,1.1459591913,-20.3014780754,0.0,0.0,1670,1750,40.0475126667,-88.2331631667,0.0,0.0,0.0,0.0,0.0,0.0,0.0,0.0,0.0,0.0,0.0,0.0,0.0,0,0.3400000334,0.5,0.2234797925,0.4033672512,90.0,60.0,60.0,89.82704925540001,118.2202911377,118.4749450684,38.450996398899996,15.7188596725,67.6399993896,2,-1,10,1,43,982
104,1532114291068,437068, AUTO,0,40.0434592604,-88.2344147,0,-104.1205151961,449.8260288073,461.719111449,-106.5348807837,450.7182124832,0.3740297556,0.0,-106.24103881200001,450.925062675,1.1459591913,-20.3014780754,0.0,0.0,1540,1750,40.0475126667,-88.2331631667,0.0,0.0,0.0,0.0,0.0,0.0,0.0,0.0,0.0,0.0,0.0,0.0,0.0,0,0.0800000429,0.5,0.23561944070000002,0.5124400854,90.0,60.0,60.0,89.5087432861,118.856918335,121.0850753784,38.450996398899996,15.7188596725,67.6399993896,2,-1,10,1,48,991
105,1532114291269,437269, AUTO,0,40.0434592604,-88.2344147,0,-104.1205151961,449.8260288073,461.719111449,-106.5348807837,450.7182124832,0.32298809289999997,0.0,-106.24103881200001,450.925062675,1.1459591913,-20.3014780754,0.0,0.0,1520,1750,40.0475126667,-88.2331631667,0.0,0.0,0.0,0.0,0.0,0.0,0.0,0.0,0.0,0.0,0.0,0.0,0.0,0,0.0399999619,0.5,0.2065578699,0.4394183159,90.0,60.0,60.0,89.6997299194,118.6659317017,118.9842300415,38.450996398899996,15.7188596725,67.6399993896,2,-1,10,1,209,999
106,1532114291469,437469, AUTO,0,40.0434592604,-88.2344147,0,-104.1205151961,449.8260288073,461.719111449,-106.5348807837,450.7182124832,0.3129636943,0.0,-106.24103881200001,450.925062675,1.1459591913,-20.3014780754,0.0,0.0,1030,1750,40.0475126667,-88.2331631667,0.0,0.0,0.0,0.0,0.0,0.0,0.0,0.0,0.0,0.0,0.0,0.0,0.0,0,-0.9399999976000001,0.5,0.20306313039999999,0.42286425829999996,90.0,60.0,60.0,89.6997299194,120.0664901733,117.9019851685,38.450996398899996,15.7188596725,67.6399993896,2,-1,10,1,245,1007
107,1532114291670,437670, AUTO,0,40.0434592604,-88.2344147,0,-104.1205151961,449.8260288073,461.719111449,-106.5348807837,450.7182124832,0.42157667880000005,0.0,-106.24103881200001,450.925062675,1.1459591913,-20.3014780754,0.0,0.0,1530,1750,40.0475126667,-88.2331631667,0.0,0.0,0.0,0.0,0.0,0.0,0.0,0.0,0.0,0.0,0.0,0.0,0.0,0,0.059999942800000004,0.5,0.15229734779999998,0.6908560395000001,90.0,60.0,60.0,90.9093093872,119.3662033081,118.9205703735,38.450996398899996,15.7233123779,49.7600021362,2,-1,10,1,214,1015
108,1532114291871,437871, AUTO,0,40.0434592604,-88.2344147,0,-104.4524310118,449.5506606929,461.5258463767,-107.0030644073,450.088107899,0.335863471,0.0,-106.5729546277,450.6496945606,1.0790101061,-20.5084570236,0.0,0.0,1520,1750,40.047507,-88.2331576667,0.0,0.0,0.0,0.0,0.0,0.0,0.0,0.0,0.0,0.0,0.0,0.0,0.0,0,0.0399999619,0.5,0.1752890944,0.4964378476,90.0,60.0,60.0,89.63606262209998,117.2653579712,121.6580352783,38.450996398899996,15.7233123779,49.7600021362,2,-1,10,1,59,1023
109,1532114292071,438071, AUTO,0,40.0434592604,-88.2344147,0,-104.4524310118,449.5506606929,461.5258463767,-107.0030644073,450.088107899,0.3661206067,0.0,-106.5729546277,450.6496945606,1.0790101061,-20.5084570236,0.0,0.0,1570,1750,40.047507,-88.2331576667,0.0,0.0,0.0,0.0,0.0,0.0,0.0,0.0,0.0,0.0,0.0,0.0,0.0,0,0.1399999857,0.5,0.27406165,0.4581795633,90.0,60.0,60.0,88.4264831543,120.9577560425,117.2653579712,38.450996398899996,15.7233123779,49.7600021362,2,-1,10,1,201,1031
110,1532114292272,438272, AUTO,0,40.0434592604,-88.2344147,0,-104.4524310118,449.5506606929,461.5258463767,-107.0030644073,450.088107899,0.3689715862,0.0,-106.5729546277,450.6496945606,1.0790101061,-20.5084570236,0.0,0.0,1460,1750,40.047507,-88.2331576667,0.0,0.0,0.0,0.0,0.0,0.0,0.0,0.0,0.0,0.0,0.0,0.0,0.0,0,-0.07999998330000001,0.5,0.2692793608,0.46866381170000004,90.0,60.0,60.0,89.82704925540001,118.9842300415,118.2839584351,38.450996398899996,15.7233123779,49.7600021362,2,-1,10,1,220,1039
111,1532114292473,438473, AUTO,0,40.0434592604,-88.2344147,0,-104.4524310118,449.5506606929,461.5258463767,-107.0030644073,450.088107899,0.3283221722,0.0,-106.5729546277,450.6496945606,1.0790101061,-20.5084570236,0.0,0.0,1560,1750,40.047507,-88.2331576667,0.0,0.0,0.0,0.0,0.0,0.0,0.0,0.0,0.0,0.0,0.0,0.0,0.0,0,0.1200000048,0.5,0.3064340353,0.350210309,90.0,60.0,60.0,91.0366287231,118.53860473629999,120.0664901733,38.450996398899996,15.721055984500001,36.5599975586,2,-1,10,1,184,1047
112,1532114292673,438673, AUTO,0,40.0434592604,-88.2344147,0,-104.4524310118,449.5506606929,461.5258463767,-107.0030644073,450.088107899,0.3666723967,0.0,-106.5729546277,450.6496945606,1.0790101061,-20.5084570236,0.0,0.0,1580,1750,40.047507,-88.2331576667,0.0,0.0,0.0,0.0,0.0,0.0,0.0,0.0,0.0,0.0,0.0,0.0,0.0,0,0.15999996660000002,0.5,0.2909835577,0.4423612356,90.0,60.0,60.0,89.3177566528,119.3025436401,120.8940887451,38.450996398899996,15.721055984500001,36.5599975586,2,-1,10,1,226,1055
113,1532114292874,438874, AUTO,0,40.0434592604,-88.2344147,0,-104.4254146473,449.2299119766,461.20730809339994,-107.2726284206,449.1985484858,0.309376955,0.0,-106.5459382632,450.3289458443,1.0926718815,-20.4616902026,0.0,0.0,1610,1750,40.047499,-88.2331545,0.0,0.0,0.0,0.0,0.0,0.0,0.0,0.0,0.0,0.0,0.0,0.0,0.0,0,0.22000002859999998,0.5,0.3310811818,0.2876727581,90.0,60.0,60.0,89.9543762207,119.3025436401,118.9842300415,38.450996398899996,15.721055984500001,36.5599975586,2,-1,10,1,292,1063
114,1532114293075,439075, AUTO,0,40.0434592604,-88.2344147,0,-104.4254146473,449.2299119766,461.20730809339994,-107.2726284206,449.1985484858,0.2773724496,0.0,-106.5459382632,450.3289458443,1.0926718815,-20.4616902026,0.0,0.0,1570,1750,40.047499,-88.2331545,0.0,0.0,0.0,0.0,0.0,0.0,0.0,0.0,0.0,0.0,0.0,0.0,0.0,0,0.1399999857,0.5,0.2302853614,0.3244595528,90.0,60.0,60.0,88.8084564209,120.51211547850001,117.39268493649999,38.450996398899996,15.721055984500001,36.5599975586,2,-1,10,1,76,1071
115,1532114293275,439275, AUTO,0,40.0434592604,-88.2344147,0,-104.4254146473,449.2299119766,461.20730809339994,-107.2726284206,449.1985484858,0.3353116512,0.0,-106.5459382632,450.3289458443,1.0926718815,-20.4616902026,0.0,0.0,1670,1750,40.047499,-88.2331545,0.0,0.0,0.0,0.0,0.0,0.0,0.0,0.0,0.0,0.0,0.0,0.0,0.0,0,0.3400000334,0.5,0.2906157076,0.3800076246,90.0,60.0,60.0,90.6546554565,119.5571899414,117.39268493649999,38.450996398899996,15.721055984500001,36.5599975586,2,-1,10,1,107,1079
116,1532114293475,439475, AUTO,0,40.0434592604,-88.2344147,0,-104.4254146473,449.2299119766,461.20730809339994,-107.2726284206,449.1985484858,0.34423246979999994,0.0,-106.5459382632,450.3289458443,1.0926718815,-20.4616902026,0.0,0.0,1610,1750,40.047499,-88.2331545,0.0,0.0,0.0,0.0,0.0,0.0,0.0,0.0,0.0,0.0,0.0,0.0,0.0,0,0.22000002859999998,0.5,0.34082970020000003,0.34763523939999996,90.0,60.0,60.0,89.6997299194,119.4935302734,119.42987060549999,38.450996398899996,15.7346982956,27.710000991799998,2,-1,10,1,299,1087
