,(0)linux time (ms),    (1)uptime  (ms),      (2)drive mode,(3)mpc step counter,(4)mpc origin latitude  (deg),(5)mpc origin longitude  (deg),(6)closest trajectory point index to robot,(7)mpc error x (W;E)  (m),(8)mpc error y (W;E)  (m),(9)abs mpc error (m),(10)input [x] for mhe (m),(11)input [y] for mhe (m),(12)input [speed] for mhe (m/s),(13)input [vyaw] for mhe (rad/s),(14)mhe output x  (m),(15)mhe output y  (m),(16)mhe output speed  (m/s),(17)mhe output yaw  (rad),(18)mpc reference heading (rad),(19)mpc turn rate command (rad/s),(20)turn rate command as PWM,(21)throttle command as PWM,(22)primary gps latitude (deg),(23)primary gps longitude (deg),(24)secondary gps latitude  (deg),(25)secondary gps longitude (deg),(26)accelerometer x (m/s^2),(27)accelerometer y (m/s^2),(28)accelerometer z (m/s^2),(29)gyro yaw rate (rad/s),(30)gyro pitch rate   (rad/s),(31)gyro roll rate (rad/s),      (32)yaw (rad),  (33)pitch   (rad),     (34)roll (rad),(35)sonar1 measurement (m),(36)ultrasonic sensor measurement (m),(37)primary gps time (s),(38)normalized turn rate command,(39)normalized throttle command,(40)speed calculation from encoder left (m/s),(41)speed calculation from encoder right (m/s),(42)front gimbal target angle (degrees from straight down),(43)left gimbal target angle  (degrees from straight down),(44)right gimbal target angle  (degrees from straight down),(45)front gimbal measured angle  (degrees from straight down),(46)left gimbal measured angle    (degrees from straight down),(47)right gimbal measured angle  (degrees from straight down),(48)internal temperature (C),(49)battery voltage (V),(50)primary gps type,(51)secondary gps type,    (52)MPC R value, (53)MPC Q[0] value,Unnamed: 54,weed_num,start
0,1532112833603,313603, AUTO,0,40.0434592604,-88.2344147,0,-104.8366092975,516.1820180802,526.7205999752999,-106.8039707056,517.1201161780999,0.5732302666,0.0,-106.9571329134,517.2810519479,0.4536386097,-8.4115062532,0.0,0.0,1520,1750,40.048109833299996,-88.23316,0.0,0.0,0.0,0.0,0.0,0.0,0.0,0.0,0.0,0.0,0.0,0.0,0.0,0,0.0399999619,0.5,0.6119483709,0.5345121622,90.0,60.0,60.0,89.44507598879999,121.2124023438,116.3740844727,28.768001556399998,15.6060619354,22.159999847399998,2,-1,10,1,113,15
1,1532112833803,313803, AUTO,0,40.0434592604,-88.2344147,0,-104.8366092975,516.1820180802,526.7205999752999,-106.8039707056,517.1201161780999,0.5588834286,0.0,-106.9571329134,517.2810519479,0.4536386097,-8.4115062532,0.0,0.0,1500,1750,40.048109833299996,-88.23316,0.0,0.0,0.0,0.0,0.0,0.0,0.0,0.0,0.0,0.0,0.0,0.0,0.0,0,0.0,0.5,0.6270310283,0.4907358885,90.0,60.0,60.0,88.4901504517,117.6473312378,120.00283050540001,28.768001556399998,15.6060619354,22.159999847399998,2,-1,10,1,153,25
2,1532112834003,314003, AUTO,0,40.0434592604,-88.2344147,0,-104.8366092975,516.1820180802,526.7205999752999,-106.8039707056,517.1201161780999,0.5815073252,0.0,-106.9571329134,517.2810519479,0.4536386097,-8.4115062532,0.0,0.0,1550,1750,40.048109833299996,-88.23316,0.0,0.0,0.0,0.0,0.0,0.0,0.0,0.0,0.0,0.0,0.0,0.0,0.0,0,0.1000000238,0.5,0.5998087525,0.5632058978,90.0,60.0,60.0,90.145362854,120.6394424438,117.9019851685,28.768001556399998,15.6060619354,22.159999847399998,2,-1,10,1,162,35
3,1532112834204,314204, AUTO,0,40.0434592604,-88.2344147,0,-104.75570069860001,515.8784758441001,526.4070275633001,-107.1444690543,516.2861542278,0.5953023434,0.0,-106.8762243145,516.9775097118,0.5439085896,-7.9999728042,0.0,0.0,1500,1750,40.0481023333,-88.233156,0.0,0.0,0.0,0.0,0.0,0.0,0.0,0.0,0.0,0.0,0.0,0.0,0.0,0,0.0,0.5,0.5690917373,0.6215129495,90.0,60.0,60.0,89.1904296875,118.7932434082,118.856918335,28.768001556399998,15.6060619354,22.159999847399998,2,-1,10,1,81,45
4,1532112834404,314404, AUTO,0,40.0434592604,-88.2344147,0,-104.75570069860001,515.8784758441001,526.4070275633001,-107.1444690543,516.2861542278,0.5715749264,0.0,-106.8762243145,516.9775097118,0.5439085896,-7.9999728042,0.0,0.0,1480,1750,40.0481023333,-88.233156,0.0,0.0,0.0,0.0,0.0,0.0,0.0,0.0,0.0,0.0,0.0,0.0,0.0,0,-0.040000021499999996,0.5,0.5420535207,0.6010962725,90.0,60.0,60.0,89.5724029541,119.5571899414,118.53860473629999,27.6920013428,15.6060619354,22.159999847399998,2,-1,10,1,156,55
5,1532112834605,314605, AUTO,0,40.0434592604,-88.2344147,0,-104.75570069860001,515.8784758441001,526.4070275633001,-107.1444690543,516.2861542278,0.5359836817,0.0,-106.8762243145,516.9775097118,0.5439085896,-7.9999728042,0.0,0.0,1420,1750,40.0481023333,-88.233156,0.0,0.0,0.0,0.0,0.0,0.0,0.0,0.0,0.0,0.0,0.0,0.0,0.0,0,-0.16000002619999998,0.5,0.4243357182,0.6476315856,90.0,60.0,60.0,88.2991638184,117.77465820309999,119.6845169067,27.6920013428,15.6256332397,8.3000001907,2,-1,10,1,58,65
6,1532112834805,314805, AUTO,0,40.0434592604,-88.2344147,0,-104.75570069860001,515.8784758441001,526.4070275633001,-107.1444690543,516.2861542278,0.5417776108,0.0,-106.8762243145,516.9775097118,0.5439085896,-7.9999728042,0.0,0.0,1480,1750,40.0481023333,-88.233156,0.0,0.0,0.0,0.0,0.0,0.0,0.0,0.0,0.0,0.0,0.0,0.0,0.0,0,-0.040000021499999996,0.5,0.5185099244,0.5650452375,90.0,60.0,60.0,88.55381011959999,118.0929718018,119.42987060549999,27.6920013428,15.6256332397,8.3000001907,2,-1,10,1,113,75
7,1532112835005,315005, AUTO,0,40.0434592604,-88.2344147,0,-104.75570069860001,515.8784758441001,526.4070275633001,-107.1444690543,516.2861542278,0.5511581898,0.0,-106.8762243145,516.9775097118,0.5439085896,-7.9999728042,0.0,0.0,1520,1750,40.0481023333,-88.233156,0.0,0.0,0.0,0.0,0.0,0.0,0.0,0.0,0.0,0.0,0.0,0.0,0.0,0,0.0399999619,0.5,0.5289942026,0.5733222365,90.0,60.0,60.0,90.0816955566,119.4935302734,117.8383178711,27.6920013428,15.6256332397,8.3000001907,2,-1,10,1,90,85
8,1532112835206,315206, AUTO,0,40.0434592604,-88.2344147,0,-104.84019836030001,515.6607823674,526.2105183897,-106.9458498828,516.0822968618,0.5749776363,0.0,-106.9607219762,516.7598162351001,0.7017625894,-8.157644432,0.0,0.0,1470,1750,40.0481005,-88.2331583333,0.0,0.0,0.0,0.0,0.0,0.0,0.0,0.0,0.0,0.0,0.0,0.0,0.0,0,-0.0600000024,0.5,0.5597110987,0.590244174,90.0,60.0,60.0,88.6174697876,117.39268493649999,120.0664901733,27.6920013428,15.6256332397,8.3000001907,2,-1,10,1,116,95
9,1532112835409,315409, AUTO,0,40.0434592604,-88.2344147,0,-104.84019836030001,515.6607823674,526.2105183897,-106.9458498828,516.0822968618,0.5859217644,0.0,-106.9607219762,516.7598162351001,0.7017625894,-8.157644432,0.0,0.0,1490,1750,40.0481005,-88.2331583333,0.0,0.0,0.0,0.0,0.0,0.0,0.0,0.0,0.0,0.0,0.0,0.0,0.0,0,-0.019999980900000002,0.5,0.5238440037,0.6479994655,90.0,60.0,60.0,89.25408935549999,120.19381713870001,117.7109985352,28.768001556399998,15.6256332397,8.3000001907,2,-1,10,1,45,106
10,1532112835610,315610, AUTO,0,40.0434592604,-88.2344147,0,-104.84019836030001,515.6607823674,526.2105183897,-106.9458498828,516.0822968618,0.5589753985,0.0,-106.9607219762,516.7598162351001,0.7017625894,-8.157644432,0.0,0.0,1470,1750,40.0481005,-88.2331583333,0.0,0.0,0.0,0.0,0.0,0.0,0.0,0.0,0.0,0.0,0.0,0.0,0.0,0,-0.0600000024,0.5,0.5284423828,0.5895084143,90.0,60.0,60.0,88.4901504517,118.34761810299999,118.9842300415,28.768001556399998,15.6227445602,5.4300003052,2,-1,10,1,125,116
11,1532112835810,315810, AUTO,0,40.0434592604,-88.2344147,0,-104.84019836030001,515.6607823674,526.2105183897,-106.9458498828,516.0822968618,0.5508823395,0.0,-106.9607219762,516.7598162351001,0.7017625894,-8.157644432,0.0,0.0,1430,1750,40.0481005,-88.2331583333,0.0,0.0,0.0,0.0,0.0,0.0,0.0,0.0,0.0,0.0,0.0,0.0,0.0,0,-0.1399999857,0.5,0.5238440037,0.5779206157,90.0,60.0,60.0,89.0631027222,119.0479049683,118.6022567749,28.768001556399998,15.6227445602,5.4300003052,2,-1,10,1,90,126
12,1532112836010,316010, AUTO,0,40.0434592604,-88.2344147,0,-104.84019836030001,515.6607823674,526.2105183897,-106.9458498828,516.0822968618,0.5693676472,0.0,-106.9607219762,516.7598162351001,0.7017625894,-8.157644432,0.0,0.0,1430,1750,40.0481005,-88.2331583333,0.0,0.0,0.0,0.0,0.0,0.0,0.0,0.0,0.0,0.0,0.0,0.0,0.0,0,-0.1399999857,0.5,0.4408897758,0.6978455781999999,90.0,60.0,60.0,87.8535232544,119.3025436401,118.72959136959999,28.768001556399998,15.6227445602,5.4300003052,2,-1,10,1,161,136
13,1532112836211,316211, AUTO,0,40.0434592604,-88.2344147,0,-104.85596311540002,515.2863136044999,525.8467057889,-107.3289111369,515.0630100349,0.590152204,0.0,-106.97648673129999,516.3853474722,0.8347900352,-8.031338447000001,0.0,0.0,1430,1750,40.0480913333,-88.2331538333,0.0,0.0,0.0,0.0,0.0,0.0,0.0,0.0,0.0,0.0,0.0,0.0,0.0,0,-0.1399999857,0.5,0.4434648454,0.7368395329,90.0,60.0,60.0,89.6997299194,117.96564483639999,119.0479049683,28.768001556399998,15.6227445602,5.4300003052,2,-1,10,1,100,146
14,1532112836411,316411, AUTO,0,40.0434592604,-88.2344147,0,-104.85596311540002,515.2863136044999,525.8467057889,-107.3289111369,515.0630100349,0.6041312218,0.0,-106.97648673129999,516.3853474722,0.8347900352,-8.031338447000001,0.0,0.0,1480,1750,40.0480913333,-88.2331538333,0.0,0.0,0.0,0.0,0.0,0.0,0.0,0.0,0.0,0.0,0.0,0.0,0.0,0,-0.040000021499999996,0.5,0.5718507767000001,0.6364116073,90.0,60.0,60.0,89.5724029541,118.4749450684,118.72959136959999,28.768001556399998,15.6227445602,5.4300003052,2,-1,10,1,148,156
15,1532112836611,316611, AUTO,0,40.0434592604,-88.2344147,0,-104.85596311540002,515.2863136044999,525.8467057889,-107.3289111369,515.0630100349,0.6182941197999999,0.0,-106.97648673129999,516.3853474722,0.8347900352,-8.031338447000001,0.0,0.0,1540,1750,40.0480913333,-88.2331538333,0.0,0.0,0.0,0.0,0.0,0.0,0.0,0.0,0.0,0.0,0.0,0.0,0.0,0,0.0800000429,0.5,0.6139717102000001,0.6226165891,90.0,60.0,60.0,89.3177566528,119.1752166748,118.2202911377,28.768001556399998,15.614805221600001,8.8500003815,2,-1,10,1,103,166
16,1532112836812,316812, AUTO,0,40.0434592604,-88.2344147,0,-104.85596311540002,515.2863136044999,525.8467057889,-107.3289111369,515.0630100349,0.5928192139,0.0,-106.97648673129999,516.3853474722,0.8347900352,-8.031338447000001,0.0,0.0,1510,1750,40.0480913333,-88.2331538333,0.0,0.0,0.0,0.0,0.0,0.0,0.0,0.0,0.0,0.0,0.0,0.0,0.0,0,0.019999980900000002,0.5,0.6290542483,0.556584239,90.0,60.0,60.0,88.9994430542,117.7109985352,120.32112884520001,28.768001556399998,15.614805221600001,8.8500003815,2,-1,10,1,117,176
17,1532112837013,317013, AUTO,0,40.0434592604,-88.2344147,0,-104.85596311540002,515.2863136044999,525.8467057889,-107.3289111369,515.0630100349,0.5873931646,0.0,-106.97648673129999,516.3853474722,0.8347900352,-8.031338447000001,0.0,0.0,1520,1750,40.0480913333,-88.2331538333,0.0,0.0,0.0,0.0,0.0,0.0,0.0,0.0,0.0,0.0,0.0,0.0,0.0,0,0.0399999619,0.5,0.5514340997,0.6233522892,90.0,60.0,60.0,88.36282348629999,119.3025436401,119.0479049683,28.768001556399998,15.614805221600001,8.8500003815,2,-1,10,1,24,186
18,1532112837213,317213, AUTO,0,40.0434592604,-88.2344147,0,-105.0626371148,514.9324307668,525.54121244,-107.76871737479999,514.5811653532,0.5235680938,0.0,-107.1831607307,516.0314646345,0.9598047094,-8.1389691621,0.0,0.0,1490,1750,40.048087,-88.2331486667,0.0,0.0,0.0,0.0,0.0,0.0,0.0,0.0,0.0,0.0,0.0,0.0,0.0,0,-0.019999980900000002,0.5,0.5589753985,0.4881608188,90.0,60.0,60.0,88.93578338620001,118.72959136959999,118.53860473629999,28.768001556399998,15.614805221600001,8.8500003815,2,-1,10,1,26,195
19,1532112837414,317414, AUTO,0,40.0434592604,-88.2344147,0,-105.0626371148,514.9324307668,525.54121244,-107.76871737479999,514.5811653532,0.589232564,0.0,-107.1831607307,516.0314646345,0.9598047094,-8.1389691621,0.0,0.0,1510,1750,40.048087,-88.2331486667,0.0,0.0,0.0,0.0,0.0,0.0,0.0,0.0,0.0,0.0,0.0,0.0,0.0,0,0.019999980900000002,0.5,0.6542531847999999,0.5242118835,90.0,60.0,60.0,88.9994430542,118.72959136959999,119.42987060549999,28.768001556399998,15.614805221600001,8.8500003815,2,-1,10,1,128,205
20,1532112837615,317615, AUTO,0,40.0434592604,-88.2344147,0,-105.0626371148,514.9324307668,525.54121244,-107.76871737479999,514.5811653532,0.6154431105,0.0,-107.1831607307,516.0314646345,0.9598047094,-8.1389691621,0.0,0.0,1680,1750,40.048087,-88.2331486667,0.0,0.0,0.0,0.0,0.0,0.0,0.0,0.0,0.0,0.0,0.0,0.0,0.0,0,0.3600000143,0.5,0.6941668987,0.5367193818,90.0,60.0,60.0,89.12677001950001,117.77465820309999,120.00283050540001,28.768001556399998,15.6127300262,13.190000534100001,2,-1,10,1,159,215
21,1532112837815,317815, AUTO,0,40.0434592604,-88.2344147,0,-105.0626371148,514.9324307668,525.54121244,-107.76871737479999,514.5811653532,0.5720347165999999,0.0,-107.1831607307,516.0314646345,0.9598047094,-8.1389691621,0.0,0.0,1590,1750,40.048087,-88.2331486667,0.0,0.0,0.0,0.0,0.0,0.0,0.0,0.0,0.0,0.0,0.0,0.0,0.0,0,0.1799999475,0.5,0.6971098185,0.446959585,90.0,60.0,60.0,89.82704925540001,119.0479049683,118.0929718018,28.768001556399998,15.6127300262,13.190000534100001,2,-1,10,1,233,224
22,1532112838016,318016, AUTO,0,40.0434592604,-88.2344147,0,-105.0626371148,514.9324307668,525.54121244,-107.76871737479999,514.5811653532,0.5284423828,0.0,-107.1831607307,516.0314646345,0.9598047094,-8.1389691621,0.0,0.0,1490,1750,40.048087,-88.2331486667,0.0,0.0,0.0,0.0,0.0,0.0,0.0,0.0,0.0,0.0,0.0,0.0,0.0,0,-0.019999980900000002,0.5,0.7061225771999999,0.3507621288,90.0,60.0,60.0,88.2991638184,118.15663146969999,119.6845169067,28.768001556399998,15.6127300262,13.190000534100001,2,-1,10,1,176,233
23,1532112838217,318217, AUTO,0,40.0434592604,-88.2344147,0,-105.11348979379999,514.5293280384,525.1564292173,-107.71197165129999,514.1549181336001,0.5670685172,0.0,-107.2340134097,515.6283619061,1.0754472625,-8.0798799758,0.0,0.0,1510,1750,40.0480831667,-88.2331493333,0.0,0.0,0.0,0.0,0.0,0.0,0.0,0.0,0.0,0.0,0.0,0.0,0.0,0,0.019999980900000002,0.5,0.6224326491,0.5117043853000001,90.0,60.0,60.0,90.01803588870001,118.856918335,119.0479049683,28.768001556399998,15.6127300262,13.190000534100001,2,-1,10,1,195,242
24,1532112838423,318423, AUTO,0,40.0434592604,-88.2344147,0,-105.11348979379999,514.5293280384,525.1564292173,-107.71197165129999,514.1549181336001,0.5872092247,0.0,-107.2340134097,515.6283619061,1.0754472625,-8.0798799758,0.0,0.0,1540,1750,40.0480831667,-88.2331493333,0.0,0.0,0.0,0.0,0.0,0.0,0.0,0.0,0.0,0.0,0.0,0.0,0.0,0,0.0800000429,0.5,0.6088215113000001,0.5655969977,90.0,60.0,60.0,89.5724029541,118.2839584351,119.7481765747,28.768001556399998,15.6127300262,13.190000534100001,2,-1,10,1,132,252
25,1532112838623,318623, AUTO,0,40.0434592604,-88.2344147,0,-105.11348979379999,514.5293280384,525.1564292173,-107.71197165129999,514.1549181336001,0.5464679003,0.0,-107.2340134097,515.6283619061,1.0754472625,-8.0798799758,0.0,0.0,1500,1750,40.0480831667,-88.2331493333,0.0,0.0,0.0,0.0,0.0,0.0,0.0,0.0,0.0,0.0,0.0,0.0,0.0,0,0.0,0.5,0.6049588919,0.4879768789,90.0,60.0,60.0,88.36282348629999,119.42987060549999,118.4749450684,28.768001556399998,15.621490478499998,13.960000038099999,2,-1,10,1,144,262
26,1532112838824,318824, AUTO,0,40.0434592604,-88.2344147,0,-105.11348979379999,514.5293280384,525.1564292173,-107.71197165129999,514.1549181336001,0.5624700785,0.0,-107.2340134097,515.6283619061,1.0754472625,-8.0798799758,0.0,0.0,1490,1750,40.0480831667,-88.2331493333,0.0,0.0,0.0,0.0,0.0,0.0,0.0,0.0,0.0,0.0,0.0,0.0,0.0,0,-0.019999980900000002,0.5,0.5724025369,0.5525376797,90.0,60.0,60.0,88.4264831543,117.7109985352,118.7932434082,28.768001556399998,15.621490478499998,13.960000038099999,2,-1,10,1,146,271
27,1532112839025,319025, AUTO,0,40.0434592604,-88.2344147,0,-105.11348979379999,514.5293280384,525.1564292173,-107.71197165129999,514.1549181336001,0.5701034068999999,0.0,-107.2340134097,515.6283619061,1.0754472625,-8.0798799758,0.0,0.0,1480,1750,40.0480831667,-88.2331493333,0.0,0.0,0.0,0.0,0.0,0.0,0.0,0.0,0.0,0.0,0.0,0.0,0.0,0,-0.040000021499999996,0.5,0.5646773577,0.5755294561,90.0,60.0,60.0,91.1639480591,118.34761810299999,119.42987060549999,28.768001556399998,15.621490478499998,13.960000038099999,2,-1,10,1,108,280
28,1532112839225,319225, AUTO,0,40.0434592604,-88.2344147,0,-105.11348979379999,514.5293280384,525.1564292173,-107.71197165129999,514.1549181336001,0.5905200243,0.0,-107.2340134097,515.6283619061,1.0754472625,-8.0798799758,0.0,0.0,1490,1750,40.0480831667,-88.2331493333,0.0,0.0,0.0,0.0,0.0,0.0,0.0,0.0,0.0,0.0,0.0,0.0,0.0,0,-0.019999980900000002,0.5,0.5727704167000001,0.6082696915,90.0,60.0,60.0,89.5724029541,120.38480377200001,117.5200195312,28.768001556399998,15.621490478499998,13.960000038099999,2,-1,10,1,229,289
29,1532112839426,319426, AUTO,0,40.0434592604,-88.2344147,0,-105.2975688992,514.2415692922,524.9113921455,-107.726155285,514.6552953041,0.55060637,0.0,-107.4180925151,515.3406031599,1.1896769802,-8.1588251492,0.0,0.0,1480,1750,40.0480876667,-88.2331491667,0.0,0.0,0.0,0.0,0.0,0.0,0.0,0.0,0.0,0.0,0.0,0.0,0.0,0,-0.040000021499999996,0.5,0.5343282223,0.5668845773,90.0,60.0,60.0,89.44507598879999,117.9019851685,118.411277771,27.6920013428,15.621490478499998,13.960000038099999,2,-1,10,1,100,301
30,1532112839627,319627, AUTO,0,40.0434592604,-88.2344147,0,-105.2975688992,514.2415692922,524.9113921455,-107.726155285,514.6552953041,0.5594352484,0.0,-107.4180925151,515.3406031599,1.1896769802,-8.1588251492,0.0,0.0,1480,1750,40.0480876667,-88.2331491667,0.0,0.0,0.0,0.0,0.0,0.0,0.0,0.0,0.0,0.0,0.0,0.0,0.0,0,-0.040000021499999996,0.5,0.5468357205,0.5720347165999999,90.0,60.0,60.0,88.93578338620001,118.6659317017,119.42987060549999,27.6920013428,15.624855041500002,18.079999923699997,2,-1,10,1,115,312
31,1532112839827,319827, AUTO,0,40.0434592604,-88.2344147,0,-105.2975688992,514.2415692922,524.9113921455,-107.726155285,514.6552953041,0.5774607657999999,0.0,-107.4180925151,515.3406031599,1.1896769802,-8.1588251492,0.0,0.0,1510,1750,40.0480876667,-88.2331491667,0.0,0.0,0.0,0.0,0.0,0.0,0.0,0.0,0.0,0.0,0.0,0.0,0.0,0,0.019999980900000002,0.5,0.5644934177,0.5904281139,90.0,60.0,60.0,89.0631027222,118.9205703735,117.77465820309999,27.6920013428,15.624855041500002,18.079999923699997,2,-1,10,1,141,322
32,1532112840028,320028, AUTO,0,40.0434592604,-88.2344147,0,-105.2975688992,514.2415692922,524.9113921455,-107.726155285,514.6552953041,0.6013721824,0.0,-107.4180925151,515.3406031599,1.1896769802,-8.1588251492,0.0,0.0,1470,1750,40.0480876667,-88.2331491667,0.0,0.0,0.0,0.0,0.0,0.0,0.0,0.0,0.0,0.0,0.0,0.0,0.0,0,-0.0600000024,0.5,0.6040392518,0.5987051129,90.0,60.0,60.0,88.55381011959999,118.7932434082,119.62085723879999,27.6920013428,15.624855041500002,18.079999923699997,2,-1,10,1,112,331
33,1532112840229,320229, AUTO,0,40.0434592604,-88.2344147,0,-105.2975688992,514.2415692922,524.9113921455,-107.7403439214,514.451437938,0.5839904547,0.0,-107.4180925151,515.3406031599,1.1896769802,-8.1588251492,0.0,0.0,1470,1750,40.0480858333,-88.233149,0.0,0.0,0.0,0.0,0.0,0.0,0.0,0.0,0.0,0.0,0.0,0.0,0.0,0,-0.0600000024,0.5,0.5021398067,0.665841043,90.0,60.0,60.0,89.12677001950001,119.1115570068,118.72959136959999,27.6920013428,15.624855041500002,18.079999923699997,2,-1,10,1,105,341
34,1532112840429,320429, AUTO,0,40.0434592604,-88.2344147,0,-105.34992682219999,513.9384013145,524.6249016461,-107.7403439214,514.451437938,0.5766330957,0.0,-107.47045043809999,515.0374351822,1.2393688108,-8.131341732000001,0.0,0.0,1440,1750,40.0480858333,-88.233149,0.0,0.0,0.0,0.0,0.0,0.0,0.0,0.0,0.0,0.0,0.0,0.0,0.0,0,-0.1200000048,0.5,0.5269708633,0.6262952685000001,90.0,60.0,60.0,89.0631027222,118.34761810299999,118.6659317017,27.6920013428,15.624855041500002,18.079999923699997,2,-1,10,1,120,351
35,1532112840630,320630, AUTO,0,40.0434592604,-88.2344147,0,-105.34992682219999,513.9384013145,524.6249016461,-107.7403439214,514.451437938,0.5746097565,0.0,-107.47045043809999,515.0374351822,1.2393688108,-8.131341732000001,0.0,0.0,1500,1750,40.0480858333,-88.233149,0.0,0.0,0.0,0.0,0.0,0.0,0.0,0.0,0.0,0.0,0.0,0.0,0.0,0,0.0,0.5,0.5302816629,0.61893785,90.0,60.0,60.0,87.9808578491,120.00283050540001,117.39268493649999,27.6920013428,15.637280464200002,15.989999771099999,2,-1,10,1,110,361
36,1532112840831,320831, AUTO,0,40.0434592604,-88.2344147,0,-105.34992682219999,513.9384013145,524.6249016461,-107.7403439214,514.451437938,0.556584239,0.0,-107.47045043809999,515.0374351822,1.2393688108,-8.131341732000001,0.0,0.0,1530,1750,40.0480858333,-88.233149,0.0,0.0,0.0,0.0,0.0,0.0,0.0,0.0,0.0,0.0,0.0,0.0,0.0,0,0.059999942800000004,0.5,0.49275916810000003,0.6204093695,90.0,60.0,60.0,92.11888122559999,116.565071106,120.8940887451,27.6920013428,15.637280464200002,15.989999771099999,2,-1,10,1,142,371
37,1532112841031,321031, AUTO,0,40.0434592604,-88.2344147,0,-105.34992682219999,513.9384013145,524.6249016461,-107.7403439214,514.451437938,0.5395703316,0.0,-107.47045043809999,515.0374351822,1.2393688108,-8.131341732000001,0.0,0.0,1490,1750,40.0480858333,-88.233149,0.0,0.0,0.0,0.0,0.0,0.0,0.0,0.0,0.0,0.0,0.0,0.0,0.0,0,-0.019999980900000002,0.5,0.45045435429999997,0.6286863685,90.0,60.0,60.0,89.8907089233,120.4484634399,117.77465820309999,27.6920013428,15.637280464200002,15.989999771099999,2,-1,10,1,91,381
38,1532112841232,321232, AUTO,0,40.0434592604,-88.2344147,0,-105.4299348332,513.6280812254,524.3369879974,-107.55591441879999,513.8954633047,0.4914716482,0.0,-107.55045844909999,514.7271150931,1.274576567,-8.1420573939,0.0,0.0,1640,1750,40.0480808333,-88.2331511667,0.0,0.0,0.0,0.0,0.0,0.0,0.0,0.0,0.0,0.0,0.0,0.0,0.0,0,0.2799999714,0.5,0.4964378476,0.486505419,90.0,60.0,60.0,88.93578338620001,119.1752166748,118.2839584351,27.6920013428,15.637280464200002,15.989999771099999,2,-1,10,1,40,391
39,1532112841433,321433, AUTO,0,40.0434592604,-88.2344147,0,-105.4299348332,513.6280812254,524.3369879974,-107.55591441879999,513.8954633047,0.5639415979,0.0,-107.55045844909999,514.7271150931,1.274576567,-8.1420573939,0.0,0.0,1520,1750,40.0480808333,-88.2331511667,0.0,0.0,0.0,0.0,0.0,0.0,0.0,0.0,0.0,0.0,0.0,0.0,0.0,0,0.0399999619,0.5,0.6483672857,0.4795159101,90.0,60.0,60.0,86.96226501459999,118.4749450684,119.2388916016,27.6920013428,15.637280464200002,15.989999771099999,2,-1,10,1,31,401
40,1532112841633,321633, AUTO,0,40.0434592604,-88.2344147,0,-105.4299348332,513.6280812254,524.3369879974,-107.55591441879999,513.8954633047,0.5815992951,0.0,-107.55045844909999,514.7271150931,1.274576567,-8.1420573939,0.0,0.0,1380,1750,40.0480808333,-88.2331511667,0.0,0.0,0.0,0.0,0.0,0.0,0.0,0.0,0.0,0.0,0.0,0.0,0.0,0,-0.2400000095,0.5,0.5845422745000001,0.5786563158,90.0,60.0,60.0,88.1718444824,119.81184387209998,118.2839584351,27.6920013428,15.641039848299998,14.8899993896,2,-1,10,1,25,411
41,1532112841834,321834, AUTO,0,40.0434592604,-88.2344147,0,-105.4299348332,513.6280812254,524.3369879974,-107.55591441879999,513.8954633047,0.5336844921,0.0,-107.55045844909999,514.7271150931,1.274576567,-8.1420573939,0.0,0.0,1550,1750,40.0480808333,-88.2331511667,0.0,0.0,0.0,0.0,0.0,0.0,0.0,0.0,0.0,0.0,0.0,0.0,0.0,0,0.1000000238,0.5,0.508577466,0.5587914586,90.0,60.0,60.0,90.3363494873,118.0929718018,118.9205703735,27.6920013428,15.641039848299998,14.8899993896,2,-1,10,1,64,421
42,1532112842034,322034, AUTO,0,40.0434592604,-88.2344147,0,-105.4299348332,513.6280812254,524.3369879974,-107.55591441879999,513.8954633047,0.5426052809,0.0,-107.55045844909999,514.7271150931,1.274576567,-8.1420573939,0.0,0.0,1540,1750,40.0480808333,-88.2331511667,0.0,0.0,0.0,0.0,0.0,0.0,0.0,0.0,0.0,0.0,0.0,0.0,0.0,0,0.0800000429,0.5,0.5777366757,0.507473886,90.0,60.0,60.0,89.63606262209998,119.7481765747,118.15663146969999,27.6920013428,15.641039848299998,14.8899993896,2,-1,10,1,61,430
43,1532112842235,322235, AUTO,0,40.0434592604,-88.2344147,0,-105.4947563425,513.298528641,524.0272160115001,-107.7545375634,513.5433460368,0.5813233852,0.0,-107.6152799584,514.3975625087,1.3020282208,-8.1313532454,0.0,0.0,1530,1750,40.0480776667,-88.23314883329999,0.0,0.0,0.0,0.0,0.0,0.0,0.0,0.0,0.0,0.0,0.0,0.0,0.0,0,0.059999942800000004,0.5,0.5952103734,0.5674363971,90.0,60.0,60.0,89.8907089233,118.9205703735,118.9205703735,28.229999542199998,15.641039848299998,14.8899993896,2,-1,10,1,189,440
44,1532112842436,322436, AUTO,0,40.0434592604,-88.2344147,0,-105.4947563425,513.298528641,524.0272160115001,-107.7545375634,513.5433460368,0.5658729672,0.0,-107.6152799584,514.3975625087,1.3020282208,-8.1313532454,0.0,0.0,1550,1750,40.0480776667,-88.23314883329999,0.0,0.0,0.0,0.0,0.0,0.0,0.0,0.0,0.0,0.0,0.0,0.0,0.0,0,0.1000000238,0.5,0.6691519022,0.4625940025,90.0,60.0,60.0,87.9171905518,118.7932434082,119.1115570068,28.229999542199998,15.641039848299998,14.8899993896,2,-1,10,1,30,450
45,1532112842636,322636, AUTO,0,40.0434592604,-88.2344147,0,-105.4947563425,513.298528641,524.0272160115001,-107.7545375634,513.5433460368,0.5528135896,0.0,-107.6152799584,514.3975625087,1.3020282208,-8.1313532454,0.0,0.0,1510,1750,40.0480776667,-88.23314883329999,0.0,0.0,0.0,0.0,0.0,0.0,0.0,0.0,0.0,0.0,0.0,0.0,0.0,0,0.019999980900000002,0.5,0.6143394709000001,0.4912876785,90.0,60.0,60.0,88.36282348629999,118.411277771,119.3662033081,28.229999542199998,15.6540327072,15.280000686600001,2,-1,10,1,16,459
46,1532112842837,322837, AUTO,0,40.0434592604,-88.2344147,0,-105.4947563425,513.298528641,524.0272160115001,-107.7545375634,513.5433460368,0.5716668367000001,0.0,-107.6152799584,514.3975625087,1.3020282208,-8.1313532454,0.0,0.0,1580,1750,40.0480776667,-88.23314883329999,0.0,0.0,0.0,0.0,0.0,0.0,0.0,0.0,0.0,0.0,0.0,0.0,0.0,0,0.15999996660000002,0.5,0.6331008077,0.5102328657999999,90.0,60.0,60.0,90.0816955566,118.411277771,119.1115570068,28.229999542199998,15.6540327072,15.280000686600001,2,-1,10,1,27,469
47,1532112843038,323038, AUTO,0,40.0434592604,-88.2344147,0,-105.4947563425,513.298528641,524.0272160115001,-107.7545375634,513.5433460368,0.602383852,0.0,-107.6152799584,514.3975625087,1.3020282208,-8.1313532454,0.0,0.0,1380,1750,40.0480776667,-88.23314883329999,0.0,0.0,0.0,0.0,0.0,0.0,0.0,0.0,0.0,0.0,0.0,0.0,0.0,0,-0.2400000095,0.5,0.7015242576999999,0.5032433867,90.0,60.0,60.0,89.7633895874,117.9019851685,119.939163208,28.229999542199998,15.6540327072,15.280000686600001,2,-1,10,1,249,481
48,1532112843238,323238, AUTO,0,40.0434592604,-88.2344147,0,-105.6347094659,512.9149801594,523.6797386914,-108.15178427469999,512.7835140387999,0.5888646840999999,0.0,-107.7552330818,514.0140140271,1.3620759959,-8.1470684484,0.0,0.0,1540,1750,40.0480708333,-88.2331441667,0.0,0.0,0.0,0.0,0.0,0.0,0.0,0.0,0.0,0.0,0.0,0.0,0.0,0,0.0800000429,0.5,0.6367794871,0.5409498811,90.0,60.0,60.0,87.7898712158,119.6845169067,118.6659317017,28.229999542199998,15.6540327072,15.280000686600001,2,-1,10,1,190,491
49,1532112843439,323439, AUTO,0,40.0434592604,-88.2344147,0,-105.6347094659,512.9149801594,523.6797386914,-108.15178427469999,512.7835140387999,0.5489510298,0.0,-107.7552330818,514.0140140271,1.3620759959,-8.1470684484,0.0,0.0,1500,1750,40.0480708333,-88.2331441667,0.0,0.0,0.0,0.0,0.0,0.0,0.0,0.0,0.0,0.0,0.0,0.0,0.0,0,0.0,0.5,0.5764490962,0.5214529037,90.0,60.0,60.0,88.9994430542,119.62085723879999,117.6473312378,28.229999542199998,15.6540327072,15.280000686600001,2,-1,10,1,135,500
50,1532112843640,323640, AUTO,0,40.0434592604,-88.2344147,0,-105.6347094659,512.9149801594,523.6797386914,-108.15178427469999,512.7835140387999,0.5415936708,0.0,-107.7552330818,514.0140140271,1.3620759959,-8.1470684484,0.0,0.0,1140,1750,40.0480708333,-88.2331441667,0.0,0.0,0.0,0.0,0.0,0.0,0.0,0.0,0.0,0.0,0.0,0.0,0.0,0,-0.7200000286,0.5,0.5499626397999999,0.5332246423,90.0,60.0,60.0,88.8721160889,119.6845169067,117.8383178711,28.229999542199998,15.6705551147,8.25,2,-1,10,1,108,510
51,1532112843841,323841, AUTO,0,40.0434592604,-88.2344147,0,-105.6347094659,512.9149801594,523.6797386914,-108.15178427469999,512.7835140387999,0.5595271587,0.0,-107.7552330818,514.0140140271,1.3620759959,-8.1470684484,0.0,0.0,1410,1750,40.0480708333,-88.2331441667,0.0,0.0,0.0,0.0,0.0,0.0,0.0,0.0,0.0,0.0,0.0,0.0,0.0,0,-0.18000000719999998,0.5,0.5690917373,0.5499626397999999,90.0,60.0,60.0,88.681137085,118.15663146969999,119.7481765747,28.229999542199998,15.6705551147,8.25,2,-1,10,1,129,519
52,1532112844041,324041, AUTO,0,40.0434592604,-88.2344147,0,-105.6347094659,512.9149801594,523.6797386914,-108.15178427469999,512.7835140387999,0.5879449844,0.0,-107.7552330818,514.0140140271,1.3620759959,-8.1470684484,0.0,0.0,1460,1750,40.0480708333,-88.2331441667,0.0,0.0,0.0,0.0,0.0,0.0,0.0,0.0,0.0,0.0,0.0,0.0,0.0,0,-0.07999998330000001,0.5,0.5817831754999999,0.5941067934,90.0,60.0,60.0,89.5087432861,117.9019851685,119.1752166748,28.229999542199998,15.6705551147,8.25,2,-1,10,1,133,528
53,1532112844242,324242, AUTO,0,40.0434592604,-88.2344147,0,-105.7689066745,512.4496463108001,523.2510885064,-108.5064701167,511.93101960120003,0.5897843838,0.0,-107.88943029040001,513.5486801785,1.452301824,-8.1344368176,0.0,0.0,1420,1750,40.048063166700004,-88.23314,0.0,0.0,0.0,0.0,0.0,0.0,0.0,0.0,0.0,0.0,0.0,0.0,0.0,0,-0.16000002619999998,0.5,0.5593432784000001,0.6202254295,90.0,60.0,60.0,89.6997299194,118.7932434082,118.9205703735,28.229999542199998,15.6705551147,8.25,2,-1,10,1,144,541
54,1532112844443,324443, AUTO,0,40.0434592604,-88.2344147,0,-105.7689066745,512.4496463108001,523.2510885064,-108.5064701167,511.93101960120003,0.5792081356000001,0.0,-107.88943029040001,513.5486801785,1.452301824,-8.1344368176,0.0,0.0,1420,1750,40.048063166700004,-88.23314,0.0,0.0,0.0,0.0,0.0,0.0,0.0,0.0,0.0,0.0,0.0,0.0,0.0,0,-0.16000002619999998,0.5,0.4603867829,0.6980295181,90.0,60.0,60.0,88.8084564209,118.411277771,119.3662033081,28.229999542199998,15.6705551147,8.25,2,-1,10,1,200,550
55,1532112844643,324643, AUTO,0,40.0434592604,-88.2344147,0,-105.7689066745,512.4496463108001,523.2510885064,-108.5064701167,511.93101960120003,0.5394784212,0.0,-107.88943029040001,513.5486801785,1.452301824,-8.1344368176,0.0,0.0,1420,1750,40.048063166700004,-88.23314,0.0,0.0,0.0,0.0,0.0,0.0,0.0,0.0,0.0,0.0,0.0,0.0,0.0,0,-0.16000002619999998,0.5,0.43279668689999995,0.6461601257,90.0,60.0,60.0,88.74479675290002,119.2388916016,118.72959136959999,28.229999542199998,15.6617507935,13.079999923699999,2,-1,10,1,8,558
56,1532112844844,324844, AUTO,0,40.0434592604,-88.2344147,0,-105.7689066745,512.4496463108001,523.2510885064,-108.5064701167,511.93101960120003,0.5640336275,0.0,-107.88943029040001,513.5486801785,1.452301824,-8.1344368176,0.0,0.0,1540,1750,40.048063166700004,-88.23314,0.0,0.0,0.0,0.0,0.0,0.0,0.0,0.0,0.0,0.0,0.0,0.0,0.0,0,0.0800000429,0.5,0.5466518402,0.5814153552,90.0,60.0,60.0,89.8907089233,119.939163208,118.34761810299999,28.229999542199998,15.6617507935,13.079999923699999,2,-1,10,1,36,567
57,1532112845045,325045, AUTO,0,40.0434592604,-88.2344147,0,-105.7689066745,512.4496463108001,523.2510885064,-108.5064701167,511.93101960120003,0.5700114369,0.0,-107.88943029040001,513.5486801785,1.452301824,-8.1344368176,0.0,0.0,1560,1750,40.048063166700004,-88.23314,0.0,0.0,0.0,0.0,0.0,0.0,0.0,0.0,0.0,0.0,0.0,0.0,0.0,0,0.1200000048,0.5,0.5996248126,0.5403980613,90.0,60.0,60.0,89.25408935549999,118.15663146969999,119.81184387209998,28.229999542199998,15.6617507935,13.079999923699999,2,-1,10,1,30,579
58,1532112845245,325245, AUTO,0,40.0434592604,-88.2344147,0,-105.8799069093,512.0301467918,522.8627218599,-108.2794766592,511.708629747,0.5369033217,0.0,-108.0004305252,513.1291806595,1.4712055936000001,-8.1359809523,0.0,0.0,1560,1750,40.0480611667,-88.2331426667,0.0,0.0,0.0,0.0,0.0,0.0,0.0,0.0,0.0,0.0,0.0,0.0,0.0,0,0.1200000048,0.5,0.6055107117,0.4682959318,90.0,60.0,60.0,89.8907089233,119.5571899414,118.7932434082,28.229999542199998,15.6617507935,13.079999923699999,2,-1,10,1,28,589
59,1532112845446,325446, AUTO,0,40.0434592604,-88.2344147,0,-105.8799069093,512.0301467918,522.8627218599,-108.2794766592,511.708629747,0.5597110987,0.0,-108.0004305252,513.1291806595,1.4712055936000001,-8.1359809523,0.0,0.0,1570,1750,40.0480611667,-88.2331426667,0.0,0.0,0.0,0.0,0.0,0.0,0.0,0.0,0.0,0.0,0.0,0.0,0.0,0,0.1399999857,0.5,0.5847260952000001,0.5346961021,90.0,60.0,60.0,89.44507598879999,119.42987060549999,118.7932434082,28.229999542199998,15.6617507935,13.079999923699999,2,-1,10,1,55,598
60,1532112845646,325646, AUTO,0,40.0434592604,-88.2344147,0,-105.8799069093,512.0301467918,522.8627218599,-108.2794766592,511.708629747,0.5553886889999999,0.0,-108.0004305252,513.1291806595,1.4712055936000001,-8.1359809523,0.0,0.0,1540,1750,40.0480611667,-88.2331426667,0.0,0.0,0.0,0.0,0.0,0.0,0.0,0.0,0.0,0.0,0.0,0.0,0.0,0,0.0800000429,0.5,0.6215129495,0.4892643988,90.0,60.0,60.0,90.01803588870001,118.6659317017,119.3662033081,28.229999542199998,15.6630048752,10.4500007629,2,-1,10,1,31,608
61,1532112845847,325847, AUTO,0,40.0434592604,-88.2344147,0,-105.8799069093,512.0301467918,522.8627218599,-108.2794766592,511.708629747,0.5722186565,0.0,-108.0004305252,513.1291806595,1.4712055936000001,-8.1359809523,0.0,0.0,1550,1750,40.0480611667,-88.2331426667,0.0,0.0,0.0,0.0,0.0,0.0,0.0,0.0,0.0,0.0,0.0,0.0,0.0,0,0.1000000238,0.5,0.6193057299,0.5251315832,90.0,60.0,60.0,89.8907089233,119.62085723879999,119.4935302734,28.229999542199998,15.6630048752,10.4500007629,2,-1,10,1,31,619
62,1532112846047,326047, AUTO,0,40.0434592604,-88.2344147,0,-105.8799069093,512.0301467918,522.8627218599,-108.2794766592,511.708629747,0.5598950386,0.0,-108.0004305252,513.1291806595,1.4712055936000001,-8.1359809523,0.0,0.0,1530,1750,40.0480611667,-88.2331426667,0.0,0.0,0.0,0.0,0.0,0.0,0.0,0.0,0.0,0.0,0.0,0.0,0.0,0,0.059999942800000004,0.5,0.5792081356000001,0.5405820012,90.0,60.0,60.0,89.12677001950001,118.72959136959999,118.9205703735,28.229999542199998,15.6630048752,10.4500007629,2,-1,10,1,21,629
63,1532112846247,326247, AUTO,0,40.0434592604,-88.2344147,0,-105.9313289053,511.5409242868,522.394069323,-108.33623085139999,510.948797749,0.5838984251,0.0,-108.0518525212,512.6399581544999,1.5193933407,-8.0932729214,0.0,0.0,1510,1750,40.0480543333,-88.233142,0.0,0.0,0.0,0.0,0.0,0.0,0.0,0.0,0.0,0.0,0.0,0.0,0.0,0,0.019999980900000002,0.5,0.671910882,0.4958860278,90.0,60.0,60.0,90.0816955566,118.6659317017,118.856918335,28.768001556399998,15.6630048752,10.4500007629,2,-1,10,1,20,639
64,1532112846448,326448, AUTO,0,40.0434592604,-88.2344147,0,-105.9313289053,511.5409242868,522.394069323,-108.33623085139999,510.948797749,0.6003605723,0.0,-108.0518525212,512.6399581544999,1.5193933407,-8.0932729214,0.0,0.0,1580,1750,40.0480543333,-88.233142,0.0,0.0,0.0,0.0,0.0,0.0,0.0,0.0,0.0,0.0,0.0,0.0,0.0,0,0.15999996660000002,0.5,0.6296060681,0.5711150764999999,90.0,60.0,60.0,87.5988845825,119.42987060549999,118.411277771,28.768001556399998,15.6630048752,10.4500007629,2,-1,10,1,33,648
65,1532112846648,326648, AUTO,0,40.0434592604,-88.2344147,0,-105.9313289053,511.5409242868,522.394069323,-108.33623085139999,510.948797749,0.5606307983,0.0,-108.0518525212,512.6399581544999,1.5193933407,-8.0932729214,0.0,0.0,1510,1750,40.0480543333,-88.233142,0.0,0.0,0.0,0.0,0.0,0.0,0.0,0.0,0.0,0.0,0.0,0.0,0.0,0,0.019999980900000002,0.5,0.6020159125,0.5192456840999999,90.0,60.0,60.0,89.5087432861,118.9205703735,119.6845169067,28.768001556399998,15.6639127731,12.4799995422,2,-1,10,1,24,657
66,1532112846849,326849, AUTO,0,40.0434592604,-88.2344147,0,-105.9313289053,511.5409242868,522.394069323,-108.33623085139999,510.948797749,0.5861976147,0.0,-108.0518525212,512.6399581544999,1.5193933407,-8.0932729214,0.0,0.0,1600,1750,40.0480543333,-88.233142,0.0,0.0,0.0,0.0,0.0,0.0,0.0,0.0,0.0,0.0,0.0,0.0,0.0,0,0.2000000477,0.5,0.6051428318,0.5672524571,90.0,60.0,60.0,88.93578338620001,119.5571899414,118.2202911377,28.768001556399998,15.6639127731,12.4799995422,2,-1,10,1,16,666
67,1532112847049,327049, AUTO,0,40.0434592604,-88.2344147,0,-105.9313289053,511.5409242868,522.394069323,-108.33623085139999,510.948797749,0.5823349953,0.0,-108.0518525212,512.6399581544999,1.5193933407,-8.0932729214,0.0,0.0,1550,1750,40.0480543333,-88.233142,0.0,0.0,0.0,0.0,0.0,0.0,0.0,0.0,0.0,0.0,0.0,0.0,0.0,0,0.1000000238,0.5,0.6145234108,0.5501465797,90.0,60.0,60.0,87.7898712158,120.00283050540001,117.96564483639999,28.768001556399998,15.6639127731,12.4799995422,2,-1,10,1,11,675
68,1532112847250,327250, AUTO,0,40.0434592604,-88.2344147,0,-106.0303091365,511.0054287408,521.8898108396,-108.32204975020001,510.09630331129995,0.5956702232,0.0,-108.15083275239999,512.1044626085,1.6186823594,-8.0867394098,0.0,0.0,1520,1750,40.0480466667,-88.2331421667,0.0,0.0,0.0,0.0,0.0,0.0,0.0,0.0,0.0,0.0,0.0,0.0,0.0,0,0.0399999619,0.5,0.5828868151,0.6084536314,90.0,60.0,60.0,88.93578338620001,118.72959136959999,119.0479049683,28.768001556399998,15.6639127731,12.4799995422,2,-1,10,1,12,684
69,1532112847451,327451, AUTO,0,40.0434592604,-88.2344147,0,-106.0303091365,511.0054287408,521.8898108396,-108.32204975020001,510.09630331129995,0.5943826436999999,0.0,-108.15083275239999,512.1044626085,1.6186823594,-8.0867394098,0.0,0.0,1310,1750,40.0480466667,-88.2331421667,0.0,0.0,0.0,0.0,0.0,0.0,0.0,0.0,0.0,0.0,0.0,0.0,0.0,0,-0.37999999520000005,0.5,0.6286863685,0.5600789785,90.0,60.0,60.0,88.2991638184,120.19381713870001,118.411277771,28.768001556399998,15.6639127731,12.4799995422,2,-1,10,1,7,695
70,1532112847651,327651, AUTO,0,40.0434592604,-88.2344147,0,-106.0303091365,511.0054287408,521.8898108396,-108.32204975020001,510.09630331129995,0.5263271332,0.0,-108.15083275239999,512.1044626085,1.6186823594,-8.0867394098,0.0,0.0,1480,1750,40.0480466667,-88.2331421667,0.0,0.0,0.0,0.0,0.0,0.0,0.0,0.0,0.0,0.0,0.0,0.0,0.0,0,-0.040000021499999996,0.5,0.47749263049999996,0.5751615763,90.0,60.0,60.0,88.4264831543,118.856918335,118.53860473629999,28.768001556399998,15.6556186676,20.0100002289,2,-1,10,1,14,706
71,1532112847852,327852, AUTO,0,40.0434592604,-88.2344147,0,-106.0303091365,511.0054287408,521.8898108396,-108.32204975020001,510.09630331129995,0.5530894995000001,0.0,-108.15083275239999,512.1044626085,1.6186823594,-8.0867394098,0.0,0.0,1410,1750,40.0480466667,-88.2331421667,0.0,0.0,0.0,0.0,0.0,0.0,0.0,0.0,0.0,0.0,0.0,0.0,0.0,0,-0.18000000719999998,0.5,0.47694084049999996,0.6292381883,90.0,60.0,60.0,88.93578338620001,118.6659317017,119.0479049683,28.768001556399998,15.6556186676,20.0100002289,2,-1,10,1,12,716
72,1532112848053,328053, AUTO,0,40.0434592604,-88.2344147,0,-106.0303091365,511.0054287408,521.8898108396,-108.32204975020001,510.09630331129995,0.5839904547,0.0,-108.15083275239999,512.1044626085,1.6186823594,-8.0867394098,0.0,0.0,1940,1750,40.0480466667,-88.2331421667,0.0,0.0,0.0,0.0,0.0,0.0,0.0,0.0,0.0,0.0,0.0,0.0,0.0,0,0.8799999951999999,0.5,0.47988379,0.6880970597,90.0,60.0,60.0,89.12677001950001,117.77465820309999,119.42987060549999,28.768001556399998,15.6556186676,20.0100002289,2,-1,10,1,50,726
73,1532112848253,328253, AUTO,0,40.0434592604,-88.2344147,0,-106.0832244156,510.4499172604,521.3566615413,-108.3362407836,509.55886116610003,0.4714228511,0.0,-108.2037480315,511.5489511281,1.6973239299,-8.0632601603,0.0,0.0,1470,1750,40.0480418333,-88.233142,0.0,0.0,0.0,0.0,0.0,0.0,0.0,0.0,0.0,0.0,0.0,0.0,0.0,0,-0.0600000024,0.5,0.5580557585,0.3847899139,90.0,60.0,60.0,88.235496521,117.39268493649999,120.19381713870001,28.229999542199998,15.6556186676,20.0100002289,2,-1,10,1,10,736
74,1532112848454,328454, AUTO,0,40.0434592604,-88.2344147,0,-106.0832244156,510.4499172604,521.3566615413,-108.3362407836,509.55886116610003,0.5094051957,0.0,-108.2037480315,511.5489511281,1.6973239299,-8.0632601603,0.0,0.0,1510,1750,40.0480418333,-88.233142,0.0,0.0,0.0,0.0,0.0,0.0,0.0,0.0,0.0,0.0,0.0,0.0,0.0,0,0.019999980900000002,0.5,0.5332246423,0.48558574909999996,90.0,60.0,60.0,89.25408935549999,119.81184387209998,117.4563446045,28.229999542199998,15.6556186676,20.0100002289,2,-1,10,1,21,744
75,1532112848654,328654, AUTO,0,40.0434592604,-88.2344147,0,-106.0832244156,510.4499172604,521.3566615413,-108.3362407836,509.55886116610003,0.5865654945000001,0.0,-108.2037480315,511.5489511281,1.6973239299,-8.0632601603,0.0,0.0,1450,1750,40.0480418333,-88.233142,0.0,0.0,0.0,0.0,0.0,0.0,0.0,0.0,0.0,0.0,0.0,0.0,0.0,0,-0.1000000238,0.5,0.6036713719,0.5694596171,90.0,60.0,60.0,89.5724029541,118.4749450684,119.2388916016,28.229999542199998,15.6326112747,21.9300003052,2,-1,10,1,64,751
76,1532112848855,328855, AUTO,0,40.0434592604,-88.2344147,0,-106.0832244156,510.4499172604,521.3566615413,-108.3362407836,509.55886116610003,0.5933710337,0.0,-108.2037480315,511.5489511281,1.6973239299,-8.0632601603,0.0,0.0,1500,1750,40.0480418333,-88.233142,0.0,0.0,0.0,0.0,0.0,0.0,0.0,0.0,0.0,0.0,0.0,0.0,0.0,0,0.0,0.5,0.6115804911,0.5751615763,90.0,60.0,60.0,88.55381011959999,118.53860473629999,118.9842300415,28.229999542199998,15.6326112747,21.9300003052,2,-1,10,1,60,759
77,1532112849055,329055, AUTO,0,40.0434592604,-88.2344147,0,-106.0832244156,510.4499172604,521.3566615413,-108.3362407836,509.55886116610003,0.5908879042,0.0,-108.2037480315,511.5489511281,1.6973239299,-8.0632601603,0.0,0.0,1480,1750,40.0480418333,-88.233142,0.0,0.0,0.0,0.0,0.0,0.0,0.0,0.0,0.0,0.0,0.0,0.0,0.0,0,-0.040000021499999996,0.5,0.5961300731,0.5856457949,90.0,60.0,60.0,89.82704925540001,118.72959136959999,118.7932434082,28.229999542199998,15.6326112747,21.9300003052,2,-1,10,1,172,766
78,1532112849255,329255, AUTO,0,40.0434592604,-88.2344147,0,-106.1570047775,509.9243643874,520.8571464991,-108.5064900124,509.1511464347,0.5846341848,0.0,-108.2775283934,511.0233982551,1.7156787047,-8.0459204186,0.0,0.0,1500,1750,40.0480381667,-88.23314,0.0,0.0,0.0,0.0,0.0,0.0,0.0,0.0,0.0,0.0,0.0,0.0,0.0,0,0.0,0.5,0.5882208943,0.5810474753,90.0,60.0,60.0,89.63606262209998,119.7481765747,117.6473312378,28.768001556399998,15.6326112747,21.9300003052,2,-1,10,1,128,773
79,1532112849456,329456, AUTO,0,40.0434592604,-88.2344147,0,-106.1570047775,509.9243643874,520.8571464991,-108.5064900124,509.1511464347,0.5697355270000001,0.0,-108.2775283934,511.0233982551,1.7156787047,-8.0459204186,0.0,0.0,1530,1750,40.0480381667,-88.23314,0.0,0.0,0.0,0.0,0.0,0.0,0.0,0.0,0.0,0.0,0.0,0.0,0.0,0,0.059999942800000004,0.5,0.5357996821000001,0.6036713719,90.0,60.0,60.0,89.25408935549999,118.9842300415,118.34761810299999,28.768001556399998,15.6326112747,21.9300003052,2,-1,10,1,103,781
80,1532112849656,329656, AUTO,0,40.0434592604,-88.2344147,0,-106.1570047775,509.9243643874,520.8571464991,-108.5064900124,509.1511464347,0.5772768259000001,0.0,-108.2775283934,511.0233982551,1.7156787047,-8.0459204186,0.0,0.0,1480,1750,40.0480381667,-88.23314,0.0,0.0,0.0,0.0,0.0,0.0,0.0,0.0,0.0,0.0,0.0,0.0,0.0,0,-0.040000021499999996,0.5,0.5466518402,0.6079018116,90.0,60.0,60.0,90.01803588870001,118.411277771,119.2388916016,28.768001556399998,15.6364412308,13.399999618499999,2,-1,10,1,24,789
81,1532112849857,329857, AUTO,0,40.0434592604,-88.2344147,0,-106.1570047775,509.9243643874,520.8571464991,-108.5064900124,509.1511464347,0.6028436422,0.0,-108.2775283934,511.0233982551,1.7156787047,-8.0459204186,0.0,0.0,1340,1750,40.0480381667,-88.23314,0.0,0.0,0.0,0.0,0.0,0.0,0.0,0.0,0.0,0.0,0.0,0.0,0.0,0,-0.3199999928,0.5,0.5891405344,0.6165467500999999,90.0,60.0,60.0,88.9994430542,119.6845169067,117.96564483639999,28.768001556399998,15.6364412308,13.399999618499999,2,-1,10,1,25,797
82,1532112850057,330057, AUTO,0,40.0434592604,-88.2344147,0,-106.1570047775,509.9243643874,520.8571464991,-108.5064900124,509.1511464347,0.5141874552000001,0.0,-108.2775283934,511.0233982551,1.7156787047,-8.0459204186,0.0,0.0,1440,1750,40.0480381667,-88.23314,0.0,0.0,0.0,0.0,0.0,0.0,0.0,0.0,0.0,0.0,0.0,0.0,0.0,0,-0.1200000048,0.5,0.4688477516,0.5595271587,90.0,60.0,60.0,89.3814163208,117.96564483639999,119.81184387209998,28.768001556399998,15.6364412308,13.399999618499999,2,-1,10,1,20,804
83,1532112850257,330257, AUTO,0,40.0434592604,-88.2344147,0,-106.2444455373,509.35735432629997,520.319898345,-108.634180329,508.3727819486,0.5715749264,0.0,-108.3649691532,510.456388194,1.7781742831,-8.036732260900001,0.0,0.0,1610,1750,40.0480311667,-88.2331385,0.0,0.0,0.0,0.0,0.0,0.0,0.0,0.0,0.0,0.0,0.0,0.0,0.0,0,0.22000002859999998,0.5,0.5630219579,0.5801278353,90.0,60.0,60.0,89.82704925540001,119.2388916016,118.15663146969999,28.768001556399998,15.6364412308,13.399999618499999,2,-1,10,1,201,816
84,1532112850458,330458, AUTO,0,40.0434592604,-88.2344147,0,-106.2444455373,509.35735432629997,520.319898345,-108.634180329,508.3727819486,0.5888646840999999,0.0,-108.3649691532,510.456388194,1.7781742831,-8.036732260900001,0.0,0.0,1620,1750,40.0480311667,-88.2331385,0.0,0.0,0.0,0.0,0.0,0.0,0.0,0.0,0.0,0.0,0.0,0.0,0.0,0,0.2400000095,0.5,0.6198575497,0.5578718185,90.0,60.0,60.0,89.25408935549999,119.0479049683,118.53860473629999,28.768001556399998,15.6364412308,13.399999618499999,2,-1,10,1,92,825
85,1532112850658,330658, AUTO,0,40.0434592604,-88.2344147,0,-106.2444455373,509.35735432629997,520.319898345,-108.634180329,508.3727819486,0.5228323936,0.0,-108.3649691532,510.456388194,1.7781742831,-8.036732260900001,0.0,0.0,1460,1750,40.0480311667,-88.2331385,0.0,0.0,0.0,0.0,0.0,0.0,0.0,0.0,0.0,0.0,0.0,0.0,0.0,0,-0.07999998330000001,0.5,0.5641255379,0.4815391898,90.0,60.0,60.0,89.44507598879999,118.2202911377,118.7932434082,28.768001556399998,15.6485671997,4.5,2,-1,10,1,93,833
86,1532112850858,330858, AUTO,0,40.0434592604,-88.2344147,0,-106.2444455373,509.35735432629997,520.319898345,-108.634180329,508.3727819486,0.5341442823,0.0,-108.3649691532,510.456388194,1.7781742831,-8.036732260900001,0.0,0.0,1780,1750,40.0480311667,-88.2331385,0.0,0.0,0.0,0.0,0.0,0.0,0.0,0.0,0.0,0.0,0.0,0.0,0.0,0,0.5599999428,0.5,0.5254994631000001,0.5427891612,90.0,60.0,60.0,88.55381011959999,118.4749450684,118.4749450684,28.768001556399998,15.6485671997,4.5,2,-1,10,1,73,840
87,1532112851059,331059, AUTO,0,40.0434592604,-88.2344147,0,-106.2444455373,509.35735432629997,520.319898345,-108.634180329,508.3727819486,0.5356158018,0.0,-108.3649691532,510.456388194,1.7781742831,-8.036732260900001,0.0,0.0,1530,1750,40.0480311667,-88.2331385,0.0,0.0,0.0,0.0,0.0,0.0,0.0,0.0,0.0,0.0,0.0,0.0,0.0,0,0.059999942800000004,0.5,0.5391104817,0.5321210623,90.0,60.0,60.0,89.0631027222,117.77465820309999,119.939163208,28.768001556399998,15.6485671997,4.5,2,-1,10,1,12,848
88,1532112851259,331259, AUTO,0,40.0434592604,-88.2344147,0,-106.23913247959999,508.77717797940005,519.750873114,-108.5206866237,507.8353398027,0.5762652159,0.0,-108.35965609549999,509.87621184709997,1.8180868161000001,-7.98388539,0.0,0.0,1490,1750,40.0480263333,-88.2331398333,0.0,0.0,0.0,0.0,0.0,0.0,0.0,0.0,0.0,0.0,0.0,0.0,0.0,0,-0.019999980900000002,0.5,0.4968057275,0.6557247043,90.0,60.0,60.0,89.82704925540001,119.87550354,117.39268493649999,29.8429985046,15.6485671997,4.5,2,-1,10,1,12,855
89,1532112851460,331460, AUTO,0,40.0434592604,-88.2344147,0,-106.23913247959999,508.77717797940005,519.750873114,-108.5206866237,507.8353398027,0.5143713951,0.0,-108.35965609549999,509.87621184709997,1.8180868161000001,-7.98388539,0.0,0.0,1500,1750,40.0480263333,-88.2331398333,0.0,0.0,0.0,0.0,0.0,0.0,0.0,0.0,0.0,0.0,0.0,0.0,0.0,0,0.0,0.5,0.4537651539,0.5749776363,90.0,60.0,60.0,89.63606262209998,118.9205703735,119.42987060549999,29.8429985046,15.6485671997,4.5,2,-1,10,1,152,862
90,1532112851660,331660, AUTO,0,40.0434592604,-88.2344147,0,-106.23913247959999,508.77717797940005,519.750873114,-108.5206866237,507.8353398027,0.465536952,0.0,-108.35965609549999,509.87621184709997,1.8180868161000001,-7.98388539,0.0,0.0,1480,1750,40.0480263333,-88.2331398333,0.0,0.0,0.0,0.0,0.0,0.0,0.0,0.0,0.0,0.0,0.0,0.0,0.0,0,-0.040000021499999996,0.5,0.3735699356,0.5575039386999999,90.0,60.0,60.0,88.93578338620001,119.5571899414,117.7109985352,29.8429985046,15.6574983597,10.6099996567,2,-1,10,1,194,870
91,1532112851860,331860, AUTO,0,40.0434592604,-88.2344147,0,-106.23913247959999,508.77717797940005,519.750873114,-108.5206866237,507.8353398027,0.5335924625,0.0,-108.35965609549999,509.87621184709997,1.8180868161000001,-7.98388539,0.0,0.0,1310,1750,40.0480263333,-88.2331398333,0.0,0.0,0.0,0.0,0.0,0.0,0.0,0.0,0.0,0.0,0.0,0.0,0.0,0,-0.37999999520000005,0.5,0.5216367840999999,0.5455482006,90.0,60.0,60.0,89.82704925540001,117.9019851685,119.1752166748,29.8429985046,15.6574983597,10.6099996567,2,-1,10,1,267,877
92,1532112852061,332061, AUTO,0,40.0434592604,-88.2344147,0,-106.23913247959999,508.77717797940005,519.750873114,-108.5206866237,507.8353398027,0.541041851,0.0,-108.35965609549999,509.87621184709997,1.8180868161000001,-7.98388539,0.0,0.0,1520,1750,40.0480263333,-88.2331398333,0.0,0.0,0.0,0.0,0.0,0.0,0.0,0.0,0.0,0.0,0.0,0.0,0.0,0,0.0399999619,0.5,0.6489191055,0.4331645668,90.0,60.0,60.0,87.28057098389999,117.96564483639999,120.6394424438,29.8429985046,15.6574983597,10.6099996567,2,-1,10,1,21,884
93,1532112852262,332262, AUTO,0,40.0434592604,-88.2344147,0,-106.40404859719999,508.21409831769995,519.2334651067,-108.8611828801,507.3349626336,0.5399382114,0.0,-108.5245722131,509.31313218540004,1.8992148299,-8.011636541,0.0,0.0,1550,1750,40.0480218333,-88.2331358333,0.0,0.0,0.0,0.0,0.0,0.0,0.0,0.0,0.0,0.0,0.0,0.0,0.0,0,0.1000000238,0.5,0.5369033217,0.5429731011,90.0,60.0,60.0,89.0631027222,119.1752166748,118.2839584351,28.768001556399998,15.6574983597,10.6099996567,2,-1,10,1,27,892
94,1532112852462,332462, AUTO,0,40.0434592604,-88.2344147,0,-106.40404859719999,508.21409831769995,519.2334651067,-108.8611828801,507.3349626336,0.5379149914,0.0,-108.5245722131,509.31313218540004,1.8992148299,-8.011636541,0.0,0.0,1490,1750,40.0480218333,-88.2331358333,0.0,0.0,0.0,0.0,0.0,0.0,0.0,0.0,0.0,0.0,0.0,0.0,0.0,0,-0.019999980900000002,0.5,0.5762652159,0.49956470729999997,90.0,60.0,60.0,89.5724029541,118.2202911377,119.3025436401,28.768001556399998,15.6574983597,10.6099996567,2,-1,10,1,16,900
95,1532112852663,332663, AUTO,0,40.0434592604,-88.2344147,0,-106.40404859719999,508.21409831769995,519.2334651067,-108.8611828801,507.3349626336,0.5662407875,0.0,-108.5245722131,509.31313218540004,1.8992148299,-8.011636541,0.0,0.0,1610,1750,40.0480218333,-88.2331358333,0.0,0.0,0.0,0.0,0.0,0.0,0.0,0.0,0.0,0.0,0.0,0.0,0.0,0,0.22000002859999998,0.5,0.5694596171,0.5630219579,90.0,60.0,60.0,89.5724029541,120.0664901733,117.6473312378,28.768001556399998,15.662759780899998,16.329999923699997,2,-1,10,1,18,912
96,1532112852864,332864, AUTO,0,40.0434592604,-88.2344147,0,-106.40404859719999,508.21409831769995,519.2334651067,-108.8611828801,507.3349626336,0.5911638737,0.0,-108.5245722131,509.31313218540004,1.8992148299,-8.011636541,0.0,0.0,1410,1750,40.0480218333,-88.2331358333,0.0,0.0,0.0,0.0,0.0,0.0,0.0,0.0,0.0,0.0,0.0,0.0,0.0,0,-0.18000000719999998,0.5,0.6340204477,0.54830724,90.0,60.0,60.0,89.25408935549999,117.39268493649999,119.81184387209998,28.768001556399998,15.662759780899998,16.329999923699997,2,-1,10,1,16,923
97,1532112853065,333065, AUTO,0,40.0434592604,-88.2344147,0,-106.40404859719999,508.21409831769995,519.2334651067,-108.8611828801,507.3349626336,0.5115204453,0.0,-108.5245722131,509.31313218540004,1.8992148299,-8.011636541,0.0,0.0,1330,1750,40.0480218333,-88.2331358333,0.0,0.0,0.0,0.0,0.0,0.0,0.0,0.0,0.0,0.0,0.0,0.0,0.0,0,-0.3399999738,0.5,0.5672524571,0.4557884336,90.0,60.0,60.0,89.12677001950001,119.2388916016,118.856918335,28.768001556399998,15.662759780899998,16.329999923699997,2,-1,10,1,398,933
98,1532112853265,333265, AUTO,0,40.0434592604,-88.2344147,0,-106.4595194192,507.594246345,518.6381669309,-108.97468616709999,506.53806565879995,0.5021398067,0.0,-108.5800430351,508.69328021269996,2.0,-7.9938082906,0.0,0.0,1310,1750,40.0480146667,-88.2331345,0.0,0.0,0.0,0.0,0.0,0.0,0.0,0.0,0.0,0.0,0.0,0.0,0.0,0,-0.37999999520000005,0.5,0.5025076270000001,0.5017719268999999,90.0,60.0,60.0,88.4264831543,120.13014221190001,118.2839584351,28.768001556399998,15.662759780899998,16.329999923699997,2,-1,10,1,344,943
99,1532112853466,333466, AUTO,0,40.0434592604,-88.2344147,0,-106.4595194192,507.594246345,518.6381669309,-108.97468616709999,506.53806565879995,0.536075592,0.0,-108.5800430351,508.69328021269996,2.0,-7.9938082906,0.0,0.0,1930,1750,40.0480146667,-88.2331345,0.0,0.0,0.0,0.0,0.0,0.0,0.0,0.0,0.0,0.0,0.0,0.0,0.0,0,0.8600000143000001,0.5,0.569827497,0.5023237467,90.0,60.0,60.0,89.1904296875,117.4563446045,118.9205703735,28.768001556399998,15.662759780899998,16.329999923699997,2,-1,10,1,7,952
100,1532112853667,333667, AUTO,0,40.0434592604,-88.2344147,0,-106.4595194192,507.594246345,518.6381669309,-108.97468616709999,506.53806565879995,0.6502066851,0.0,-108.5800430351,508.69328021269996,2.0,-7.9938082906,0.0,0.0,1690,1750,40.0480146667,-88.2331345,0.0,0.0,0.0,0.0,0.0,0.0,0.0,0.0,0.0,0.0,0.0,0.0,0.0,0,0.37999999520000005,0.5,0.6779806614,0.6224326491,90.0,60.0,60.0,89.3177566528,120.57579040530001,117.3290328979,28.768001556399998,15.6551084518,17.6499996185,2,-1,10,1,7,960
101,1532112853867,333867, AUTO,0,40.0434592604,-88.2344147,0,-106.4595194192,507.594246345,518.6381669309,-108.97468616709999,506.53806565879995,0.5789322853,0.0,-108.5800430351,508.69328021269996,2.0,-7.9938082906,0.0,0.0,1560,1750,40.0480146667,-88.2331345,0.0,0.0,0.0,0.0,0.0,0.0,0.0,0.0,0.0,0.0,0.0,0.0,0.0,0,0.1200000048,0.5,0.7280107737,0.42985373740000005,90.0,60.0,60.0,88.235496521,118.0929718018,119.0479049683,28.768001556399998,15.6551084518,17.6499996185,2,-1,10,1,232,972
102,1532112854067,334067, AUTO,0,40.0434592604,-88.2344147,0,-106.4595194192,507.594246345,518.6381669309,-108.97468616709999,506.53806565879995,0.5408579111,0.0,-108.5800430351,508.69328021269996,2.0,-7.9938082906,0.0,0.0,1560,1750,40.0480146667,-88.2331345,0.0,0.0,0.0,0.0,0.0,0.0,0.0,0.0,0.0,0.0,0.0,0.0,0.0,0,0.1200000048,0.5,0.6619784236,0.4197373688,90.0,60.0,60.0,90.145362854,118.53860473629999,120.0664901733,28.768001556399998,15.6551084518,17.6499996185,2,-1,10,1,228,983
103,1532112854268,334268, AUTO,0,40.0434592604,-88.2344147,0,-106.59149408319999,507.0865573021,518.1684313111,-109.1165625241,505.9264935627,0.5641255379,0.0,-108.7120176991,508.18559116980003,2.0,-8.0133438026,0.0,0.0,1510,1750,40.0480091667,-88.2331328333,0.0,0.0,0.0,0.0,0.0,0.0,0.0,0.0,0.0,0.0,0.0,0.0,0.0,0,0.019999980900000002,0.5,0.6549889445,0.473262161,90.0,60.0,60.0,88.8721160889,117.96564483639999,119.62085723879999,28.768001556399998,15.6551084518,17.6499996185,2,-1,10,1,129,993
104,1532112854468,334468, AUTO,0,40.0434592604,-88.2344147,0,-106.59149408319999,507.0865573021,518.1684313111,-109.1165625241,505.9264935627,0.5884048939000001,0.0,-108.7120176991,508.18559116980003,2.0,-8.0133438026,0.0,0.0,1530,1750,40.0480091667,-88.2331328333,0.0,0.0,0.0,0.0,0.0,0.0,0.0,0.0,0.0,0.0,0.0,0.0,0.0,0,0.059999942800000004,0.5,0.6434011459000001,0.5334085822,90.0,60.0,60.0,89.25408935549999,119.3025436401,118.15663146969999,28.768001556399998,15.6551084518,17.6499996185,2,-1,10,1,215,1003
105,1532112854669,334669, AUTO,0,40.0434592604,-88.2344147,0,-106.59149408319999,507.0865573021,518.1684313111,-109.1165625241,505.9264935627,0.5868414044,0.0,-108.7120176991,508.18559116980003,2.0,-8.0133438026,0.0,0.0,1550,1750,40.0480091667,-88.2331328333,0.0,0.0,0.0,0.0,0.0,0.0,0.0,0.0,0.0,0.0,0.0,0.0,0.0,0,0.1000000238,0.5,0.6246398090999999,0.5488590002,90.0,60.0,60.0,88.9994430542,120.51211547850001,117.3290328979,28.768001556399998,15.6554384232,14.399999618499999,2,-1,10,1,184,1013
106,1532112854869,334869, AUTO,0,40.0434592604,-88.2344147,0,-106.59149408319999,507.0865573021,518.1684313111,-109.1165625241,505.9264935627,0.534052372,0.0,-108.7120176991,508.18559116980003,2.0,-8.0133438026,0.0,0.0,1550,1750,40.0480091667,-88.2331328333,0.0,0.0,0.0,0.0,0.0,0.0,0.0,0.0,0.0,0.0,0.0,0.0,0.0,0,0.1000000238,0.5,0.5575039386999999,0.5106007457,90.0,60.0,60.0,89.44507598879999,117.39268493649999,119.939163208,28.768001556399998,15.6554384232,14.399999618499999,2,-1,10,1,225,1023
107,1532112855070,335070, AUTO,0,40.0434592604,-88.2344147,0,-106.59149408319999,507.0865573021,518.1684313111,-109.1165625241,505.9264935627,0.4957940578,0.0,-108.7120176991,508.18559116980003,2.0,-8.0133438026,0.0,0.0,1480,1750,40.0480091667,-88.2331328333,0.0,0.0,0.0,0.0,0.0,0.0,0.0,0.0,0.0,0.0,0.0,0.0,0.0,0,-0.040000021499999996,0.5,0.4657208622,0.5258672236999999,90.0,60.0,60.0,89.5087432861,118.9205703735,118.9205703735,28.768001556399998,15.6554384232,14.399999618499999,2,-1,10,1,235,1033
108,1532112855270,335270, AUTO,0,40.0434592604,-88.2344147,0,-106.6061439591,506.523465975,517.6204125739,-108.94631710270001,505.7967661482,0.5346040726,0.0,-108.726667575,507.6224998427,2.0,-7.9872688489999994,0.0,0.0,1640,1750,40.048008,-88.2331348333,0.0,0.0,0.0,0.0,0.0,0.0,0.0,0.0,0.0,0.0,0.0,0.0,0.0,0,0.2799999714,0.5,0.5302816629,0.5389265418,90.0,60.0,60.0,89.9543762207,119.939163208,117.7109985352,28.768001556399998,15.6554384232,14.399999618499999,2,-1,10,1,168,1042
109,1532112855470,335470, AUTO,0,40.0434592604,-88.2344147,0,-106.6061439591,506.523465975,517.6204125739,-108.94631710270001,505.7967661482,0.5618263483,0.0,-108.726667575,507.6224998427,2.0,-7.9872688489999994,0.0,0.0,1530,1750,40.048008,-88.2331348333,0.0,0.0,0.0,0.0,0.0,0.0,0.0,0.0,0.0,0.0,0.0,0.0,0.0,0,0.059999942800000004,0.5,0.5887727141,0.5348800421000001,90.0,60.0,60.0,88.74479675290002,118.53860473629999,119.1752166748,28.768001556399998,15.6554384232,14.399999618499999,2,-1,10,1,233,1052
110,1532112855671,335671, AUTO,0,40.0434592604,-88.2344147,0,-106.6061439591,506.523465975,517.6204125739,-108.94631710270001,505.7967661482,0.5681720972,0.0,-108.726667575,507.6224998427,2.0,-7.9872688489999994,0.0,0.0,1480,1750,40.048008,-88.2331348333,0.0,0.0,0.0,0.0,0.0,0.0,0.0,0.0,0.0,0.0,0.0,0.0,0.0,0,-0.040000021499999996,0.5,0.567620337,0.5687238574,90.0,60.0,60.0,89.1904296875,118.9842300415,118.411277771,28.768001556399998,15.6600933075,9.0699996948,2,-1,10,1,194,1061
111,1532112855871,335871, AUTO,0,40.0434592604,-88.2344147,0,-106.6061439591,506.523465975,517.6204125739,-108.94631710270001,505.7967661482,0.5868414044,0.0,-108.726667575,507.6224998427,2.0,-7.9872688489999994,0.0,0.0,1490,1750,40.048008,-88.2331348333,0.0,0.0,0.0,0.0,0.0,0.0,0.0,0.0,0.0,0.0,0.0,0.0,0.0,0,-0.019999980900000002,0.5,0.5795760154999999,0.5941067934,90.0,60.0,60.0,89.6997299194,118.72959136959999,118.856918335,28.768001556399998,15.6600933075,9.0699996948,2,-1,10,1,141,1069
112,1532112856072,336072, AUTO,0,40.0434592604,-88.2344147,0,-106.6061439591,506.523465975,517.6204125739,-108.94631710270001,505.7967661482,0.595210433,0.0,-108.726667575,507.6224998427,2.0,-7.9872688489999994,0.0,0.0,1460,1750,40.048008,-88.2331348333,0.0,0.0,0.0,0.0,0.0,0.0,0.0,0.0,0.0,0.0,0.0,0.0,0.0,0,-0.07999998330000001,0.5,0.6075339913000001,0.5819671154,90.0,60.0,60.0,90.0816955566,119.1115570068,118.856918335,28.768001556399998,15.6600933075,9.0699996948,2,-1,10,1,86,1078
113,1532112856272,336272, AUTO,0,40.0434592604,-88.2344147,0,-106.66548069219999,505.9622730099,517.0835004915,-108.7193243561,505.46318136839994,0.5672523975,0.0,-108.78600430809999,507.06130687760003,2.0,-7.986534785,0.0,0.0,1260,1750,40.048005,-88.2331375,0.0,0.0,0.0,0.0,0.0,0.0,0.0,0.0,0.0,0.0,0.0,0.0,0.0,0,-0.48000001909999995,0.5,0.5240279436,0.6104769111,90.0,60.0,60.0,89.1904296875,118.4749450684,119.4935302734,28.768001556399998,15.6600933075,9.0699996948,2,-1,10,1,129,1086
114,1532112856472,336472, AUTO,0,40.0434592604,-88.2344147,0,-106.66548069219999,505.9622730099,517.0835004915,-108.7193243561,505.46318136839994,0.5337764621,0.0,-108.78600430809999,507.06130687760003,2.0,-7.986534785,0.0,0.0,1460,1750,40.048005,-88.2331375,0.0,0.0,0.0,0.0,0.0,0.0,0.0,0.0,0.0,0.0,0.0,0.0,0.0,0,-0.07999998330000001,0.5,0.46093860270000003,0.6066142917,90.0,60.0,60.0,88.6174697876,119.0479049683,118.9842300415,28.768001556399998,15.6600933075,9.0699996948,2,-1,10,1,43,1095
115,1532112856673,336673, AUTO,0,40.0434592604,-88.2344147,0,-106.66548069219999,505.9622730099,517.0835004915,-108.7193243561,505.46318136839994,0.5218207836,0.0,-108.78600430809999,507.06130687760003,2.0,-7.986534785,0.0,0.0,1420,1750,40.048005,-88.2331375,0.0,0.0,0.0,0.0,0.0,0.0,0.0,0.0,0.0,0.0,0.0,0.0,0.0,0,-0.16000002619999998,0.5,0.3640053868,0.6796361208,90.0,60.0,60.0,87.08958435059999,118.53860473629999,119.2388916016,28.768001556399998,15.6518268585,19.4099979401,2,-1,10,1,78,1104
116,1532112856874,336874, AUTO,0,40.0434592604,-88.2344147,0,-106.66548069219999,505.9622730099,517.0835004915,-108.7193243561,505.46318136839994,0.5019558668,0.0,-108.78600430809999,507.06130687760003,2.0,-7.986534785,0.0,0.0,1420,1750,40.048005,-88.2331375,0.0,0.0,0.0,0.0,0.0,0.0,0.0,0.0,0.0,0.0,0.0,0.0,0.0,0,-0.16000002619999998,0.5,0.41219607,0.5917156339,90.0,60.0,60.0,90.6546554565,118.15663146969999,119.81184387209998,28.768001556399998,15.6518268585,19.4099979401,2,-1,10,1,73,1112
