,(0)linux time (ms),    (1)uptime  (ms),      (2)drive mode,(3)mpc step counter,(4)mpc origin latitude  (deg),(5)mpc origin longitude  (deg),(6)closest trajectory point index to robot,(7)mpc error x (W;E)  (m),(8)mpc error y (W;E)  (m),(9)abs mpc error (m),(10)input [x] for mhe (m),(11)input [y] for mhe (m),(12)input [speed] for mhe (m/s),(13)input [vyaw] for mhe (rad/s),(14)mhe output x  (m),(15)mhe output y  (m),(16)mhe output speed  (m/s),(17)mhe output yaw  (rad),(18)mpc reference heading (rad),(19)mpc turn rate command (rad/s),(20)turn rate command as PWM,(21)throttle command as PWM,(22)primary gps latitude (deg),(23)primary gps longitude (deg),(24)secondary gps latitude  (deg),(25)secondary gps longitude (deg),(26)accelerometer x (m/s^2),(27)accelerometer y (m/s^2),(28)accelerometer z (m/s^2),(29)gyro yaw rate (rad/s),(30)gyro pitch rate   (rad/s),(31)gyro roll rate (rad/s),      (32)yaw (rad),  (33)pitch   (rad),     (34)roll (rad),(35)sonar1 measurement (m),(36)ultrasonic sensor measurement (m),(37)primary gps time (s),(38)normalized turn rate command,(39)normalized throttle command,(40)speed calculation from encoder left (m/s),(41)speed calculation from encoder right (m/s),(42)front gimbal target angle (degrees from straight down),(43)left gimbal target angle  (degrees from straight down),(44)right gimbal target angle  (degrees from straight down),(45)front gimbal measured angle  (degrees from straight down),(46)left gimbal measured angle    (degrees from straight down),(47)right gimbal measured angle  (degrees from straight down),(48)internal temperature (C),(49)battery voltage (V),(50)primary gps type,(51)secondary gps type,    (52)MPC R value, (53)MPC Q[0] value,Unnamed: 54,weed_num,start
0,1532113980704,126704, AUTO,0,40.0434592604,-88.2344147,0,-110.11188133729999,518.1234923431,529.6947986619,-112.22345997010001,519.2328197843,0.35646408799999996,0.0,-112.2324049532,519.2225262108,0.47188535509999996,-18.771607112999998,0.0,0.0,1610,1750,40.0481288333,-88.2330963333,0.0,0.0,0.0,0.0,0.0,0.0,0.0,0.0,0.0,0.0,0.0,0.0,0.0,0,0.22000002859999998,0.5,0.3522335887,0.3606945574,90.0,60.0,60.0,89.12677001950001,119.1115570068,119.3662033081,34.1479988098,16.1637096405,41.1399993896,2,-1,10,1,58,0
1,1532113980904,126904, AUTO,0,40.0434592604,-88.2344147,0,-110.0279242144,518.185859761,529.7383593465,-112.2376472906,519.2142872955001,0.3434967399,0.0,-112.1484478303,519.2848936287,0.4819245956,-18.644986357,0.0,0.0,1610,1750,40.0481286667,-88.2330961667,0.0,0.0,0.0,0.0,0.0,0.0,0.0,0.0,0.0,0.0,0.0,0.0,0.0,0,0.22000002859999998,0.5,0.3251952827,0.36179816719999996,90.0,60.0,60.0,90.2726821899,119.5571899414,118.7932434082,35.223999023400005,16.1637096405,41.1399993896,2,-1,10,1,58,0
2,1532113981105,127105, AUTO,0,40.0434592604,-88.2344147,0,-110.0279242144,518.185859761,529.7383593465,-112.2376472906,519.2142872955001,0.3381626606,0.0,-112.1484478303,519.2848936287,0.4819245956,-18.644986357,0.0,0.0,1610,1750,40.0481286667,-88.2330961667,0.0,0.0,0.0,0.0,0.0,0.0,0.0,0.0,0.0,0.0,0.0,0.0,0.0,0,0.22000002859999998,0.5,0.3189415336,0.35738375780000003,90.0,60.0,60.0,91.3549346924,119.5571899414,118.9205703735,35.223999023400005,16.1637096405,41.1399993896,2,-1,10,1,130,11
3,1532113981305,127305, AUTO,0,40.0434592604,-88.2344147,0,-110.0279242144,518.185859761,529.7383593465,-112.2376472906,519.2142872955001,0.3440485299,0.0,-112.1484478303,519.2848936287,0.4819245956,-18.644986357,0.0,0.0,1610,1750,40.0481286667,-88.2330961667,0.0,0.0,0.0,0.0,0.0,0.0,0.0,0.0,0.0,0.0,0.0,0.0,0.0,0,0.22000002859999998,0.5,0.337150991,0.3509460688,90.0,60.0,60.0,88.235496521,118.9205703735,119.0479049683,35.223999023400005,16.1637096405,41.1399993896,2,-1,10,1,260,20
4,1532113981506,127506, AUTO,0,40.0434592604,-88.2344147,0,-110.0279242144,518.185859761,529.7383593465,-112.2376472906,519.2142872955001,0.34368065,0.0,-112.1484478303,519.2848936287,0.4819245956,-18.644986357,0.0,0.0,1610,1750,40.0481286667,-88.2330961667,0.0,0.0,0.0,0.0,0.0,0.0,0.0,0.0,0.0,0.0,0.0,0.0,0.0,0,0.22000002859999998,0.5,0.3354955912,0.3518657088,90.0,60.0,60.0,88.8084564209,118.4749450684,119.42987060549999,35.223999023400005,16.1505050659,44.0499992371,2,-1,10,1,171,30
5,1532113981706,127706, AUTO,0,40.0434592604,-88.2344147,0,-110.0279242144,518.185859761,529.7383593465,-112.2376472906,519.2142872955001,0.3679599762,0.0,-112.1484478303,519.2848936287,0.4819245956,-18.644986357,0.0,0.0,1610,1750,40.0481286667,-88.2330961667,0.0,0.0,0.0,0.0,0.0,0.0,0.0,0.0,0.0,0.0,0.0,0.0,0.0,0,0.22000002859999998,0.5,0.38515779380000004,0.3507621288,90.0,60.0,60.0,89.44507598879999,117.9019851685,120.32112884520001,35.223999023400005,16.1505050659,44.0499992371,2,-1,10,1,180,39
6,1532113981907,127907, AUTO,0,40.0434592604,-88.2344147,0,-109.96112895690001,518.1818757994,529.7205926604,-112.2092736098,519.1216248572,0.3514058888,0.0,-112.08165257280001,519.2809096671,0.4745326712,-18.6381756362,0.0,0.0,1610,1750,40.0481278333,-88.2330965,0.0,0.0,0.0,0.0,0.0,0.0,0.0,0.0,0.0,0.0,0.0,0.0,0.0,0,0.22000002859999998,0.5,0.3665804267,0.33623135090000006,90.0,60.0,60.0,89.6997299194,121.6580352783,119.3662033081,35.223999023400005,16.1505050659,44.0499992371,2,-1,10,1,240,48
7,1532113982107,128107, AUTO,0,40.0434592604,-88.2344147,0,-109.96112895690001,518.1818757994,529.7205926604,-112.2092736098,519.1216248572,0.2968694568,0.0,-112.08165257280001,519.2809096671,0.4745326712,-18.6381756362,0.0,0.0,1610,1750,40.0481278333,-88.2330965,0.0,0.0,0.0,0.0,0.0,0.0,0.0,0.0,0.0,0.0,0.0,0.0,0.0,0,0.22000002859999998,0.5,0.3303454518,0.2633934617,90.0,60.0,60.0,89.44507598879999,115.0371856689,119.87550354,35.223999023400005,16.1505050659,44.0499992371,2,-1,10,1,289,57
8,1532113982307,128307, AUTO,0,40.0434592604,-88.2344147,0,-109.96112895690001,518.1818757994,529.7205926604,-112.2092736098,519.1216248572,0.2844539285,0.0,-112.08165257280001,519.2809096671,0.4745326712,-18.6381756362,0.0,0.0,1610,1750,40.0481278333,-88.2330965,0.0,0.0,0.0,0.0,0.0,0.0,0.0,0.0,0.0,0.0,0.0,0.0,0.0,0,0.22000002859999998,0.5,0.3610624373,0.20784540469999999,90.0,60.0,60.0,89.5087432861,117.4563446045,119.4935302734,35.223999023400005,16.1505050659,44.0499992371,2,-1,10,1,376,66
9,1532113982508,128508, AUTO,0,40.0434592604,-88.2344147,0,-109.96112895690001,518.1818757994,529.7205926604,-112.2092736098,519.1216248572,0.2923630774,0.0,-112.08165257280001,519.2809096671,0.4745326712,-18.6381756362,0.0,0.0,1610,1750,40.0481278333,-88.2330965,0.0,0.0,0.0,0.0,0.0,0.0,0.0,0.0,0.0,0.0,0.0,0.0,0.0,0,0.22000002859999998,0.5,0.39141154289999996,0.1933146268,90.0,60.0,60.0,89.5087432861,122.1673278809,119.4935302734,35.223999023400005,16.1216869354,34.0299987793,2,-1,10,1,286,74
10,1532113982708,128708, AUTO,0,40.0434592604,-88.2344147,0,-109.96112895690001,518.1818757994,529.7205926604,-112.2092736098,519.1216248572,0.2280781567,0.0,-112.08165257280001,519.2809096671,0.4745326712,-18.6381756362,0.0,0.0,1610,1750,40.0481278333,-88.2330965,0.0,0.0,0.0,0.0,0.0,0.0,0.0,0.0,0.0,0.0,0.0,0.0,0.0,0,0.22000002859999998,0.5,0.2641292214,0.19202709199999998,90.0,60.0,60.0,89.63606262209998,118.72959136959999,119.3662033081,35.223999023400005,16.1216869354,34.0299987793,2,-1,10,1,285,83
11,1532113982909,128909, AUTO,0,40.0434592604,-88.2344147,0,-109.9023045774,518.2117521122,529.7376110666,-112.1808982819,519.2513522723,0.2252271771,0.0,-112.0228281933,519.3107859799,0.47336548689999997,-18.5993622332,0.0,0.0,1610,1750,40.048129,-88.2330968333,0.0,0.0,0.0,0.0,0.0,0.0,0.0,0.0,0.0,0.0,0.0,0.0,0.0,0,0.22000002859999998,0.5,0.2720383704,0.17841596899999998,90.0,60.0,60.0,89.6997299194,118.856918335,119.1115570068,35.223999023400005,16.1216869354,34.0299987793,2,-1,10,1,218,91
12,1532113983109,129109, AUTO,0,40.0434592604,-88.2344147,0,-109.9023045774,518.2117521122,529.7376110666,-112.1808982819,519.2513522723,0.2519895732,0.0,-112.0228281933,519.3107859799,0.47336548689999997,-18.5993622332,0.0,0.0,1610,1750,40.048129,-88.2330968333,0.0,0.0,0.0,0.0,0.0,0.0,0.0,0.0,0.0,0.0,0.0,0.0,0.0,0,0.22000002859999998,0.5,0.27921181920000004,0.2247673422,90.0,60.0,60.0,84.3521194458,119.3025436401,117.77465820309999,35.223999023400005,16.1216869354,34.0299987793,2,-1,10,1,220,100
13,1532113983310,129310, AUTO,0,40.0434592604,-88.2344147,0,-109.9023045774,518.2117521122,529.7376110666,-112.1808982819,519.2513522723,0.2942943871,0.0,-112.0228281933,519.3107859799,0.47336548689999997,-18.5993622332,0.0,0.0,1610,1750,40.048129,-88.2330968333,0.0,0.0,0.0,0.0,0.0,0.0,0.0,0.0,0.0,0.0,0.0,0.0,0.0,0,0.22000002859999998,0.5,0.3827666342,0.20582214,90.0,60.0,60.0,88.0445098877,117.6473312378,119.3662033081,35.223999023400005,16.1216869354,34.0299987793,2,-1,10,1,145,109
14,1532113983510,129510, AUTO,0,40.0434592604,-88.2344147,0,-109.9023045774,518.2117521122,529.7376110666,-112.1808982819,519.2513522723,0.3079054952,0.0,-112.0228281933,519.3107859799,0.47336548689999997,-18.5993622332,0.0,0.0,1610,1750,40.048129,-88.2330968333,0.0,0.0,0.0,0.0,0.0,0.0,0.0,0.0,0.0,0.0,0.0,0.0,0.0,0,0.22000002859999998,0.5,0.4276465178,0.18816447260000002,90.0,60.0,60.0,90.6546554565,119.2388916016,119.6845169067,35.223999023400005,16.1143531799,23.75,2,-1,10,1,205,118
15,1532113983710,129710, AUTO,0,40.0434592604,-88.2344147,0,-109.9023045774,518.2117521122,529.7376110666,-112.1808982819,519.2513522723,0.2212725878,0.0,-112.0228281933,519.3107859799,0.47336548689999997,-18.5993622332,0.0,0.0,1860,1750,40.048129,-88.2330968333,0.0,0.0,0.0,0.0,0.0,0.0,0.0,0.0,0.0,0.0,0.0,0.0,0.0,0,0.7200000286,0.5,0.1180856228,0.3244595528,90.0,60.0,60.0,89.25408935549999,119.42987060549999,119.1115570068,35.223999023400005,16.1143531799,23.75,2,-1,10,1,217,127
16,1532113983911,129911, AUTO,0,40.0434592604,-88.2344147,0,-109.8469640702,518.2099973861,529.7244159998,-112.1383367298,519.2513522723,0.2179617882,0.0,-111.9674876861,519.3090312538,0.4429436504,-18.6223924447,0.0,0.0,1770,1750,40.048129,-88.2330973333,0.0,0.0,0.0,0.0,0.0,0.0,0.0,0.0,0.0,0.0,0.0,0.0,0.0,0,0.5399999619,0.5,0.09178306160000001,0.34414049979999994,90.0,60.0,60.0,93.2648010254,119.87550354,118.856918335,35.223999023400005,16.1143531799,23.75,2,-1,10,1,257,136
17,1532113984111,130111, AUTO,0,40.0434592604,-88.2344147,0,-109.8469640702,518.2099973861,529.7244159998,-112.1383367298,519.2513522723,0.2882245779,0.0,-111.9674876861,519.3090312538,0.4429436504,-18.6223924447,0.0,0.0,1440,1750,40.048129,-88.2330973333,0.0,0.0,0.0,0.0,0.0,0.0,0.0,0.0,0.0,0.0,0.0,0.0,0.0,0,-0.1200000048,0.5,0.2435286045,0.3329205215,90.0,60.0,60.0,92.3735275269,119.6845169067,119.42987060549999,35.223999023400005,16.1143531799,23.75,2,-1,10,1,161,145
18,1532113984312,130312, AUTO,0,40.0434592604,-88.2344147,0,-109.8469640702,518.2099973861,529.7244159998,-112.1383367298,519.2513522723,0.3139753342,0.0,-111.9674876861,519.3090312538,0.4429436504,-18.6223924447,0.0,0.0,1630,1750,40.048129,-88.2330973333,0.0,0.0,0.0,0.0,0.0,0.0,0.0,0.0,0.0,0.0,0.0,0.0,0.0,0,0.2599999905,0.5,0.253277123,0.3746735454,90.0,60.0,60.0,90.01803588870001,119.3025436401,118.53860473629999,35.223999023400005,16.1143531799,23.75,2,-1,10,1,140,154
19,1532113984512,130512, AUTO,0,40.0434592604,-88.2344147,0,-109.8469640702,518.2099973861,529.7244159998,-112.1383367298,519.2513522723,0.3119520545,0.0,-111.9674876861,519.3090312538,0.4429436504,-18.6223924447,0.0,0.0,1520,1750,40.048129,-88.2330973333,0.0,0.0,0.0,0.0,0.0,0.0,0.0,0.0,0.0,0.0,0.0,0.0,0.0,0,0.0399999619,0.5,0.2718544304,0.3520496488,90.0,60.0,60.0,90.7183227539,118.9205703735,119.1752166748,35.223999023400005,16.1135578156,69.56999969479999,2,-1,10,1,160,163
20,1532113984712,130712, AUTO,0,40.0434592604,-88.2344147,0,-109.8469640702,518.2099973861,529.7244159998,-112.1383367298,519.2513522723,0.3146190941,0.0,-111.9674876861,519.3090312538,0.4429436504,-18.6223924447,0.0,0.0,1610,1750,40.048129,-88.2330973333,0.0,0.0,0.0,0.0,0.0,0.0,0.0,0.0,0.0,0.0,0.0,0.0,0.0,0,0.22000002859999998,0.5,0.2738777101,0.3553604782,90.0,60.0,60.0,89.5724029541,118.411277771,120.00283050540001,35.223999023400005,16.1135578156,69.56999969479999,2,-1,10,1,132,172
21,1532113984913,130913, AUTO,0,40.0434592604,-88.2344147,0,-109.8276649148,518.1403885116,529.6523182122,-112.4078958299,518.8992350037,0.3645571768,0.0,-111.9481885307,519.2394223793,0.40348377950000003,-18.708694179000002,0.0,0.0,1600,1750,40.0481258333,-88.2330941667,0.0,0.0,0.0,0.0,0.0,0.0,0.0,0.0,0.0,0.0,0.0,0.0,0.0,0,0.2000000477,0.5,0.35572835799999997,0.3733859956,90.0,60.0,60.0,89.25408935549999,119.6845169067,119.6845169067,35.223999023400005,16.1135578156,69.56999969479999,2,-1,10,1,131,181
22,1532113985113,131113, AUTO,0,40.0434592604,-88.2344147,0,-109.8276649148,518.1403885116,529.6523182122,-112.4078958299,518.8992350037,0.3202290833,0.0,-111.9481885307,519.2394223793,0.40348377950000003,-18.708694179000002,0.0,0.0,1610,1750,40.0481258333,-88.2330941667,0.0,0.0,0.0,0.0,0.0,0.0,0.0,0.0,0.0,0.0,0.0,0.0,0.0,0,0.22000002859999998,0.5,0.26192200179999997,0.37853616479999996,90.0,60.0,60.0,88.2991638184,119.3025436401,119.3662033081,35.223999023400005,16.1135578156,69.56999969479999,2,-1,10,1,137,190
23,1532113985313,131313, AUTO,0,40.0434592604,-88.2344147,0,-109.8276649148,518.1403885116,529.6523182122,-112.4078958299,518.8992350037,0.3251952827,0.0,-111.9481885307,519.2394223793,0.40348377950000003,-18.708694179000002,0.0,0.0,1620,1750,40.0481258333,-88.2330941667,0.0,0.0,0.0,0.0,0.0,0.0,0.0,0.0,0.0,0.0,0.0,0.0,0.0,0,0.2400000095,0.5,0.3415654004,0.308825165,90.0,60.0,60.0,89.6997299194,118.411277771,119.62085723879999,35.223999023400005,16.1135578156,69.56999969479999,2,-1,10,1,181,201
24,1532113985514,131514, AUTO,0,40.0434592604,-88.2344147,0,-109.8276649148,518.1403885116,529.6523182122,-112.4078958299,518.8992350037,0.2953060269,0.0,-111.9481885307,519.2394223793,0.40348377950000003,-18.708694179000002,0.0,0.0,1610,1750,40.0481258333,-88.2330941667,0.0,0.0,0.0,0.0,0.0,0.0,0.0,0.0,0.0,0.0,0.0,0.0,0.0,0,0.22000002859999998,0.5,0.2442643493,0.34082970020000003,90.0,60.0,60.0,89.82704925540001,120.6394424438,118.2839584351,35.223999023400005,16.12317276,61.0999984741,2,-1,10,1,205,212
25,1532113985715,131715, AUTO,0,40.0434592604,-88.2344147,0,-109.8276649148,518.1403885116,529.6523182122,-112.4078958299,518.8992350037,0.322068423,0.0,-111.9481885307,519.2394223793,0.40348377950000003,-18.708694179000002,0.0,0.0,1610,1750,40.0481258333,-88.2330941667,0.0,0.0,0.0,0.0,0.0,0.0,0.0,0.0,0.0,0.0,0.0,0.0,0.0,0,0.22000002859999998,0.5,0.3233559728,0.3207808733,90.0,60.0,60.0,89.63606262209998,118.6659317017,119.7481765747,35.223999023400005,16.12317276,61.0999984741,2,-1,10,1,215,222
26,1532113985915,131915, AUTO,0,40.0434592604,-88.2344147,0,-109.8521800625,518.0480713782,529.5670927494999,-112.6490782326,518.8621700282,0.3395421505,0.0,-111.9727036784,519.1471052459,0.34163045119999996,-18.8507672323,0.0,0.0,1610,1750,40.0481255,-88.2330913333,0.0,0.0,0.0,0.0,0.0,0.0,0.0,0.0,0.0,0.0,0.0,0.0,0.0,0,0.22000002859999998,0.5,0.3463477194,0.3327365816,90.0,60.0,60.0,89.5724029541,118.53860473629999,119.62085723879999,35.223999023400005,16.12317276,61.0999984741,2,-1,10,1,212,232
27,1532113986116,132116, AUTO,0,40.0434592604,-88.2344147,0,-109.8521800625,518.0480713782,529.5670927494999,-112.6490782326,518.8621700282,0.35407292840000004,0.0,-111.9727036784,519.1471052459,0.34163045119999996,-18.8507672323,0.0,0.0,1610,1750,40.0481255,-88.2330913333,0.0,0.0,0.0,0.0,0.0,0.0,0.0,0.0,0.0,0.0,0.0,0.0,0.0,0,0.22000002859999998,0.5,0.3676840663,0.3404618204,90.0,60.0,60.0,89.82704925540001,118.7932434082,120.6394424438,35.223999023400005,16.12317276,61.0999984741,2,-1,10,1,183,241
28,1532113986317,132317, AUTO,0,40.0434592604,-88.2344147,0,-109.8521800625,518.0480713782,529.5670927494999,-112.6490782326,518.8621700282,0.329793632,0.0,-111.9727036784,519.1471052459,0.34163045119999996,-18.8507672323,0.0,0.0,1430,1750,40.0481255,-88.2330913333,0.0,0.0,0.0,0.0,0.0,0.0,0.0,0.0,0.0,0.0,0.0,0.0,0.0,0,-0.1399999857,0.5,0.29245501760000003,0.3671322465,90.0,60.0,60.0,89.82704925540001,117.13804626459999,120.76677703860001,35.223999023400005,16.12317276,61.0999984741,2,-1,10,1,157,251
29,1532113986517,132517, AUTO,0,40.0434592604,-88.2344147,0,-109.8521800625,518.0480713782,529.5670927494999,-112.6490782326,518.8621700282,0.37890401479999997,0.0,-111.9727036784,519.1471052459,0.34163045119999996,-18.8507672323,0.0,0.0,1580,1750,40.0481255,-88.2330913333,0.0,0.0,0.0,0.0,0.0,0.0,0.0,0.0,0.0,0.0,0.0,0.0,0.0,0,0.15999996660000002,0.5,0.30109992620000003,0.4567081034,90.0,60.0,60.0,88.74479675290002,120.6394424438,117.8383178711,35.223999023400005,16.1128063202,61.7600021362,2,-1,10,1,161,261
30,1532113986718,132718, AUTO,0,40.0434592604,-88.2344147,0,-109.8521800625,518.0480713782,529.5670927494999,-112.6490782326,518.8621700282,0.35894718770000006,0.0,-111.9727036784,519.1471052459,0.34163045119999996,-18.8507672323,0.0,0.0,1300,1750,40.0481255,-88.2330913333,0.0,0.0,0.0,0.0,0.0,0.0,0.0,0.0,0.0,0.0,0.0,0.0,0.0,0,-0.3999999762,0.5,0.32979366179999997,0.3881007135,90.0,60.0,60.0,90.3363494873,119.1752166748,119.5571899414,35.223999023400005,16.1128063202,61.7600021362,2,-1,10,1,153,272
31,1532113986919,132919, AUTO,0,40.0434592604,-88.2344147,0,-109.86716871649999,517.9577654586,529.4818614085,-112.3227725886,518.9177674925,0.2964096069,0.0,-111.9876923324,519.0567993262999,0.3264667862,-19.0317498845,0.0,0.0,1610,1750,40.048126,-88.2330951667,0.0,0.0,0.0,0.0,0.0,0.0,0.0,0.0,0.0,0.0,0.0,0.0,0.0,0,0.22000002859999998,0.5,0.2102365494,0.38258269429999997,90.0,60.0,60.0,87.8535232544,118.0929718018,120.4484634399,34.686000824000004,16.1128063202,61.7600021362,2,-1,10,1,123,282
32,1532113987120,133120, AUTO,0,40.0434592604,-88.2344147,0,-109.86716871649999,517.9577654586,529.4818614085,-112.3227725886,518.9177674925,0.3528773785,0.0,-111.9876923324,519.0567993262999,0.3264667862,-19.0317498845,0.0,0.0,1580,1750,40.048126,-88.2330951667,0.0,0.0,0.0,0.0,0.0,0.0,0.0,0.0,0.0,0.0,0.0,0.0,0.0,0,0.15999996660000002,0.5,0.18172678350000002,0.5240279436,90.0,60.0,60.0,88.0445098877,120.0664901733,117.2017059326,34.686000824000004,16.1128063202,61.7600021362,2,-1,10,1,96,292
33,1532113987321,133321, AUTO,0,40.0434592604,-88.2344147,0,-109.86716871649999,517.9577654586,529.4818614085,-112.3227725886,518.9177674925,0.3025714159,0.0,-111.9876923324,519.0567993262999,0.3264667862,-19.0317498845,0.0,0.0,1580,1750,40.048126,-88.2330951667,0.0,0.0,0.0,0.0,0.0,0.0,0.0,0.0,0.0,0.0,0.0,0.0,0.0,0,0.15999996660000002,0.5,0.2115240991,0.3936187625,90.0,60.0,60.0,89.5087432861,119.4935302734,118.7932434082,34.686000824000004,16.1128063202,61.7600021362,2,-1,10,1,130,302
34,1532113987522,133522, AUTO,0,40.0434592604,-88.2344147,0,-109.86716871649999,517.9577654586,529.4818614085,-112.3227725886,518.9177674925,0.3452441096,0.0,-111.9876923324,519.0567993262999,0.3264667862,-19.0317498845,0.0,0.0,1590,1750,40.048126,-88.2330951667,0.0,0.0,0.0,0.0,0.0,0.0,0.0,0.0,0.0,0.0,0.0,0.0,0.0,0,0.1799999475,0.5,0.2759009898,0.41458722950000004,90.0,60.0,60.0,88.93578338620001,120.4484634399,117.9019851685,34.686000824000004,16.0882110596,36.340000152600005,2,-1,10,1,186,311
35,1532113987723,133723, AUTO,0,40.0434592604,-88.2344147,0,-109.86716871649999,517.9577654586,529.4818614085,-112.3227725886,518.9177674925,0.335955441,0.0,-111.9876923324,519.0567993262999,0.3264667862,-19.0317498845,0.0,0.0,1600,1750,40.048126,-88.2330951667,0.0,0.0,0.0,0.0,0.0,0.0,0.0,0.0,0.0,0.0,0.0,0.0,0.0,0,0.2000000477,0.5,0.25456464289999997,0.4173462093,90.0,60.0,60.0,90.6546554565,119.3662033081,118.856918335,34.686000824000004,16.0882110596,36.340000152600005,2,-1,10,1,135,321
36,1532113987924,133924, AUTO,0,40.0434592604,-88.2344147,0,-109.92734276440001,517.8390500462999,529.3782224838,-112.30858567959999,518.8807025156,0.34073770049999996,0.0,-112.04786638030001,518.938083914,0.3225829401,-19.3475168601,0.0,0.0,1550,1750,40.0481256667,-88.2330953333,0.0,0.0,0.0,0.0,0.0,0.0,0.0,0.0,0.0,0.0,0.0,0.0,0.0,0,0.1000000238,0.5,0.2630255818,0.41844984890000003,90.0,60.0,60.0,88.681137085,118.2202911377,119.5571899414,34.1479988098,16.0882110596,36.340000152600005,2,-1,10,1,297,330
37,1532113988124,134124, AUTO,0,40.0434592604,-88.2344147,0,-109.92734276440001,517.8390500462999,529.3782224838,-112.30858567959999,518.8807025156,0.3428529501,0.0,-112.04786638030001,518.938083914,0.3225829401,-19.3475168601,0.0,0.0,1600,1750,40.0481256667,-88.2330953333,0.0,0.0,0.0,0.0,0.0,0.0,0.0,0.0,0.0,0.0,0.0,0.0,0.0,0,0.2000000477,0.5,0.2744295001,0.4112764001,90.0,60.0,60.0,90.7183227539,119.7481765747,118.4749450684,34.1479988098,16.0882110596,36.340000152600005,2,-1,10,1,207,339
38,1532113988326,134326, AUTO,0,40.0434592604,-88.2344147,0,-109.92734276440001,517.8390500462999,529.3782224838,-112.30858567959999,518.8807025156,0.32105678320000003,0.0,-112.04786638030001,518.938083914,0.3225829401,-19.3475168601,0.0,0.0,1540,1750,40.0481256667,-88.2330953333,0.0,0.0,0.0,0.0,0.0,0.0,0.0,0.0,0.0,0.0,0.0,0.0,0.0,0,0.0800000429,0.5,0.27350983019999997,0.3686037064,90.0,60.0,60.0,88.36282348629999,117.8383178711,119.3662033081,34.1479988098,16.0882110596,36.340000152600005,2,-1,10,1,59,349
39,1532113988526,134526, AUTO,0,40.0434592604,-88.2344147,0,-109.92734276440001,517.8390500462999,529.3782224838,-112.30858567959999,518.8807025156,0.2836261988,0.0,-112.04786638030001,518.938083914,0.3225829401,-19.3475168601,0.0,0.0,1610,1750,40.0481256667,-88.2330953333,0.0,0.0,0.0,0.0,0.0,0.0,0.0,0.0,0.0,0.0,0.0,0.0,0.0,0,0.22000002859999998,0.5,0.21060442920000003,0.35664799810000003,90.0,60.0,60.0,89.7633895874,120.2574768066,118.9205703735,34.1479988098,16.0713272095,38.9900016785,2,-1,10,1,17,358
40,1532113988727,134727, AUTO,0,40.0434592604,-88.2344147,0,-109.92734276440001,517.8390500462999,529.3782224838,-112.30858567959999,518.8807025156,0.3271266222,0.0,-112.04786638030001,518.938083914,0.3225829401,-19.3475168601,0.0,0.0,1600,1750,40.0481256667,-88.2330953333,0.0,0.0,0.0,0.0,0.0,0.0,0.0,0.0,0.0,0.0,0.0,0.0,0.0,0,0.2000000477,0.5,0.2718544304,0.3823987842,90.0,60.0,60.0,89.5087432861,120.19381713870001,118.0293045044,34.1479988098,16.0713272095,38.9900016785,2,-1,10,1,21,368
41,1532113988927,134927, AUTO,0,40.0434592604,-88.2344147,0,-110.04820843809999,517.6590578994001,529.2272748127,-112.6207067563,518.4729877848999,0.3248274326,0.0,-112.168732054,518.7580917671,0.3257900632,-19.9048804741,0.0,0.0,1510,1750,40.048122,-88.2330916667,0.0,0.0,0.0,0.0,0.0,0.0,0.0,0.0,0.0,0.0,0.0,0.0,0.0,0,0.019999980900000002,0.5,0.2575075924,0.3921472728,90.0,60.0,60.0,88.55381011959999,118.0293045044,119.87550354,34.686000824000004,16.0713272095,38.9900016785,2,-1,10,1,258,377
42,1532113989128,135128, AUTO,0,40.0434592604,-88.2344147,0,-110.04820843809999,517.6590578994001,529.2272748127,-112.6207067563,518.4729877848999,0.3160905838,0.0,-112.168732054,518.7580917671,0.3257900632,-19.9048804741,0.0,0.0,1560,1750,40.048122,-88.2330916667,0.0,0.0,0.0,0.0,0.0,0.0,0.0,0.0,0.0,0.0,0.0,0.0,0.0,0,0.1200000048,0.5,0.2575075924,0.3746735454,90.0,60.0,60.0,90.0816955566,119.4935302734,119.62085723879999,34.686000824000004,16.0713272095,38.9900016785,2,-1,10,1,225,386
43,1532113989329,135329, AUTO,0,40.0434592604,-88.2344147,0,-110.04820843809999,517.6590578994001,529.2272748127,-112.6207067563,518.4729877848999,0.3008240461,0.0,-112.168732054,518.7580917671,0.3257900632,-19.9048804741,0.0,0.0,1640,1750,40.048122,-88.2330916667,0.0,0.0,0.0,0.0,0.0,0.0,0.0,0.0,0.0,0.0,0.0,0.0,0.0,0,0.2799999714,0.5,0.2096847445,0.3919633329,90.0,60.0,60.0,90.4636688232,118.53860473629999,119.6845169067,34.686000824000004,16.0713272095,38.9900016785,2,-1,10,1,280,396
44,1532113989529,135529, AUTO,0,40.0434592604,-88.2344147,0,-110.04820843809999,517.6590578994001,529.2272748127,-112.6207067563,518.4729877848999,0.3292418122,0.0,-112.168732054,518.7580917671,0.3257900632,-19.9048804741,0.0,0.0,1610,1750,40.048122,-88.2330916667,0.0,0.0,0.0,0.0,0.0,0.0,0.0,0.0,0.0,0.0,0.0,0.0,0.0,0,0.22000002859999998,0.5,0.2694632709,0.38902038340000006,90.0,60.0,60.0,89.8907089233,118.15663146969999,120.00283050540001,34.686000824000004,16.0776844025,20.0100002289,2,-1,10,1,276,405
45,1532113989730,135730, AUTO,0,40.0434592604,-88.2344147,0,-110.04820843809999,517.6590578994001,529.2272748127,-112.6207067563,518.4729877848999,0.3314490616,0.0,-112.168732054,518.7580917671,0.3257900632,-19.9048804741,0.0,0.0,1600,1750,40.048122,-88.2330916667,0.0,0.0,0.0,0.0,0.0,0.0,0.0,0.0,0.0,0.0,0.0,0.0,0.0,0,0.2000000477,0.5,0.28546556829999997,0.377432555,90.0,60.0,60.0,89.7633895874,120.2574768066,118.9205703735,34.686000824000004,16.0776844025,20.0100002289,2,-1,10,1,279,414
46,1532113989931,135931, AUTO,0,40.0434592604,-88.2344147,0,-110.1320802603,517.5349481721,529.1233293683999,-112.3227736871,518.76950759,0.3205049634,0.0,-112.25260387620001,518.6339820398,0.326575304,-20.2965750635,0.0,0.0,1590,1750,40.0481246667,-88.2330951667,0.0,0.0,0.0,0.0,0.0,0.0,0.0,0.0,0.0,0.0,0.0,0.0,0.0,0,0.1799999475,0.5,0.2553003728,0.385709554,90.0,60.0,60.0,90.20902252200001,119.42987060549999,119.2388916016,34.686000824000004,16.0776844025,20.0100002289,2,-1,10,1,281,422
47,1532113990131,136131, AUTO,0,40.0434592604,-88.2344147,0,-110.1320802603,517.5349481721,529.1233293683999,-112.3227736871,518.76950759,0.24518401920000002,0.0,-112.25260387620001,518.6339820398,0.326575304,-20.2965750635,0.0,0.0,1580,1750,40.0481246667,-88.2330951667,0.0,0.0,0.0,0.0,0.0,0.0,0.0,0.0,0.0,0.0,0.0,0.0,0.0,0,0.15999996660000002,0.5,0.10741745679999999,0.3829505742,90.0,60.0,60.0,87.9171905518,118.2202911377,119.4935302734,34.686000824000004,16.0776844025,20.0100002289,2,-1,10,1,339,431
48,1532113990332,136332, AUTO,0,40.0434592604,-88.2344147,0,-110.1320802603,517.5349481721,529.1233293683999,-112.3227736871,518.76950759,0.21308751399999998,0.0,-112.25260387620001,518.6339820398,0.326575304,-20.2965750635,0.0,0.0,1720,1750,40.0481246667,-88.2330951667,0.0,0.0,0.0,0.0,0.0,0.0,0.0,0.0,0.0,0.0,0.0,0.0,0.0,0,0.44000005719999996,0.5,0.10410664230000001,0.3220683932,90.0,60.0,60.0,89.3814163208,119.2388916016,119.3025436401,34.686000824000004,16.0776844025,20.0100002289,2,-1,10,1,414,439
49,1532113990532,136532, AUTO,0,40.0434592604,-88.2344147,0,-110.1320802603,517.5349481721,529.1233293683999,-112.3227736871,518.76950759,0.2045345902,0.0,-112.25260387620001,518.6339820398,0.326575304,-20.2965750635,0.0,0.0,1590,1750,40.0481246667,-88.2330951667,0.0,0.0,0.0,0.0,0.0,0.0,0.0,0.0,0.0,0.0,0.0,0.0,0.0,0,0.1799999475,0.5,0.1035548374,0.30551433559999996,90.0,60.0,60.0,88.4901504517,119.0479049683,119.5571899414,34.686000824000004,16.0475177765,40.469997406,2,-1,10,1,320,448
50,1532113990733,136733, AUTO,0,40.0434592604,-88.2344147,0,-110.1320802603,517.5349481721,529.1233293683999,-112.3227736871,518.76950759,0.2160304785,0.0,-112.25260387620001,518.6339820398,0.326575304,-20.2965750635,0.0,0.0,1590,1750,40.0481246667,-88.2330951667,0.0,0.0,0.0,0.0,0.0,0.0,0.0,0.0,0.0,0.0,0.0,0.0,0.0,0,0.1799999475,0.5,0.1596547067,0.2724062502,90.0,60.0,60.0,90.8456420898,119.3025436401,119.42987060549999,34.686000824000004,16.0475177765,40.469997406,2,-1,10,1,355,457
51,1532113990934,136934, AUTO,0,40.0434592604,-88.2344147,0,-110.2354427975,517.4466778364,529.0585196863,-112.2802124092,518.7324426145,0.2135473639,0.0,-112.3559664134,518.5457117041001,0.3170780902,-20.5122731546,0.0,0.0,1540,1750,40.0481243333,-88.2330956667,0.0,0.0,0.0,0.0,0.0,0.0,0.0,0.0,0.0,0.0,0.0,0.0,0.0,0,0.0800000429,0.5,0.185037598,0.24205712969999998,90.0,60.0,60.0,89.44507598879999,119.5571899414,118.53860473629999,34.1479988098,16.0475177765,40.469997406,2,-1,10,1,400,465
52,1532113991135,137135, AUTO,0,40.0434592604,-88.2344147,0,-110.2354427975,517.4466778364,529.0585196863,-112.2802124092,518.7324426145,0.2019595206,0.0,-112.3559664134,518.5457117041001,0.3170780902,-20.5122731546,0.0,0.0,1580,1750,40.0481243333,-88.2330956667,0.0,0.0,0.0,0.0,0.0,0.0,0.0,0.0,0.0,0.0,0.0,0.0,0.0,0,0.15999996660000002,0.5,0.1701389402,0.2337801158,90.0,60.0,60.0,87.4078979492,118.72959136959999,119.6845169067,34.1479988098,16.0475177765,40.469997406,2,-1,10,1,397,473
53,1532113991335,137335, AUTO,0,40.0434592604,-88.2344147,0,-110.2354427975,517.4466778364,529.0585196863,-112.2802124092,518.7324426145,0.2373668104,0.0,-112.3559664134,518.5457117041001,0.3170780902,-20.5122731546,0.0,0.0,1590,1750,40.0481243333,-88.2330956667,0.0,0.0,0.0,0.0,0.0,0.0,0.0,0.0,0.0,0.0,0.0,0.0,0.0,0,0.1799999475,0.5,0.2297335416,0.2450000793,90.0,60.0,60.0,88.36282348629999,118.9205703735,119.1115570068,34.1479988098,16.0475177765,40.469997406,2,-1,10,1,479,482
54,1532113991536,137536, AUTO,0,40.0434592604,-88.2344147,0,-110.2354427975,517.4466778364,529.0585196863,-112.2802124092,518.7324426145,0.1994764209,0.0,-112.3559664134,518.5457117041001,0.3170780902,-20.5122731546,0.0,0.0,1640,1750,40.0481243333,-88.2330956667,0.0,0.0,0.0,0.0,0.0,0.0,0.0,0.0,0.0,0.0,0.0,0.0,0.0,0,0.2799999714,0.5,0.1907395422,0.20821328460000002,90.0,60.0,60.0,89.3814163208,118.4749450684,119.62085723879999,34.1479988098,16.0395698547,72.2599945068,2,-1,10,1,453,490
55,1532113991737,137737, AUTO,0,40.0434592604,-88.2344147,0,-110.2354427975,517.4466778364,529.0585196863,-112.2802124092,518.7324426145,0.2552084327,0.0,-112.3559664134,518.5457117041001,0.3170780902,-20.5122731546,0.0,0.0,1580,1750,40.0481243333,-88.2330956667,0.0,0.0,0.0,0.0,0.0,0.0,0.0,0.0,0.0,0.0,0.0,0.0,0.0,0,0.15999996660000002,0.5,0.2039828002,0.3064340353,90.0,60.0,60.0,88.1718444824,119.6845169067,119.1752166748,34.1479988098,16.0395698547,72.2599945068,2,-1,10,1,367,499
56,1532113991937,137937, AUTO,0,40.0434592604,-88.2344147,0,-110.2779654156,517.4029424806,529.0246067469001,-112.2234644971,518.6212476874,0.240585655,0.0,-112.39848903149999,518.5019763483,0.32336273670000004,-20.6165981344,0.0,0.0,1200,1750,40.0481233333,-88.2330963333,0.0,0.0,0.0,0.0,0.0,0.0,0.0,0.0,0.0,0.0,0.0,0.0,0.0,0,-0.6000000238000001,0.5,0.0919669941,0.3892043233,90.0,60.0,60.0,87.5988845825,119.5571899414,119.939163208,34.686000824000004,16.0395698547,72.2599945068,2,-1,10,1,344,507
57,1532113992138,138138, AUTO,0,40.0434592604,-88.2344147,0,-110.2779654156,517.4029424806,529.0246067469001,-112.2234644971,518.6212476874,0.28721290829999996,0.0,-112.39848903149999,518.5019763483,0.32336273670000004,-20.6165981344,0.0,0.0,1760,1750,40.0481233333,-88.2330963333,0.0,0.0,0.0,0.0,0.0,0.0,0.0,0.0,0.0,0.0,0.0,0.0,0.0,0,0.5199999809,0.5,0.0189452004,0.5554805993999999,90.0,60.0,60.0,84.9887390137,117.7109985352,119.1752166748,34.686000824000004,16.0395698547,72.2599945068,2,-1,10,1,302,516
58,1532113992339,138339, AUTO,0,40.0434592604,-88.2344147,0,-110.2779654156,517.4029424806,529.0246067469001,-112.2234644971,518.6212476874,0.2535530031,0.0,-112.39848903149999,518.5019763483,0.32336273670000004,-20.6165981344,0.0,0.0,1570,1750,40.0481233333,-88.2330963333,0.0,0.0,0.0,0.0,0.0,0.0,0.0,0.0,0.0,0.0,0.0,0.0,0.0,0,0.1399999857,0.5,0.16995500030000002,0.337150991,90.0,60.0,60.0,87.3442306519,117.7109985352,120.00283050540001,34.686000824000004,16.0395698547,72.2599945068,2,-1,10,1,328,524
59,1532113992539,138539, AUTO,0,40.0434592604,-88.2344147,0,-110.2779654156,517.4029424806,529.0246067469001,-112.2234644971,518.6212476874,0.3483709693,0.0,-112.39848903149999,518.5019763483,0.32336273670000004,-20.6165981344,0.0,0.0,1540,1750,40.0481233333,-88.2330963333,0.0,0.0,0.0,0.0,0.0,0.0,0.0,0.0,0.0,0.0,0.0,0.0,0.0,0,0.0800000429,0.5,0.2909835577,0.40575838090000005,90.0,60.0,60.0,84.3521194458,117.7109985352,120.19381713870001,34.686000824000004,16.052684783900002,66.4899978638,2,-1,10,1,264,533
60,1532113992740,138740, AUTO,0,40.0434592604,-88.2344147,0,-110.2779654156,517.4029424806,529.0246067469001,-112.2234644971,518.6212476874,0.39444643259999995,0.0,-112.39848903149999,518.5019763483,0.32336273670000004,-20.6165981344,0.0,0.0,1570,1750,40.0481233333,-88.2330963333,0.0,0.0,0.0,0.0,0.0,0.0,0.0,0.0,0.0,0.0,0.0,0.0,0.0,0,0.1399999857,0.5,0.3395421505,0.4493507445,90.0,60.0,60.0,85.5616989136,115.4191589355,121.6580352783,34.686000824000004,16.052684783900002,66.4899978638,2,-1,10,1,185,542
61,1532113992941,138941, AUTO,0,40.0434592604,-88.2344147,0,-110.2522723352,517.3538127041,528.9712006098,-112.1383415275,518.6027152,0.4404299557,0.0,-112.3727959511,518.4528465718,0.3252247767,-20.5803066176,0.0,0.0,1280,1750,40.0481231667,-88.2330973333,0.0,0.0,0.0,0.0,0.0,0.0,0.0,0.0,0.0,0.0,0.0,0.0,0.0,0,-0.43999999759999997,0.5,0.3224362731,0.5584236383,90.0,60.0,60.0,84.9250793457,92.9464874268,177.29861450200002,34.1479988098,16.052684783900002,66.4899978638,2,-1,10,1,39,550
62,1532113993141,139141, AUTO,0,40.0434592604,-88.2344147,0,-110.2522723352,517.3538127041,528.9712006098,-112.1383415275,518.6027152,0.37559321520000005,0.0,-112.3727959511,518.4528465718,0.3252247767,-20.5803066176,0.0,0.0,1570,1750,40.0481231667,-88.2330973333,0.0,0.0,0.0,0.0,0.0,0.0,0.0,0.0,0.0,0.0,0.0,0.0,0.0,0,0.1399999857,0.5,0.1940503567,0.5571360588000001,90.0,60.0,60.0,89.8907089233,124.5228347778,175.38874816889998,34.1479988098,16.052684783900002,66.4899978638,2,-1,10,1,15,560
63,1532113993342,139342, AUTO,0,40.0434592604,-88.2344147,0,-110.2522723352,517.3538127041,528.9712006098,-112.1383415275,518.6027152,0.4270947278,0.0,-112.3727959511,518.4528465718,0.3252247767,-20.5803066176,0.0,0.0,1510,1750,40.0481231667,-88.2330973333,0.0,0.0,0.0,0.0,0.0,0.0,0.0,0.0,0.0,0.0,0.0,0.0,0.0,0,0.019999980900000002,0.5,0.2435286045,0.610660851,90.0,60.0,60.0,88.8721160889,112.36338806149999,181.8737945557,34.1479988098,16.052684783900002,66.4899978638,2,-1,10,1,25,570
64,1532113993543,139543, AUTO,0,40.0434592604,-88.2344147,0,-110.2522723352,517.3538127041,528.9712006098,-112.1383415275,518.6027152,0.445212245,0.0,-112.3727959511,518.4528465718,0.3252247767,-20.5803066176,0.0,0.0,1660,1750,40.0481231667,-88.2330973333,0.0,0.0,0.0,0.0,0.0,0.0,0.0,0.0,0.0,0.0,0.0,0.0,0.0,0,0.3200000525,0.5,0.2569557726,0.6334686875,90.0,60.0,60.0,89.44507598879999,97.84845733639999,179.78141784669998,34.1479988098,16.0702285767,33.9199981689,2,-1,10,1,26,579
65,1532113993743,139743, AUTO,0,40.0434592604,-88.2344147,0,-110.2522723352,517.3538127041,528.9712006098,-112.1383415275,518.6027152,0.4293938875,0.0,-112.3727959511,518.4528465718,0.3252247767,-20.5803066176,0.0,0.0,1360,1750,40.0481231667,-88.2330973333,0.0,0.0,0.0,0.0,0.0,0.0,0.0,0.0,0.0,0.0,0.0,0.0,0.0,0,-0.2799999714,0.5,0.1809910536,0.6777967215,90.0,60.0,60.0,90.5909881592,4.5836620331,0.0,34.1479988098,16.0702285767,33.9199981689,2,-1,10,1,72,590
66,1532113993944,139944, AUTO,0,40.0434592604,-88.2344147,0,-110.2054792192,517.3213130359,528.9296631605,-112.16671493770001,518.7324426145,0.46470922229999995,0.0,-112.3260028351,518.4203469036,0.326161408,-20.4883013371,0.0,0.0,1520,1750,40.0481243333,-88.233097,0.0,0.0,0.0,0.0,0.0,0.0,0.0,0.0,0.0,0.0,0.0,0.0,0.0,0,0.0399999619,0.5,0.2071096748,0.7223087548999999,90.0,60.0,60.0,90.40000915530001,176.7256469727,179.3358001709,35.223999023400005,16.0702285767,33.9199981689,2,-1,10,1,206,601
67,1532113994145,140145, AUTO,0,40.0434592604,-88.2344147,0,-110.2054792192,517.3213130359,528.9296631605,-112.16671493770001,518.7324426145,0.43721109630000005,0.0,-112.3260028351,518.4203469036,0.326161408,-20.4883013371,0.0,0.0,1510,1750,40.0481243333,-88.233097,0.0,0.0,0.0,0.0,0.0,0.0,0.0,0.0,0.0,0.0,0.0,0.0,0.0,0,0.019999980900000002,0.5,0.2435286045,0.6308935881000001,90.0,60.0,60.0,88.1081771851,3.9470424652,2.4191551208,35.223999023400005,16.0702285767,33.9199981689,2,-1,10,1,50,612
68,1532113994345,140345, AUTO,0,40.0434592604,-88.2344147,0,-110.2054792192,517.3213130359,528.9296631605,-112.16671493770001,518.7324426145,0.418725729,0.0,-112.3260028351,518.4203469036,0.326161408,-20.4883013371,0.0,0.0,1510,1750,40.0481243333,-88.233097,0.0,0.0,0.0,0.0,0.0,0.0,0.0,0.0,0.0,0.0,0.0,0.0,0.0,0,0.019999980900000002,0.5,0.2683596909,0.5690917373,90.0,60.0,60.0,88.2991638184,176.5983276367,3.3104228973,35.223999023400005,16.0702285767,33.9199981689,2,-1,10,1,86,622
69,1532113994546,140546, AUTO,0,40.0434592604,-88.2344147,0,-110.2054792192,517.3213130359,528.9296631605,-112.16671493770001,518.7324426145,0.46047878270000003,0.0,-112.3260028351,518.4203469036,0.326161408,-20.4883013371,0.0,0.0,1540,1750,40.0481243333,-88.233097,0.0,0.0,0.0,0.0,0.0,0.0,0.0,0.0,0.0,0.0,0.0,0.0,0.0,0,0.0800000429,0.5,0.2942943871,0.6266631484,90.0,60.0,60.0,88.9994430542,177.93522644040002,2.5464792252,35.223999023400005,16.0768203735,15.9399995804,2,-1,10,1,121,632
70,1532113994747,140747, AUTO,0,40.0434592604,-88.2344147,0,-110.2054792192,517.3213130359,528.9296631605,-112.16671493770001,518.7324426145,0.3820309043,0.0,-112.3260028351,518.4203469036,0.326161408,-20.4883013371,0.0,0.0,1600,1750,40.0481243333,-88.233097,0.0,0.0,0.0,0.0,0.0,0.0,0.0,0.0,0.0,0.0,0.0,0.0,0.0,0,0.2000000477,0.5,0.2852816284,0.4787801802,90.0,60.0,60.0,87.1532516479,179.6540985107,10.185916900599999,35.223999023400005,16.0768203735,15.9399995804,2,-1,10,1,114,642
71,1532113994947,140947, AUTO,0,40.0434592604,-88.2344147,0,-110.22421937719999,517.2533572428,528.8671043998,-112.4646484149,518.3803253466,0.40778166060000004,0.0,-112.3447429931,518.3523911105,0.3382081007,-20.4948708782,0.0,0.0,1800,1750,40.0481211667,-88.2330935,0.0,0.0,0.0,0.0,0.0,0.0,0.0,0.0,0.0,0.0,0.0,0.0,0.0,0,0.6000000238000001,0.5,0.3601427376,0.45542055369999995,90.0,60.0,60.0,88.235496521,221.34420776369998,-2.482817173,35.223999023400005,16.0768203735,15.9399995804,2,-1,10,1,211,652
72,1532113995148,141148, AUTO,0,40.0434592604,-88.2344147,0,-110.22421937719999,517.2533572428,528.8671043998,-112.4646484149,518.3803253466,0.3482789993,0.0,-112.3447429931,518.3523911105,0.3382081007,-20.4948708782,0.0,0.0,1100,1750,40.0481211667,-88.2330935,0.0,0.0,0.0,0.0,0.0,0.0,0.0,0.0,0.0,0.0,0.0,0.0,0.0,0,-0.8000000119,0.5,0.3424851,0.35407292840000004,90.0,60.0,60.0,89.9543762207,219.6253356934,5.856901645700001,35.223999023400005,16.0768203735,15.9399995804,2,-1,10,1,207,662
73,1532113995349,141349, AUTO,0,40.0434592604,-88.2344147,0,-110.22421937719999,517.2533572428,528.8671043998,-112.4646484149,518.3803253466,0.3174700737,0.0,-112.3447429931,518.3523911105,0.3382081007,-20.4948708782,0.0,0.0,1920,1750,40.0481211667,-88.2330935,0.0,0.0,0.0,0.0,0.0,0.0,0.0,0.0,0.0,0.0,0.0,0.0,0.0,0,0.8400000334000001,0.5,0.5453643203,0.0895758495,90.0,60.0,60.0,90.01803588870001,218.0974578857,1.2095775604,35.223999023400005,16.0768203735,15.9399995804,2,-1,10,1,132,672
74,1532113995783,141783, AUTO,0,40.0434592604,-88.2344147,0,-110.22421937719999,517.2533572428,528.8671043998,-112.4646484149,518.3803253466,0.22219225760000003,0.0,-112.3447429931,518.3523911105,0.3382081007,-20.4948708782,0.0,0.0,1060,1750,40.0481211667,-88.2330935,0.0,0.0,0.0,0.0,0.0,0.0,0.0,0.0,0.0,0.0,0.0,0.0,0.0,0,-0.8799999951999999,0.5,0.4727103412,-0.0283258334,90.0,60.0,60.0,89.63606262209998,217.46083068849998,6.1115498543,35.223999023400005,16.0822200775,22.7000007629,2,-1,10,1,252,693
75,1532113995984,141984, AUTO,0,40.0434592604,-88.2344147,0,-110.1862953722,517.1077128508,528.7167543947,-112.2092838971,517.7316882743,0.44521221520000004,0.0,-112.30681898809999,518.2067467185,0.38169604009999997,-20.4161403586,0.0,0.0,1930,1750,40.0481153333,-88.2330965,0.0,0.0,0.0,0.0,0.0,0.0,0.0,0.0,0.0,0.0,0.0,0.0,0.0,0,0.8600000143000001,0.5,0.0919669941,0.7984574437,90.0,60.0,60.0,89.44507598879999,213.004486084,6.8754935265,35.223999023400005,16.0822200775,22.7000007629,2,-1,10,1,256,703
76,1532113996184,142184, AUTO,0,40.0434592604,-88.2344147,0,-110.1862953722,517.1077128508,528.7167543947,-112.2092838971,517.7316882743,0.37826025490000004,0.0,-112.30681898809999,518.2067467185,0.38169604009999997,-20.4161403586,0.0,0.0,1880,1750,40.0481153333,-88.2330965,0.0,0.0,0.0,0.0,0.0,0.0,0.0,0.0,0.0,0.0,0.0,0.0,0.0,0,0.7599999905,0.5,0.013243246799999999,0.7432772517,90.0,60.0,60.0,89.5087432861,216.8242034912,11.3318319321,35.223999023400005,16.0822200775,22.7000007629,2,-1,10,1,138,713
77,1532113996384,142384, AUTO,0,40.0434592604,-88.2344147,0,-110.1862953722,517.1077128508,528.7167543947,-112.2092838971,517.7316882743,0.17786417899999998,0.0,-112.30681898809999,518.2067467185,0.38169604009999997,-20.4161403586,0.0,0.0,1880,1750,40.0481153333,-88.2330965,0.0,0.0,0.0,0.0,0.0,0.0,0.0,0.0,0.0,0.0,0.0,0.0,0.0,0,0.7599999905,0.5,0.2753491998,0.0803791583,90.0,60.0,60.0,89.5724029541,212.81350708009998,14.1329593658,35.223999023400005,16.0822200775,22.7000007629,2,-1,10,1,191,723
78,1532113996585,142585, AUTO,0,40.0434592604,-88.2344147,0,-110.1862953722,517.1077128508,528.7167543947,-112.2092838971,517.7316882743,0.15726354720000002,0.0,-112.30681898809999,518.2067467185,0.38169604009999997,-20.4161403586,0.0,0.0,1530,1750,40.0481153333,-88.2330965,0.0,0.0,0.0,0.0,0.0,0.0,0.0,0.0,0.0,0.0,0.0,0.0,0.0,0,0.059999942800000004,0.5,0.44659170509999996,-0.1320646107,90.0,60.0,60.0,89.25408935549999,218.22477722169998,15.469861030599999,35.223999023400005,16.0915641785,19.1299991608,2,-1,10,1,154,733
79,1532113996785,142785, AUTO,0,40.0434592604,-88.2344147,0,-110.1862953722,517.1077128508,528.7167543947,-112.2092838971,517.7316882743,0.2722222805,0.0,-112.30681898809999,518.2067467185,0.38169604009999997,-20.4161403586,0.0,0.0,1530,1750,40.0481153333,-88.2330965,0.0,0.0,0.0,0.0,0.0,0.0,0.0,0.0,0.0,0.0,0.0,0.0,0.0,0,0.059999942800000004,0.5,0.281419009,0.2630255818,90.0,60.0,60.0,89.3177566528,213.64111328119998,10.185916900599999,35.223999023400005,16.0915641785,19.1299991608,2,-1,10,1,185,743
80,1532113996985,142985, AUTO,0,40.0434592604,-88.2344147,0,-110.1246563166,517.013125993,528.6114001587999,-112.09578449770001,517.9911431039,0.3539809585,0.0,-112.2451799325,518.1121598607,0.3992918171,-20.3302875499,0.0,0.0,1530,1750,40.0481176667,-88.2330978333,0.0,0.0,0.0,0.0,0.0,0.0,0.0,0.0,0.0,0.0,0.0,0.0,0.0,0,0.059999942800000004,0.5,0.2996284664,0.4083334804,90.0,60.0,60.0,89.44507598879999,217.84280395509998,14.3239450455,35.223999023400005,16.0915641785,19.1299991608,2,-1,10,1,81,753
81,1532113997186,143186, AUTO,0,40.0434592604,-88.2344147,0,-110.1246563166,517.013125993,528.6114001587999,-112.09578449770001,517.9911431039,0.4123800099,0.0,-112.2451799325,518.1121598607,0.3992918171,-20.3302875499,0.0,0.0,1530,1750,40.0481176667,-88.2330978333,0.0,0.0,0.0,0.0,0.0,0.0,0.0,0.0,0.0,0.0,0.0,0.0,0.0,0,0.059999942800000004,0.5,0.30073207620000003,0.5240279436,90.0,60.0,60.0,89.3177566528,214.40505981450002,16.9340858459,35.223999023400005,16.0915641785,19.1299991608,2,-1,10,1,137,763
82,1532113997386,143386, AUTO,0,40.0434592604,-88.2344147,0,-110.1246563166,517.013125993,528.6114001587999,-112.09578449770001,517.9911431039,0.4215767086,0.0,-112.2451799325,518.1121598607,0.3992918171,-20.3302875499,0.0,0.0,1530,1750,40.0481176667,-88.2330978333,0.0,0.0,0.0,0.0,0.0,0.0,0.0,0.0,0.0,0.0,0.0,0.0,0.0,0,0.059999942800000004,0.5,0.295030117,0.5481233001,90.0,60.0,60.0,88.8721160889,216.1875915527,11.586480140699999,35.223999023400005,16.0915641785,19.1299991608,2,-1,10,1,164,773
83,1532113997587,143587, AUTO,0,40.0434592604,-88.2344147,0,-110.1246563166,517.013125993,528.6114001587999,-112.09578449770001,517.9911431039,0.4376709461,0.0,-112.2451799325,518.1121598607,0.3992918171,-20.3302875499,0.0,0.0,1530,1750,40.0481176667,-88.2330978333,0.0,0.0,0.0,0.0,0.0,0.0,0.0,0.0,0.0,0.0,0.0,0.0,0.0,0,0.059999942800000004,0.5,0.3169182539,0.5584236383,90.0,60.0,60.0,88.93578338620001,214.78703308110002,12.4777469635,35.223999023400005,16.1103897095,11.6500005722,2,-1,10,1,84,783
84,1532113997787,143787, AUTO,0,40.0434592604,-88.2344147,0,-110.1246563166,517.013125993,528.6114001587999,-112.09578449770001,517.9911431039,0.4311412871,0.0,-112.2451799325,518.1121598607,0.3992918171,-20.3302875499,0.0,0.0,1530,1750,40.0481176667,-88.2330978333,0.0,0.0,0.0,0.0,0.0,0.0,0.0,0.0,0.0,0.0,0.0,0.0,0.0,0,0.059999942800000004,0.5,0.30441075559999997,0.5578718185,90.0,60.0,60.0,88.681137085,218.9887237549,16.6794376373,35.223999023400005,16.1103897095,11.6500005722,2,-1,10,1,156,793
85,1532113997987,143987, AUTO,0,40.0434592604,-88.2344147,0,-109.9769190449,516.8284964896,528.4000544155,-111.6843615997,517.2498435919,0.433716327,0.0,-112.0974426608,517.9275303573,0.47009919240000003,-20.1487998973,0.0,0.0,1530,1750,40.048111,-88.2331026667,0.0,0.0,0.0,0.0,0.0,0.0,0.0,0.0,0.0,0.0,0.0,0.0,0.0,0,0.059999942800000004,0.5,0.302203536,0.5652291179,90.0,60.0,60.0,88.6174697876,212.3678741455,12.4140853882,35.223999023400005,16.1103897095,11.6500005722,2,-1,10,1,171,803
86,1532113998188,144188, AUTO,0,40.0434592604,-88.2344147,0,-109.9769190449,516.8284964896,528.4000544155,-111.6843615997,517.2498435919,0.4254392982,0.0,-112.0974426608,517.9275303573,0.47009919240000003,-20.1487998973,0.0,0.0,1530,1750,40.048111,-88.2331026667,0.0,0.0,0.0,0.0,0.0,0.0,0.0,0.0,0.0,0.0,0.0,0.0,0.0,0,0.059999942800000004,0.5,0.2816029489,0.5692756771999999,90.0,60.0,60.0,88.681137085,219.05238342290002,10.9498605728,35.223999023400005,16.1103897095,11.6500005722,2,-1,10,1,181,813
87,1532113998388,144388, AUTO,0,40.0434592604,-88.2344147,0,-109.9769190449,516.8284964896,528.4000544155,-111.6843615997,517.2498435919,0.4425451756,0.0,-112.0974426608,517.9275303573,0.47009919240000003,-20.1487998973,0.0,0.0,1530,1750,40.048111,-88.2331026667,0.0,0.0,0.0,0.0,0.0,0.0,0.0,0.0,0.0,0.0,0.0,0.0,0.0,0,0.059999942800000004,0.5,0.328322202,0.5567681789,90.0,60.0,60.0,88.6174697876,212.49519348139998,16.1064815521,35.223999023400005,16.1103897095,11.6500005722,2,-1,10,1,148,823
88,1532113998589,144589, AUTO,0,40.0434592604,-88.2344147,0,-109.9769190449,516.8284964896,528.4000544155,-111.6843615997,517.2498435919,0.44861501460000003,0.0,-112.0974426608,517.9275303573,0.47009919240000003,-20.1487998973,0.0,0.0,1530,1750,40.048111,-88.2331026667,0.0,0.0,0.0,0.0,0.0,0.0,0.0,0.0,0.0,0.0,0.0,0.0,0.0,0,0.059999942800000004,0.5,0.33623135090000006,0.5609986782,90.0,60.0,60.0,88.4901504517,218.92504882810002,13.369015693699998,35.223999023400005,16.1391716003,54.1100006104,2,-1,10,1,204,833
89,1532113998789,144789, AUTO,0,40.0434592604,-88.2344147,0,-109.9769190449,516.8284964896,528.4000544155,-111.6843615997,517.2498435919,0.4490748644,0.0,-112.0974426608,517.9275303573,0.47009919240000003,-20.1487998973,0.0,0.0,1530,1750,40.048111,-88.2331026667,0.0,0.0,0.0,0.0,0.0,0.0,0.0,0.0,0.0,0.0,0.0,0.0,0.0,0,0.059999942800000004,0.5,0.3478191793,0.5503305197,90.0,60.0,60.0,88.6174697876,212.49519348139998,14.4512681961,35.223999023400005,16.1391716003,54.1100006104,2,-1,10,1,94,843
90,1532113998989,144989, AUTO,0,40.0434592604,-88.2344147,0,-109.87163441290001,516.6887451032,528.2414555531,-111.7269219261,517.4166359825,0.4558803439,0.0,-111.99215802879999,517.7877789708999,0.5171917149,-20.0714654192,0.0,0.0,1530,1750,40.0481125,-88.23310216670001,0.0,0.0,0.0,0.0,0.0,0.0,0.0,0.0,0.0,0.0,0.0,0.0,0.0,0,0.059999942800000004,0.5,0.3434047401,0.5683559775,90.0,60.0,60.0,89.12677001950001,219.1797027588,15.7245073318,35.223999023400005,16.1391716003,54.1100006104,2,-1,10,1,54,853
91,1532113999190,145190, AUTO,0,40.0434592604,-88.2344147,0,-109.87163441290001,516.6887451032,528.2414555531,-111.7269219261,517.4166359825,0.445120275,0.0,-111.99215802879999,517.7877789708999,0.5171917149,-20.0714654192,0.0,0.0,1530,1750,40.0481125,-88.23310216670001,0.0,0.0,0.0,0.0,0.0,0.0,0.0,0.0,0.0,0.0,0.0,0.0,0.0,0,0.059999942800000004,0.5,0.3533371985,0.5369033217,90.0,60.0,60.0,89.12677001950001,218.7977294922,13.6873254776,35.223999023400005,16.1391716003,54.1100006104,2,-1,10,1,201,863
92,1532113999390,145390, AUTO,0,40.0434592604,-88.2344147,0,-109.87163441290001,516.6887451032,528.2414555531,-111.7269219261,517.4166359825,0.4396022558,0.0,-111.99215802879999,517.7877789708999,0.5171917149,-20.0714654192,0.0,0.0,1530,1750,40.0481125,-88.23310216670001,0.0,0.0,0.0,0.0,0.0,0.0,0.0,0.0,0.0,0.0,0.0,0.0,0.0,0,0.059999942800000004,0.5,0.3198612332,0.5593432784000001,90.0,60.0,60.0,88.9994430542,213.004486084,14.578593254100001,35.223999023400005,16.1391716003,54.1100006104,2,-1,10,1,148,873
93,1532113999591,145591, AUTO,0,40.0434592604,-88.2344147,0,-109.87163441290001,516.6887451032,528.2414555531,-111.7269219261,517.4166359825,0.433164537,0.0,-111.99215802879999,517.7877789708999,0.5171917149,-20.0714654192,0.0,0.0,1530,1750,40.0481125,-88.23310216670001,0.0,0.0,0.0,0.0,0.0,0.0,0.0,0.0,0.0,0.0,0.0,0.0,0.0,0,0.059999942800000004,0.5,0.30018028620000003,0.5661488175,90.0,60.0,60.0,89.5724029541,216.6968994141,13.560001373299999,35.223999023400005,16.1542129517,20.1800003052,2,-1,10,1,74,883
94,1532113999791,145791, AUTO,0,40.0434592604,-88.2344147,0,-109.87163441290001,516.6887451032,528.2414555531,-111.7269219261,517.4166359825,0.42884206770000005,0.0,-111.99215802879999,517.7877789708999,0.5171917149,-20.0714654192,0.0,0.0,1570,1750,40.0481125,-88.23310216670001,0.0,0.0,0.0,0.0,0.0,0.0,0.0,0.0,0.0,0.0,0.0,0.0,0.0,0,0.1399999857,0.5,0.3178379238,0.5398462414999999,90.0,60.0,60.0,88.9994430542,213.5774536133,12.4777469635,35.223999023400005,16.1542129517,20.1800003052,2,-1,10,1,143,893
95,1532113999991,145991, AUTO,0,40.0434592604,-88.2344147,0,-109.7474179668,516.5689757035,528.0984779468,-111.6701733214,517.3981034944001,0.4012520015,0.0,-111.8679415827,517.6680095712001,0.5509176455,-19.9558298431,0.0,0.0,1590,1750,40.0481123333,-88.2331028333,0.0,0.0,0.0,0.0,0.0,0.0,0.0,0.0,0.0,0.0,0.0,0.0,0.0,0,0.1799999475,0.5,0.3450601697,0.45744383340000006,90.0,60.0,60.0,88.36282348629999,220.3256225586,12.7960567474,35.223999023400005,16.1542129517,20.1800003052,2,-1,10,1,209,903
96,1532114000192,146192, AUTO,0,40.0434592604,-88.2344147,0,-109.7474179668,516.5689757035,528.0984779468,-111.6701733214,517.3981034944001,0.42359995840000003,0.0,-111.8679415827,517.6680095712001,0.5509176455,-19.9558298431,0.0,0.0,1550,1750,40.0481123333,-88.2331028333,0.0,0.0,0.0,0.0,0.0,0.0,0.0,0.0,0.0,0.0,0.0,0.0,0.0,0,0.1000000238,0.5,0.2150188237,0.6321811079999999,90.0,60.0,60.0,88.4901504517,215.2963256836,11.7774658203,35.223999023400005,16.1542129517,20.1800003052,2,-1,10,1,65,913
97,1532114000392,146392, AUTO,0,40.0434592604,-88.2344147,0,-109.7474179668,516.5689757035,528.0984779468,-111.6701733214,517.3981034944001,0.3661206067,0.0,-111.8679415827,517.6680095712001,0.5509176455,-19.9558298431,0.0,0.0,1550,1750,40.0481123333,-88.2331028333,0.0,0.0,0.0,0.0,0.0,0.0,0.0,0.0,0.0,0.0,0.0,0.0,0.0,0,0.1000000238,0.5,0.2003041059,0.5319371223,90.0,60.0,60.0,88.36282348629999,216.7605438232,9.1036624908,35.223999023400005,16.1542129517,20.1800003052,2,-1,10,1,111,923
98,1532114000592,146592, AUTO,0,40.0434592604,-88.2344147,0,-109.7474179668,516.5689757035,528.0984779468,-111.6701733214,517.3981034944001,0.4101728201,0.0,-111.8679415827,517.6680095712001,0.5509176455,-19.9558298431,0.0,0.0,1550,1750,40.0481123333,-88.2331028333,0.0,0.0,0.0,0.0,0.0,0.0,0.0,0.0,0.0,0.0,0.0,0.0,0.0,0,0.1000000238,0.5,0.2985248864,0.521820724,90.0,60.0,60.0,88.93578338620001,220.7075958252,11.586480140699999,35.223999023400005,16.206073761,67.90999603270001,2,-1,10,1,249,933
99,1532114000793,146793, AUTO,0,40.0434592604,-88.2344147,0,-109.7474179668,516.5689757035,528.0984779468,-111.34388221399999,515.4707247663,0.44033795600000003,0.0,-111.8679415827,517.6680095712001,0.5509176455,-19.9558298431,0.0,0.0,1550,1750,40.048095,-88.2331066667,0.0,0.0,0.0,0.0,0.0,0.0,0.0,0.0,0.0,0.0,0.0,0.0,0.0,0,0.1000000238,0.5,0.35738375780000003,0.5232921839,90.0,60.0,60.0,88.4901504517,221.5352020264,11.3954935074,35.223999023400005,16.206073761,67.90999603270001,2,-1,10,1,76,943
100,1532114000994,146994, AUTO,0,40.0434592604,-88.2344147,0,-109.7014484567,516.1549220792,527.6839123757,-111.34388221399999,515.4707247663,0.4326127172,0.0,-111.8219720726,517.2539559469001,0.7055979818000001,-20.105935666,0.0,0.0,1550,1750,40.048095,-88.2331066667,0.0,0.0,0.0,0.0,0.0,0.0,0.0,0.0,0.0,0.0,0.0,0.0,0.0,0,0.1000000238,0.5,0.3478191793,0.5174062848,90.0,60.0,60.0,89.63606262209998,216.0602722168,8.2123947144,35.223999023400005,16.206073761,67.90999603270001,2,-1,10,1,81,953
101,1532114001194,147194, AUTO,0,40.0434592604,-88.2344147,0,-109.7014484567,516.1549220792,527.6839123757,-111.34388221399999,515.4707247663,0.43757897619999997,0.0,-111.8219720726,517.2539559469001,0.7055979818000001,-20.105935666,0.0,0.0,1550,1750,40.048095,-88.2331066667,0.0,0.0,0.0,0.0,0.0,0.0,0.0,0.0,0.0,0.0,0.0,0.0,0.0,0,0.1000000238,0.5,0.35664799810000003,0.5185099244,90.0,60.0,60.0,90.0816955566,221.40788269040002,11.7774658203,35.223999023400005,16.206073761,67.90999603270001,2,-1,10,1,157,963
102,1532114001395,147395, AUTO,0,40.0434592604,-88.2344147,0,-109.7014484567,516.1549220792,527.6839123757,-111.34388221399999,515.4707247663,0.4443845153,0.0,-111.8219720726,517.2539559469001,0.7055979818000001,-20.105935666,0.0,0.0,1550,1750,40.048095,-88.2331066667,0.0,0.0,0.0,0.0,0.0,0.0,0.0,0.0,0.0,0.0,0.0,0.0,0.0,0,0.1000000238,0.5,0.3733859956,0.5153830051,90.0,60.0,60.0,89.7633895874,215.7419586182,6.429859638200001,35.223999023400005,16.206073761,67.90999603270001,2,-1,10,1,108,973
103,1532114001596,147596, AUTO,0,40.0434592604,-88.2344147,0,-109.7014484567,516.1549220792,527.6839123757,-111.34388221399999,515.4707247663,0.44732746479999996,0.0,-111.8219720726,517.2539559469001,0.7055979818000001,-20.105935666,0.0,0.0,1550,1750,40.048095,-88.2331066667,0.0,0.0,0.0,0.0,0.0,0.0,0.0,0.0,0.0,0.0,0.0,0.0,0.0,0,0.1000000238,0.5,0.3807433844,0.5139115453,90.0,60.0,60.0,89.8907089233,221.1532287598,8.403380394,35.223999023400005,16.2299976349,7.9599995613,2,-1,10,1,95,983
104,1532114001796,147796, AUTO,0,40.0434592604,-88.2344147,0,-109.5231878648,515.8735739347001,527.3716649235,-111.17363352129999,515.8043095462,0.4497185946,0.0,-111.64371148069999,516.9726078024,0.8112520343,-20.0177662436,0.0,0.0,1550,1750,40.048098,-88.2331086667,0.0,0.0,0.0,0.0,0.0,0.0,0.0,0.0,0.0,0.0,0.0,0.0,0.0,0,0.1000000238,0.5,0.3853417039,0.5140954852,90.0,60.0,60.0,90.0816955566,215.7419586182,9.2946481705,35.223999023400005,16.2299976349,7.9599995613,2,-1,10,1,168,992
105,1532114001997,147997, AUTO,0,40.0434592604,-88.2344147,0,-109.5231878648,515.8735739347001,527.3716649235,-111.17363352129999,515.8043095462,0.4356476665,0.0,-111.64371148069999,516.9726078024,0.8112520343,-20.0177662436,0.0,0.0,1550,1750,40.048098,-88.2331086667,0.0,0.0,0.0,0.0,0.0,0.0,0.0,0.0,0.0,0.0,0.0,0.0,0.0,0,0.1000000238,0.5,0.3614302874,0.5098650455,90.0,60.0,60.0,89.8907089233,220.3256225586,7.7667608261000005,35.223999023400005,16.2299976349,7.9599995613,2,-1,10,1,251,1002
106,1532114002197,148197, AUTO,0,40.0434592604,-88.2344147,0,-109.5231878648,515.8735739347001,527.3716649235,-111.17363352129999,515.8043095462,0.4388664961,0.0,-111.64371148069999,516.9726078024,0.8112520343,-20.0177662436,0.0,0.0,1550,1750,40.048098,-88.2331086667,0.0,0.0,0.0,0.0,0.0,0.0,0.0,0.0,0.0,0.0,0.0,0.0,0.0,0,0.1000000238,0.5,0.3619821072,0.515750885,90.0,60.0,60.0,89.44507598879999,215.5509796143,8.6580286026,35.223999023400005,16.2299976349,7.9599995613,2,-1,10,1,89,1012
107,1532114002398,148398, AUTO,0,40.0434592604,-88.2344147,0,-109.5231878648,515.8735739347001,527.3716649235,-111.17363352129999,515.8043095462,0.43518781659999994,0.0,-111.64371148069999,516.9726078024,0.8112520343,-20.0177662436,0.0,0.0,1550,1750,40.048098,-88.2331086667,0.0,0.0,0.0,0.0,0.0,0.0,0.0,0.0,0.0,0.0,0.0,0.0,0.0,0,0.1000000238,0.5,0.35664799810000003,0.5137276053000001,90.0,60.0,60.0,89.1904296875,220.26196289060002,12.6687326431,35.223999023400005,16.2299976349,7.9599995613,2,-1,10,1,100,1023
108,1532114002599,148599, AUTO,0,40.0434592604,-88.2344147,0,-109.5231878648,515.8735739347001,527.3716649235,-111.17363352129999,515.8043095462,0.42580717799999995,0.0,-111.64371148069999,516.9726078024,0.8112520343,-20.0177662436,0.0,0.0,1550,1750,40.048098,-88.2331086667,0.0,0.0,0.0,0.0,0.0,0.0,0.0,0.0,0.0,0.0,0.0,0.0,0.0,0,0.1000000238,0.5,0.3375188708,0.5140954852,90.0,60.0,60.0,89.12677001950001,221.4715423584,7.9577474594,35.223999023400005,16.249584198,24.840000152600002,2,-1,10,1,198,1032
109,1532114002799,148799, AUTO,0,40.0434592604,-88.2344147,0,-109.5231878648,515.8735739347001,527.3716649235,-112.3795416554,516.1749593015,0.4342681468,0.0,-111.64371148069999,516.9726078024,0.8112520343,-20.0177662436,0.0,0.0,1550,1750,40.048101333299996,-88.2330945,0.0,0.0,0.0,0.0,0.0,0.0,0.0,0.0,0.0,0.0,0.0,0.0,0.0,0,0.1000000238,0.5,0.35444080829999997,0.5140954852,90.0,60.0,60.0,89.12677001950001,215.2963256836,8.08507061,35.223999023400005,16.249584198,24.840000152600002,2,-1,10,1,73,1042
110,1532114003000,149000, AUTO,0,40.0434592604,-88.2344147,0,-109.7134070531,515.5917247404,527.1355217664,-112.3795416554,516.1749593015,0.445120275,0.0,-111.833930669,516.6907586080999,0.8393456081999999,-20.2372389247,0.0,0.0,1550,1750,40.048101333299996,-88.2330945,0.0,0.0,0.0,0.0,0.0,0.0,0.0,0.0,0.0,0.0,0.0,0.0,0.0,0,0.1000000238,0.5,0.3732020557,0.5170384645,90.0,60.0,60.0,89.3177566528,221.2168884277,12.6687326431,35.223999023400005,16.249584198,24.840000152600002,2,-1,10,1,93,1052
111,1532114003200,149200, AUTO,0,40.0434592604,-88.2344147,0,-109.7134070531,515.5917247404,527.1355217664,-112.3795416554,516.1749593015,0.4478792846,0.0,-111.833930669,516.6907586080999,0.8393456081999999,-20.2372389247,0.0,0.0,1550,1750,40.048101333299996,-88.2330945,0.0,0.0,0.0,0.0,0.0,0.0,0.0,0.0,0.0,0.0,0.0,0.0,0.0,0,0.1000000238,0.5,0.3789040446,0.5168545246,90.0,60.0,60.0,89.3177566528,215.1690063477,8.8490142822,35.223999023400005,16.249584198,24.840000152600002,2,-1,10,1,93,1062
112,1532114003401,149401, AUTO,0,40.0434592604,-88.2344147,0,-109.7134070531,515.5917247404,527.1355217664,-112.3795416554,516.1749593015,0.43721109630000005,0.0,-111.833930669,516.6907586080999,0.8393456081999999,-20.2372389247,0.0,0.0,1550,1750,40.048101333299996,-88.2330945,0.0,0.0,0.0,0.0,0.0,0.0,0.0,0.0,0.0,0.0,0.0,0.0,0.0,0,0.1000000238,0.5,0.3590391576,0.5153830051,90.0,60.0,60.0,89.1904296875,221.40788269040002,7.3211278915,35.223999023400005,16.249584198,24.840000152600002,2,-1,10,1,89,1072
113,1532114003601,149601, AUTO,0,40.0434592604,-88.2344147,0,-109.7134070531,515.5917247404,527.1355217664,-112.3795416554,516.1749593015,0.4359235764,0.0,-111.833930669,516.6907586080999,0.8393456081999999,-20.2372389247,0.0,0.0,1550,1750,40.048101333299996,-88.2330945,0.0,0.0,0.0,0.0,0.0,0.0,0.0,0.0,0.0,0.0,0.0,0.0,0.0,0,0.1000000238,0.5,0.3553604782,0.5164866446999999,90.0,60.0,60.0,89.5087432861,215.0416870117,12.6687326431,35.223999023400005,16.2482185364,8.4600009918,2,-1,10,1,61,1082
114,1532114003801,149801, AUTO,0,40.0434592604,-88.2344147,0,-109.7134070531,515.5917247404,527.1355217664,-112.8193437475,516.2676217405,0.44024598600000003,0.0,-111.833930669,516.6907586080999,0.8393456081999999,-20.2372389247,0.0,0.0,1550,1750,40.0481021667,-88.2330893333,0.0,0.0,0.0,0.0,0.0,0.0,0.0,0.0,0.0,0.0,0.0,0.0,0.0,0,0.1000000238,0.5,0.3678679764,0.5126240253000001,90.0,60.0,60.0,89.44507598879999,221.0895690918,6.2388734818,35.223999023400005,16.2482185364,8.4600009918,2,-1,10,1,133,1092
115,1532114004002,150002, AUTO,0,40.0434592604,-88.2344147,0,-109.8037421614,515.4303252833,526.9964724876,-112.8193437475,516.2676217405,0.4424532354,0.0,-111.9242657773,516.529359151,0.8486566642,-20.2833393685,0.0,0.0,1550,1750,40.0481021667,-88.2330893333,0.0,0.0,0.0,0.0,0.0,0.0,0.0,0.0,0.0,0.0,0.0,0.0,0.0,0,0.1000000238,0.5,0.3640053868,0.5209010839,90.0,60.0,60.0,89.5724029541,209.75773620610002,6.8118319511,36.2999992371,16.2482185364,8.4600009918,2,-1,10,1,106,1102
116,1532114004202,150202, AUTO,0,40.0434592604,-88.2344147,0,-109.8037421614,515.4303252833,526.9964724876,-112.8193437475,516.2676217405,0.4483391047,0.0,-111.9242657773,516.529359151,0.8486566642,-20.2833393685,0.0,0.0,1550,1750,40.0481021667,-88.2330893333,0.0,0.0,0.0,0.0,0.0,0.0,0.0,0.0,0.0,0.0,0.0,0.0,0.0,0,0.1000000238,0.5,0.3803755045,0.5163027048,90.0,60.0,60.0,89.63606262209998,214.6597137451,11.1408462524,36.2999992371,16.2482185364,8.4600009918,2,-1,10,1,85,1112
