,(0)linux time (ms),    (1)uptime  (ms),      (2)drive mode,(3)mpc step counter,(4)mpc origin latitude  (deg),(5)mpc origin longitude  (deg),(6)closest trajectory point index to robot,(7)mpc error x (W;E)  (m),(8)mpc error y (W;E)  (m),(9)abs mpc error (m),(10)input [x] for mhe (m),(11)input [y] for mhe (m),(12)input [speed] for mhe (m/s),(13)input [vyaw] for mhe (rad/s),(14)mhe output x  (m),(15)mhe output y  (m),(16)mhe output speed  (m/s),(17)mhe output yaw  (rad),(18)mpc reference heading (rad),(19)mpc turn rate command (rad/s),(20)turn rate command as PWM,(21)throttle command as PWM,(22)primary gps latitude (deg),(23)primary gps longitude (deg),(24)secondary gps latitude  (deg),(25)secondary gps longitude (deg),(26)accelerometer x (m/s^2),(27)accelerometer y (m/s^2),(28)accelerometer z (m/s^2),(29)gyro yaw rate (rad/s),(30)gyro pitch rate   (rad/s),(31)gyro roll rate (rad/s),      (32)yaw (rad),  (33)pitch   (rad),     (34)roll (rad),(35)sonar1 measurement (m),(36)ultrasonic sensor measurement (m),(37)primary gps time (s),(38)normalized turn rate command,(39)normalized throttle command,(40)speed calculation from encoder left (m/s),(41)speed calculation from encoder right (m/s),(42)front gimbal target angle (degrees from straight down),(43)left gimbal target angle  (degrees from straight down),(44)right gimbal target angle  (degrees from straight down),(45)front gimbal measured angle  (degrees from straight down),(46)left gimbal measured angle    (degrees from straight down),(47)right gimbal measured angle  (degrees from straight down),(48)internal temperature (C),(49)battery voltage (V),(50)primary gps type,(51)secondary gps type,    (52)MPC R value, (53)MPC Q[0] value,Unnamed: 54,weed_num,start
0,1532112583020,63020, AUTO,0,40.0434592604,-88.2344147,0,-104.34525748760001,415.92650346190004,428.8155652984,-106.4074233086,418.2678263907,0.5817832351,0.0,-106.4657811035,417.0255373296,0.28108699719999997,1.8728158881,0.0,0.0,1470,1750,40.0472208333,-88.2331646667,0.0,0.0,0.0,0.0,0.0,0.0,0.0,0.0,0.0,0.0,0.0,0.0,0.0,0,-0.0600000024,0.5,0.5703793168,0.5931871532999999,90.0,60.0,60.0,88.4901504517,117.9019851685,119.5571899414,24.4640007019,16.0202484131,10.6599998474,2,-1,10,1,18,14
1,1532112583221,63221, AUTO,0,40.0434592604,-88.2344147,0,-104.35962746,416.14357504230003,429.029610741,-106.56348479959999,418.06396902529997,0.5836225748,0.0,-106.4801510759,417.24260891,0.41110454189999995,2.0336335166999997,0.0,0.0,1470,1750,40.047219,-88.2331628333,0.0,0.0,0.0,0.0,0.0,0.0,0.0,0.0,0.0,0.0,0.0,0.0,0.0,0,-0.0600000024,0.5,0.5716668367000001,0.5955782533,90.0,60.0,60.0,89.12677001950001,118.15663146969999,118.53860473629999,24.4640007019,16.0202484131,10.6599998474,2,-1,10,1,19,24
2,1532112583421,63421, AUTO,0,40.0434592604,-88.2344147,0,-104.35962746,416.14357504230003,429.029610741,-106.56348479959999,418.06396902529997,0.5972336531,0.0,-106.4801510759,417.24260891,0.41110454189999995,2.0336335166999997,0.0,0.0,1510,1750,40.047219,-88.2331628333,0.0,0.0,0.0,0.0,0.0,0.0,0.0,0.0,0.0,0.0,0.0,0.0,0.0,0,0.019999980900000002,0.5,0.5707471967000001,0.6237201690999999,90.0,60.0,60.0,88.6174697876,119.62085723879999,118.2839584351,24.4640007019,16.0202484131,10.6599998474,2,-1,10,1,9,36
3,1532112583621,63621, AUTO,0,40.0434592604,-88.2344147,0,-104.35962746,416.14357504230003,429.029610741,-106.56348479959999,418.06396902529997,0.5880369543999999,0.0,-106.4801510759,417.24260891,0.41110454189999995,2.0336335166999997,0.0,0.0,1450,1750,40.047219,-88.2331628333,0.0,0.0,0.0,0.0,0.0,0.0,0.0,0.0,0.0,0.0,0.0,0.0,0.0,0,-0.1000000238,0.5,0.5516180396,0.6244558692000001,90.0,60.0,60.0,88.235496521,118.0293045044,119.1752166748,24.4640007019,16.0085086823,13.4099998474,2,-1,10,1,17,46
4,1532112583822,63822, AUTO,0,40.0434592604,-88.2344147,0,-104.35962746,416.14357504230003,429.029610741,-106.56348479959999,418.06396902529997,0.5863815546,0.0,-106.4801510759,417.24260891,0.41110454189999995,2.0336335166999997,0.0,0.0,1480,1750,40.047219,-88.2331628333,0.0,0.0,0.0,0.0,0.0,0.0,0.0,0.0,0.0,0.0,0.0,0.0,0.0,0,-0.040000021499999996,0.5,0.5488590002,0.623904109,90.0,60.0,60.0,87.66254425049999,118.2839584351,119.0479049683,24.4640007019,16.0085086823,13.4099998474,2,-1,10,1,19,56
5,1532112584023,64023, AUTO,0,40.0434592604,-88.2344147,0,-104.35962746,416.14357504230003,429.029610741,-106.56348479959999,418.06396902529997,0.5608147383,0.0,-106.4801510759,417.24260891,0.41110454189999995,2.0336335166999997,0.0,0.0,1480,1750,40.047219,-88.2331628333,0.0,0.0,0.0,0.0,0.0,0.0,0.0,0.0,0.0,0.0,0.0,0.0,0.0,0,-0.040000021499999996,0.5,0.5459160805,0.5757133960999999,90.0,60.0,60.0,89.9543762207,119.87550354,118.0929718018,24.4640007019,16.0085086823,13.4099998474,2,-1,10,1,26,66
6,1532112584223,64223, AUTO,0,40.0434592604,-88.2344147,0,-104.3337433638,416.4357682978,429.3067424605,-106.733729662,418.4160862925,0.5672523975,0.0,-106.4542669797,417.5348021655,0.5151312526,1.7467505008000002,0.0,0.0,1480,1750,40.0472221667,-88.2331608333,0.0,0.0,0.0,0.0,0.0,0.0,0.0,0.0,0.0,0.0,0.0,0.0,0.0,0,-0.040000021499999996,0.5,0.5470196605,0.5874851942,90.0,60.0,60.0,88.4901504517,118.9842300415,118.2202911377,25.0019989014,16.0085086823,13.4099998474,2,-1,10,1,27,76
7,1532112584424,64424, AUTO,0,40.0434592604,-88.2344147,0,-104.3337433638,416.4357682978,429.3067424605,-106.733729662,418.4160862925,0.5706552267,0.0,-106.4542669797,417.5348021655,0.5151312526,1.7467505008000002,0.0,0.0,1440,1750,40.0472221667,-88.2331608333,0.0,0.0,0.0,0.0,0.0,0.0,0.0,0.0,0.0,0.0,0.0,0.0,0.0,0,-0.1200000048,0.5,0.5466518402,0.5946585536,90.0,60.0,60.0,89.44507598879999,118.72959136959999,118.72959136959999,25.0019989014,16.0085086823,13.4099998474,2,-1,10,1,76,86
8,1532112584625,64625, AUTO,0,40.0434592604,-88.2344147,0,-104.3337433638,416.4357682978,429.3067424605,-106.733729662,418.4160862925,0.5949344635,0.0,-106.4542669797,417.5348021655,0.5151312526,1.7467505008000002,0.0,0.0,1450,1750,40.0472221667,-88.2331608333,0.0,0.0,0.0,0.0,0.0,0.0,0.0,0.0,0.0,0.0,0.0,0.0,0.0,0,-0.1000000238,0.5,0.5486750603,0.6411938667,90.0,60.0,60.0,89.5724029541,117.77465820309999,119.0479049683,25.0019989014,15.992068290699999,14.7299995422,2,-1,10,1,32,96
9,1532112584825,64825, AUTO,0,40.0434592604,-88.2344147,0,-104.3337433638,416.4357682978,429.3067424605,-106.733729662,418.4160862925,0.5916236639,0.0,-106.4542669797,417.5348021655,0.5151312526,1.7467505008000002,0.0,0.0,1500,1750,40.0472221667,-88.2331608333,0.0,0.0,0.0,0.0,0.0,0.0,0.0,0.0,0.0,0.0,0.0,0.0,0.0,0,0.0,0.5,0.536167562,0.6470797657999999,90.0,60.0,60.0,90.5909881592,119.62085723879999,117.39268493649999,25.0019989014,15.992068290699999,14.7299995422,2,-1,10,1,25,106
10,1532112585026,65026, AUTO,0,40.0434592604,-88.2344147,0,-104.3337433638,416.4357682978,429.3067424605,-106.733729662,418.4160862925,0.5871173143,0.0,-106.4542669797,417.5348021655,0.5151312526,1.7467505008000002,0.0,0.0,1540,1750,40.0472221667,-88.2331608333,0.0,0.0,0.0,0.0,0.0,0.0,0.0,0.0,0.0,0.0,0.0,0.0,0.0,0,0.0800000429,0.5,0.5609986782,0.6132359505,90.0,60.0,60.0,90.9729614258,119.42987060549999,118.53860473629999,25.0019989014,15.992068290699999,14.7299995422,2,-1,10,1,20,116
11,1532112585227,65227, AUTO,0,40.0434592604,-88.2344147,0,-104.5699790454,416.6749968769,429.59624479260003,-107.03165988190001,418.7867360493,0.5928192139,0.0,-106.69050266129999,417.7740307446,0.6400259153,2.0161762949,0.0,0.0,1480,1750,40.0472255,-88.2331573333,0.0,0.0,0.0,0.0,0.0,0.0,0.0,0.0,0.0,0.0,0.0,0.0,0.0,0,-0.040000021499999996,0.5,0.5987051129,0.5869333743999999,90.0,60.0,60.0,88.9994430542,115.5464859009,120.7031021118,24.4640007019,15.992068290699999,14.7299995422,2,-1,10,1,6,126
12,1532112585427,65427, AUTO,0,40.0434592604,-88.2344147,0,-104.5699790454,416.6749968769,429.59624479260003,-107.03165988190001,418.7867360493,0.5955782533,0.0,-106.69050266129999,417.7740307446,0.6400259153,2.0161762949,0.0,0.0,1630,1750,40.0472255,-88.2331573333,0.0,0.0,0.0,0.0,0.0,0.0,0.0,0.0,0.0,0.0,0.0,0.0,0.0,0,0.2599999905,0.5,0.6023837924000001,0.5887727141,90.0,60.0,60.0,89.5724029541,117.7109985352,118.53860473629999,24.4640007019,15.992068290699999,14.7299995422,2,-1,10,1,11,136
13,1532112585628,65628, AUTO,0,40.0434592604,-88.2344147,0,-104.5699790454,416.6749968769,429.59624479260003,-107.03165988190001,418.7867360493,0.5712070465,0.0,-106.69050266129999,417.7740307446,0.6400259153,2.0161762949,0.0,0.0,1500,1750,40.0472255,-88.2331573333,0.0,0.0,0.0,0.0,0.0,0.0,0.0,0.0,0.0,0.0,0.0,0.0,0.0,0,0.0,0.5,0.5334085822,0.6090054511999999,90.0,60.0,60.0,89.3177566528,119.5571899414,118.2839584351,24.4640007019,15.97909832,8.3400001526,2,-1,10,1,8,146
14,1532112585828,65828, AUTO,0,40.0434592604,-88.2344147,0,-104.5699790454,416.6749968769,429.59624479260003,-107.03165988190001,418.7867360493,0.5799438953,0.0,-106.69050266129999,417.7740307446,0.6400259153,2.0161762949,0.0,0.0,1500,1750,40.0472255,-88.2331573333,0.0,0.0,0.0,0.0,0.0,0.0,0.0,0.0,0.0,0.0,0.0,0.0,0.0,0,0.0,0.5,0.5433409810000001,0.6165467500999999,90.0,60.0,60.0,90.6546554565,116.565071106,120.51211547850001,24.4640007019,15.97909832,8.3400001526,2,-1,10,1,109,156
15,1532112586029,66029, AUTO,0,40.0434592604,-88.2344147,0,-104.5699790454,416.6749968769,429.59624479260003,-107.03165988190001,418.7867360493,0.5588834286,0.0,-106.69050266129999,417.7740307446,0.6400259153,2.0161762949,0.0,0.0,1510,1750,40.0472255,-88.2331573333,0.0,0.0,0.0,0.0,0.0,0.0,0.0,0.0,0.0,0.0,0.0,0.0,0.0,0,0.019999980900000002,0.5,0.5442606807,0.5735061765,90.0,60.0,60.0,88.2991638184,119.3025436401,119.0479049683,24.4640007019,15.97909832,8.3400001526,2,-1,10,1,251,166
16,1532112586230,66230, AUTO,0,40.0434592604,-88.2344147,0,-104.4299185911,417.0717484581,429.9470330853,-106.8330349914,419.2129832674,0.5896923542,0.0,-106.550442207,418.1707823258,0.7783022312000001,1.6545331228,0.0,0.0,1560,1750,40.0472293333,-88.2331596667,0.0,0.0,0.0,0.0,0.0,0.0,0.0,0.0,0.0,0.0,0.0,0.0,0.0,0,0.1200000048,0.5,0.5931871532999999,0.5861976147,90.0,60.0,60.0,90.2726821899,118.72959136959999,118.53860473629999,25.0019989014,15.97909832,8.3400001526,2,-1,10,1,217,176
17,1532112586430,66430, AUTO,0,40.0434592604,-88.2344147,0,-104.4299185911,417.0717484581,429.9470330853,-106.8330349914,419.2129832674,0.6128680706,0.0,-106.550442207,418.1707823258,0.7783022312000001,1.6545331228,0.0,0.0,1460,1750,40.0472293333,-88.2331596667,0.0,0.0,0.0,0.0,0.0,0.0,0.0,0.0,0.0,0.0,0.0,0.0,0.0,0,-0.07999998330000001,0.5,0.6606909036999999,0.5650452375,90.0,60.0,60.0,88.55381011959999,118.2202911377,118.6022567749,25.0019989014,15.97909832,8.3400001526,2,-1,10,1,212,186
18,1532112586631,66631, AUTO,0,40.0434592604,-88.2344147,0,-104.4299185911,417.0717484581,429.9470330853,-106.8330349914,419.2129832674,0.5994408727,0.0,-106.550442207,418.1707823258,0.7783022312000001,1.6545331228,0.0,0.0,1470,1750,40.0472293333,-88.2331596667,0.0,0.0,0.0,0.0,0.0,0.0,0.0,0.0,0.0,0.0,0.0,0.0,0.0,0,-0.0600000024,0.5,0.5992569327,0.5996248126,90.0,60.0,60.0,89.3177566528,118.856918335,118.411277771,25.0019989014,15.966766357400001,10.8199996948,2,-1,10,1,286,196
19,1532112586832,66832, AUTO,0,40.0434592604,-88.2344147,0,-104.4299185911,417.0717484581,429.9470330853,-106.8330349914,419.2129832674,0.6014641522999999,0.0,-106.550442207,418.1707823258,0.7783022312000001,1.6545331228,0.0,0.0,1510,1750,40.0472293333,-88.2331596667,0.0,0.0,0.0,0.0,0.0,0.0,0.0,0.0,0.0,0.0,0.0,0.0,0.0,0,0.019999980900000002,0.5,0.6319971681000001,0.5709311365999999,90.0,60.0,60.0,88.1081771851,119.3025436401,118.2202911377,25.0019989014,15.966766357400001,10.8199996948,2,-1,10,1,217,206
20,1532112587032,67032, AUTO,0,40.0434592604,-88.2344147,0,-104.4299185911,417.0717484581,429.9470330853,-106.8330349914,419.2129832674,0.5763571262,0.0,-106.550442207,418.1707823258,0.7783022312000001,1.6545331228,0.0,0.0,1460,1750,40.0472293333,-88.2331596667,0.0,0.0,0.0,0.0,0.0,0.0,0.0,0.0,0.0,0.0,0.0,0.0,0.0,0,-0.07999998330000001,0.5,0.5705632567,0.5821510553,90.0,60.0,60.0,89.9543762207,117.5200195312,119.1752166748,25.0019989014,15.966766357400001,10.8199996948,2,-1,10,1,48,215
21,1532112587233,67233, AUTO,0,40.0434592604,-88.2344147,0,-104.80038753129999,417.29416935480003,430.25288494589995,-107.0032824496,419.1944507793,0.5725864768,0.0,-106.92091114719999,418.3932032225,0.8934035539,2.0299614362000002,0.0,0.0,1520,1750,40.0472291667,-88.2331576667,0.0,0.0,0.0,0.0,0.0,0.0,0.0,0.0,0.0,0.0,0.0,0.0,0.0,0,0.0399999619,0.5,0.5898762941,0.5793920754999999,90.0,60.0,60.0,88.93578338620001,119.42987060549999,117.9019851685,24.4640007019,15.966766357400001,10.8199996948,2,-1,10,1,49,224
22,1532112587434,67434, AUTO,0,40.0434592604,-88.2344147,0,-104.80038753129999,417.29416935480003,430.25288494589995,-107.0032824496,419.1944507793,0.5742418765999999,0.0,-106.92091114719999,418.3932032225,0.8934035539,2.0299614362000002,0.0,0.0,1460,1750,40.0472291667,-88.2331576667,0.0,0.0,0.0,0.0,0.0,0.0,0.0,0.0,0.0,0.0,0.0,0.0,0.0,0,-0.07999998330000001,0.5,0.5657809377,0.5827028751,90.0,60.0,60.0,88.9994430542,118.2839584351,118.72959136959999,24.4640007019,15.966766357400001,10.8199996948,2,-1,10,1,22,233
23,1532112587634,67634, AUTO,0,40.0434592604,-88.2344147,0,-104.80038753129999,417.29416935480003,430.25288494589995,-107.0032824496,419.1944507793,0.5928192735,0.0,-106.92091114719999,418.3932032225,0.8934035539,2.0299614362000002,0.0,0.0,1520,1750,40.0472291667,-88.2331576667,0.0,0.0,0.0,0.0,0.0,0.0,0.0,0.0,0.0,0.0,0.0,0.0,0.0,0,0.0399999619,0.5,0.5924513936,0.5931871532999999,90.0,60.0,60.0,88.681137085,119.5571899414,117.9019851685,24.4640007019,15.9548311234,13.239999771099999,2,-1,10,1,16,242
24,1532112587835,67835, AUTO,0,40.0434592604,-88.2344147,0,-104.80038753129999,417.29416935480003,430.25288494589995,-107.0032824496,419.1944507793,0.5916236639,0.0,-106.92091114719999,418.3932032225,0.8934035539,2.0299614362000002,0.0,0.0,1550,1750,40.0472291667,-88.2331576667,0.0,0.0,0.0,0.0,0.0,0.0,0.0,0.0,0.0,0.0,0.0,0.0,0.0,0,0.1000000238,0.5,0.5753455162,0.6079018116,90.0,60.0,60.0,89.0631027222,119.0479049683,117.7109985352,24.4640007019,15.9548311234,13.239999771099999,2,-1,10,1,25,251
25,1532112588036,68036, AUTO,0,40.0434592604,-88.2344147,0,-104.80038753129999,417.29416935480003,430.25288494589995,-107.0032824496,419.1944507793,0.5857377648,0.0,-106.92091114719999,418.3932032225,0.8934035539,2.0299614362000002,0.0,0.0,1540,1750,40.0472291667,-88.2331576667,0.0,0.0,0.0,0.0,0.0,0.0,0.0,0.0,0.0,0.0,0.0,0.0,0.0,0,0.0800000429,0.5,0.6158109903,0.5556645393,90.0,60.0,60.0,89.12677001950001,118.411277771,118.411277771,24.4640007019,15.9548311234,13.239999771099999,2,-1,10,1,19,260
26,1532112588236,68236, AUTO,0,40.0434592604,-88.2344147,0,-104.5594606125,417.70246221239995,430.5903247193,-107.0600289411,419.56510053529996,0.5414097309,0.0,-106.6799842284,418.80149608010004,0.9992500181999999,1.6667139684,0.0,0.0,1540,1750,40.0472325,-88.233157,0.0,0.0,0.0,0.0,0.0,0.0,0.0,0.0,0.0,0.0,0.0,0.0,0.0,0,0.0800000429,0.5,0.6012802124000001,0.4815391898,90.0,60.0,60.0,88.681137085,118.4749450684,118.9842300415,24.4640007019,15.9548311234,13.239999771099999,2,-1,10,1,28,269
27,1532112588437,68437, AUTO,0,40.0434592604,-88.2344147,0,-104.5594606125,417.70246221239995,430.5903247193,-107.0600289411,419.56510053529996,0.5600789785,0.0,-106.6799842284,418.80149608010004,0.9992500181999999,1.6667139684,0.0,0.0,1570,1750,40.0472325,-88.233157,0.0,0.0,0.0,0.0,0.0,0.0,0.0,0.0,0.0,0.0,0.0,0.0,0.0,0,0.1399999857,0.5,0.5792081356000001,0.5409498811,90.0,60.0,60.0,88.681137085,119.3025436401,118.2202911377,24.4640007019,15.9548311234,13.239999771099999,2,-1,10,1,16,278
28,1532112588638,68638, AUTO,0,40.0434592604,-88.2344147,0,-104.5594606125,417.70246221239995,430.5903247193,-107.0600289411,419.56510053529996,0.5551127791,0.0,-106.6799842284,418.80149608010004,0.9992500181999999,1.6667139684,0.0,0.0,1530,1750,40.0472325,-88.233157,0.0,0.0,0.0,0.0,0.0,0.0,0.0,0.0,0.0,0.0,0.0,0.0,0.0,0,0.059999942800000004,0.5,0.6049588919,0.5052666664,90.0,60.0,60.0,89.0631027222,119.3662033081,118.2202911377,24.4640007019,15.9298343658,20.9500007629,2,-1,10,1,19,287
29,1532112588838,68838, AUTO,0,40.0434592604,-88.2344147,0,-104.5594606125,417.70246221239995,430.5903247193,-107.0600289411,419.56510053529996,0.5585155487,0.0,-106.6799842284,418.80149608010004,0.9992500181999999,1.6667139684,0.0,0.0,1590,1750,40.0472325,-88.233157,0.0,0.0,0.0,0.0,0.0,0.0,0.0,0.0,0.0,0.0,0.0,0.0,0.0,0,0.1799999475,0.5,0.5836225748,0.5334085822,90.0,60.0,60.0,89.7633895874,119.7481765747,117.3290328979,24.4640007019,15.9298343658,20.9500007629,2,-1,10,1,177,296
30,1532112589039,69039, AUTO,0,40.0434592604,-88.2344147,0,-104.5594606125,417.70246221239995,430.5903247193,-107.0600289411,419.56510053529996,0.5723106265,0.0,-106.6799842284,418.80149608010004,0.9992500181999999,1.6667139684,0.0,0.0,1520,1750,40.0472325,-88.233157,0.0,0.0,0.0,0.0,0.0,0.0,0.0,0.0,0.0,0.0,0.0,0.0,0.0,0,0.0399999619,0.5,0.5873012543,0.5573199986999999,90.0,60.0,60.0,89.0631027222,118.0929718018,119.0479049683,24.4640007019,15.9298343658,20.9500007629,2,-1,10,1,35,305
31,1532112589239,69239, AUTO,0,40.0434592604,-88.2344147,0,-105.04412616139999,417.9093016333,430.9088683616,-107.23027442840001,419.8245553635,0.5640335679,0.0,-107.1646497773,419.008335501,1.0658654905,2.0501140185,0.0,0.0,1510,1750,40.0472348333,-88.233155,0.0,0.0,0.0,0.0,0.0,0.0,0.0,0.0,0.0,0.0,0.0,0.0,0.0,0,0.019999980900000002,0.5,0.5529055595,0.5751615763,90.0,60.0,60.0,89.6997299194,118.6659317017,118.6659317017,25.540000915500002,15.9298343658,20.9500007629,2,-1,10,1,30,314
32,1532112589440,69440, AUTO,0,40.0434592604,-88.2344147,0,-105.04412616139999,417.9093016333,430.9088683616,-107.23027442840001,419.8245553635,0.5896923542,0.0,-107.1646497773,419.008335501,1.0658654905,2.0501140185,0.0,0.0,1510,1750,40.0472348333,-88.233155,0.0,0.0,0.0,0.0,0.0,0.0,0.0,0.0,0.0,0.0,0.0,0.0,0.0,0,0.019999980900000002,0.5,0.5926353335,0.5867494345000001,90.0,60.0,60.0,89.7633895874,117.2017059326,119.81184387209998,25.540000915500002,15.9298343658,20.9500007629,2,-1,10,1,33,323
33,1532112589641,69641, AUTO,0,40.0434592604,-88.2344147,0,-105.04412616139999,417.9093016333,430.9088683616,-107.23027442840001,419.8245553635,0.6119483709,0.0,-107.1646497773,419.008335501,1.0658654905,2.0501140185,0.0,0.0,1520,1750,40.0472348333,-88.233155,0.0,0.0,0.0,0.0,0.0,0.0,0.0,0.0,0.0,0.0,0.0,0.0,0.0,0,0.0399999619,0.5,0.6288703084,0.5950264335000001,90.0,60.0,60.0,89.63606262209998,118.72959136959999,117.96564483639999,25.540000915500002,15.9164829254,7.0799999237,2,-1,10,1,29,332
34,1532112589841,69841, AUTO,0,40.0434592604,-88.2344147,0,-105.04412616139999,417.9093016333,430.9088683616,-107.23027442840001,419.8245553635,0.6227084994,0.0,-107.1646497773,419.008335501,1.0658654905,2.0501140185,0.0,0.0,1590,1750,40.0472348333,-88.233155,0.0,0.0,0.0,0.0,0.0,0.0,0.0,0.0,0.0,0.0,0.0,0.0,0.0,0,0.1799999475,0.5,0.6507584453,0.5946585536,90.0,60.0,60.0,89.44507598879999,117.9019851685,118.72959136959999,25.540000915500002,15.9164829254,7.0799999237,2,-1,10,1,123,341
35,1532112590042,70042, AUTO,0,40.0434592604,-88.2344147,0,-105.04412616139999,417.9093016333,430.9088683616,-107.23027442840001,419.8245553635,0.61673069,0.0,-107.1646497773,419.008335501,1.0658654905,2.0501140185,0.0,0.0,1490,1750,40.0472348333,-88.233155,0.0,0.0,0.0,0.0,0.0,0.0,0.0,0.0,0.0,0.0,0.0,0.0,0.0,0,-0.019999980900000002,0.5,0.6720948219,0.5613665581,90.0,60.0,60.0,88.93578338620001,118.0929718018,119.1752166748,25.540000915500002,15.9164829254,7.0799999237,2,-1,10,1,158,350
36,1532112590242,70242, AUTO,0,40.0434592604,-88.2344147,0,-104.7846863015,418.30555814120004,431.2300667336,-107.4005206987,419.9728152661,0.5837145448,0.0,-106.9052099174,419.4045920089,1.1164554717,1.7334467028,0.0,0.0,1550,1750,40.0472361667,-88.233153,0.0,0.0,0.0,0.0,0.0,0.0,0.0,0.0,0.0,0.0,0.0,0.0,0.0,0,0.1000000238,0.5,0.5972337127,0.5701953769,90.0,60.0,60.0,88.8721160889,121.2124023438,116.05578613280001,24.4640007019,15.9164829254,7.0799999237,2,-1,10,1,55,359
37,1532112590443,70443, AUTO,0,40.0434592604,-88.2344147,0,-104.7846863015,418.30555814120004,431.2300667336,-107.4005206987,419.9728152661,0.5860136747,0.0,-106.9052099174,419.4045920089,1.1164554717,1.7334467028,0.0,0.0,1620,1750,40.0472361667,-88.233153,0.0,0.0,0.0,0.0,0.0,0.0,0.0,0.0,0.0,0.0,0.0,0.0,0.0,0,0.2400000095,0.5,0.5790241957,0.5930032134000001,90.0,60.0,60.0,90.01803588870001,119.0479049683,118.0293045044,24.4640007019,15.9164829254,7.0799999237,2,-1,10,1,87,368
38,1532112590644,70644, AUTO,0,40.0434592604,-88.2344147,0,-104.7846863015,418.30555814120004,431.2300667336,-107.4005206987,419.9728152661,0.5667005777,0.0,-106.9052099174,419.4045920089,1.1164554717,1.7334467028,0.0,0.0,1390,1750,40.0472361667,-88.233153,0.0,0.0,0.0,0.0,0.0,0.0,0.0,0.0,0.0,0.0,0.0,0.0,0.0,0,-0.22000002859999998,0.5,0.6191217899,0.5142794251,90.0,60.0,60.0,91.10028839110001,118.9205703735,118.6022567749,24.4640007019,15.9099855423,10.220000267,2,-1,10,1,47,377
39,1532112590845,70845, AUTO,0,40.0434592604,-88.2344147,0,-104.7846863015,418.30555814120004,431.2300667336,-107.4005206987,419.9728152661,0.5459160805,0.0,-106.9052099174,419.4045920089,1.1164554717,1.7334467028,0.0,0.0,1480,1750,40.0472361667,-88.233153,0.0,0.0,0.0,0.0,0.0,0.0,0.0,0.0,0.0,0.0,0.0,0.0,0.0,0,-0.040000021499999996,0.5,0.6237201690999999,0.46811199189999997,90.0,60.0,60.0,89.3814163208,117.5200195312,119.939163208,24.4640007019,15.9099855423,10.220000267,2,-1,10,1,65,386
40,1532112591045,71045, AUTO,0,40.0434592604,-88.2344147,0,-104.7846863015,418.30555814120004,431.2300667336,-107.4005206987,419.9728152661,0.5550208092,0.0,-106.9052099174,419.4045920089,1.1164554717,1.7334467028,0.0,0.0,1500,1750,40.0472361667,-88.233153,0.0,0.0,0.0,0.0,0.0,0.0,0.0,0.0,0.0,0.0,0.0,0.0,0.0,0,0.0,0.5,0.5799438953,0.530097723,90.0,60.0,60.0,88.55381011959999,120.4484634399,117.6473312378,24.4640007019,15.9099855423,10.220000267,2,-1,10,1,106,398
41,1532112591246,71246, AUTO,0,40.0434592604,-88.2344147,0,-105.12960002770001,418.50630481120004,431.5087020777,-107.1167722884,420.3805299968,0.5967738032,0.0,-107.2501236436,419.6053386789,1.1438908044,1.9573445784,0.0,0.0,1460,1750,40.0472398333,-88.2331563333,0.0,0.0,0.0,0.0,0.0,0.0,0.0,0.0,0.0,0.0,0.0,0.0,0.0,0,-0.07999998330000001,0.5,0.591347754,0.6021998525,90.0,60.0,60.0,88.8721160889,117.9019851685,119.3662033081,25.540000915500002,15.9099855423,10.220000267,2,-1,10,1,59,408
42,1532112591446,71446, AUTO,0,40.0434592604,-88.2344147,0,-105.12960002770001,418.50630481120004,431.5087020777,-107.1167722884,420.3805299968,0.5981533527,0.0,-107.2501236436,419.6053386789,1.1438908044,1.9573445784,0.0,0.0,1460,1750,40.0472398333,-88.2331563333,0.0,0.0,0.0,0.0,0.0,0.0,0.0,0.0,0.0,0.0,0.0,0.0,0.0,0,-0.07999998330000001,0.5,0.5001165271,0.6961901187999999,90.0,60.0,60.0,90.7183227539,119.7481765747,117.4563446045,25.540000915500002,15.9099855423,10.220000267,2,-1,10,1,51,417
43,1532112591647,71647, AUTO,0,40.0434592604,-88.2344147,0,-105.12960002770001,418.50630481120004,431.5087020777,-107.1167722884,420.3805299968,0.6172824502,0.0,-107.2501236436,419.6053386789,1.1438908044,1.9573445784,0.0,0.0,1440,1750,40.0472398333,-88.2331563333,0.0,0.0,0.0,0.0,0.0,0.0,0.0,0.0,0.0,0.0,0.0,0.0,0.0,0,-0.1200000048,0.5,0.5118882656,0.7226766348,90.0,60.0,60.0,89.3814163208,118.2202911377,118.53860473629999,25.540000915500002,15.9095611572,8.8000001907,2,-1,10,1,28,426
44,1532112591848,71848, AUTO,0,40.0434592604,-88.2344147,0,-105.12960002770001,418.50630481120004,431.5087020777,-107.1167722884,420.3805299968,0.6070741414999999,0.0,-107.2501236436,419.6053386789,1.1438908044,1.9573445784,0.0,0.0,1430,1750,40.0472398333,-88.2331563333,0.0,0.0,0.0,0.0,0.0,0.0,0.0,0.0,0.0,0.0,0.0,0.0,0.0,0,-0.1399999857,0.5,0.5087614059000001,0.7053868770999999,90.0,60.0,60.0,90.4636688232,119.5571899414,118.0293045044,25.540000915500002,15.9095611572,8.8000001907,2,-1,10,1,26,436
45,1532112592048,72048, AUTO,0,40.0434592604,-88.2344147,0,-105.12960002770001,418.50630481120004,431.5087020777,-107.1167722884,420.3805299968,0.5683560371,0.0,-107.2501236436,419.6053386789,1.1438908044,1.9573445784,0.0,0.0,1480,1750,40.0472398333,-88.2331563333,0.0,0.0,0.0,0.0,0.0,0.0,0.0,0.0,0.0,0.0,0.0,0.0,0.0,0,-0.040000021499999996,0.5,0.5188778043,0.61783427,90.0,60.0,60.0,90.0816955566,117.77465820309999,118.6022567749,25.540000915500002,15.9095611572,8.8000001907,2,-1,10,1,30,445
46,1532112592249,72249, AUTO,0,40.0434592604,-88.2344147,0,-104.907454268,418.8865873478,431.8235137425,-107.0742081028,420.71411477739997,0.5969577432000001,0.0,-107.0279778839,419.98562121550003,1.1365416931999999,1.7386635209,0.0,0.0,1500,1750,40.0472428333,-88.2331568333,0.0,0.0,0.0,0.0,0.0,0.0,0.0,0.0,0.0,0.0,0.0,0.0,0.0,0,0.0,0.5,0.5727704167000001,0.6211450696,90.0,60.0,60.0,88.1081771851,118.9205703735,118.6659317017,25.0019989014,15.9095611572,8.8000001907,2,-1,10,1,67,454
47,1532112592450,72450, AUTO,0,40.0434592604,-88.2344147,0,-104.907454268,418.8865873478,431.8235137425,-107.0742081028,420.71411477739997,0.5815992951,0.0,-107.0279778839,419.98562121550003,1.1365416931999999,1.7386635209,0.0,0.0,1480,1750,40.0472428333,-88.2331568333,0.0,0.0,0.0,0.0,0.0,0.0,0.0,0.0,0.0,0.0,0.0,0.0,0.0,0,-0.040000021499999996,0.5,0.5591593385,0.6040392518,90.0,60.0,60.0,88.1081771851,118.0293045044,118.6659317017,25.0019989014,15.9095611572,8.8000001907,2,-1,10,1,63,463
48,1532112592650,72650, AUTO,0,40.0434592604,-88.2344147,0,-104.907454268,418.8865873478,431.8235137425,-107.0742081028,420.71411477739997,0.5614584684,0.0,-107.0279778839,419.98562121550003,1.1365416931999999,1.7386635209,0.0,0.0,1500,1750,40.0472428333,-88.2331568333,0.0,0.0,0.0,0.0,0.0,0.0,0.0,0.0,0.0,0.0,0.0,0.0,0.0,0,0.0,0.5,0.5586075187,0.5643094778,90.0,60.0,60.0,90.145362854,118.6022567749,118.2839584351,25.0019989014,15.9009914398,16.3800010681,2,-1,10,1,43,472
49,1532112592851,72851, AUTO,0,40.0434592604,-88.2344147,0,-104.907454268,418.8865873478,431.8235137425,-107.0742081028,420.71411477739997,0.5661487579,0.0,-107.0279778839,419.98562121550003,1.1365416931999999,1.7386635209,0.0,0.0,1500,1750,40.0472428333,-88.2331568333,0.0,0.0,0.0,0.0,0.0,0.0,0.0,0.0,0.0,0.0,0.0,0.0,0.0,0,0.0,0.5,0.5896923542,0.5426052213,90.0,60.0,60.0,87.3442306519,117.7109985352,118.6022567749,25.0019989014,15.9009914398,16.3800010681,2,-1,10,1,27,481
50,1532112593052,73052, AUTO,0,40.0434592604,-88.2344147,0,-104.907454268,418.8865873478,431.8235137425,-107.0742081028,420.71411477739997,0.5694596171,0.0,-107.0279778839,419.98562121550003,1.1365416931999999,1.7386635209,0.0,0.0,1520,1750,40.0472428333,-88.2331568333,0.0,0.0,0.0,0.0,0.0,0.0,0.0,0.0,0.0,0.0,0.0,0.0,0.0,0,0.0399999619,0.5,0.6023837924000001,0.5365354419,90.0,60.0,60.0,90.7183227539,120.0664901733,118.34761810299999,25.0019989014,15.9009914398,16.3800010681,2,-1,10,1,30,490
51,1532112593253,73253, AUTO,0,40.0434592604,-88.2344147,0,-105.0715290208,419.21871691800004,432.1855606394,-107.1309507902,421.6222066779,0.5929112434,0.0,-107.1920526367,420.3177507857,1.1573911081000001,1.8013056161,0.0,0.0,1560,1750,40.047251,-88.2331561667,0.0,0.0,0.0,0.0,0.0,0.0,0.0,0.0,0.0,0.0,0.0,0.0,0.0,0,0.1200000048,0.5,0.6571961045,0.5286263227,90.0,60.0,60.0,88.681137085,118.72959136959999,118.2839584351,25.540000915500002,15.9009914398,16.3800010681,2,-1,10,1,23,499
52,1532112593453,73453, AUTO,0,40.0434592604,-88.2344147,0,-105.0715290208,419.21871691800004,432.1855606394,-107.1309507902,421.6222066779,0.5999007225,0.0,-107.1920526367,420.3177507857,1.1573911081000001,1.8013056161,0.0,0.0,1510,1750,40.047251,-88.2331561667,0.0,0.0,0.0,0.0,0.0,0.0,0.0,0.0,0.0,0.0,0.0,0.0,0.0,0,0.019999980900000002,0.5,0.6798200011,0.5199813843,90.0,60.0,60.0,88.4901504517,118.4749450684,119.0479049683,25.540000915500002,15.9009914398,16.3800010681,2,-1,10,1,51,508
53,1532112593654,73654, AUTO,0,40.0434592604,-88.2344147,0,-105.0715290208,419.21871691800004,432.1855606394,-107.1309507902,421.6222066779,0.5800358057,0.0,-107.1920526367,420.3177507857,1.1573911081000001,1.8013056161,0.0,0.0,1540,1750,40.047251,-88.2331561667,0.0,0.0,0.0,0.0,0.0,0.0,0.0,0.0,0.0,0.0,0.0,0.0,0.0,0,0.0800000429,0.5,0.6277666688,0.5323049425999999,90.0,60.0,60.0,88.36282348629999,118.411277771,118.9205703735,25.540000915500002,15.89564991,12.0400009155,2,-1,10,1,154,517
54,1532112593855,73855, AUTO,0,40.0434592604,-88.2344147,0,-105.0715290208,419.21871691800004,432.1855606394,-107.1309507902,421.6222066779,0.6017400622,0.0,-107.1920526367,420.3177507857,1.1573911081000001,1.8013056161,0.0,0.0,1530,1750,40.047251,-88.2331561667,0.0,0.0,0.0,0.0,0.0,0.0,0.0,0.0,0.0,0.0,0.0,0.0,0.0,0,0.059999942800000004,0.5,0.6489191055,0.5545610189,90.0,60.0,60.0,89.3814163208,119.0479049683,118.53860473629999,25.540000915500002,15.89564991,12.0400009155,2,-1,10,1,275,526
55,1532112594055,74055, AUTO,0,40.0434592604,-88.2344147,0,-105.0715290208,419.21871691800004,432.1855606394,-107.1309507902,421.6222066779,0.6399983168,0.0,-107.1920526367,420.3177507857,1.1573911081000001,1.8013056161,0.0,0.0,1500,1750,40.047251,-88.2331561667,0.0,0.0,0.0,0.0,0.0,0.0,0.0,0.0,0.0,0.0,0.0,0.0,0.0,0,0.0,0.5,0.6980295181,0.5819671154,90.0,60.0,60.0,88.93578338620001,118.2839584351,119.3025436401,25.540000915500002,15.89564991,12.0400009155,2,-1,10,1,120,535
56,1532112594256,74256, AUTO,0,40.0434592604,-88.2344147,0,-104.95931754540001,419.5823624998,432.5110602754,-107.1309513141,421.54807672699997,0.5597110987,0.0,-107.0798411613,420.6813963675,1.1697941335,1.6658233971,0.0,0.0,1580,1750,40.0472503333,-88.2331561667,0.0,0.0,0.0,0.0,0.0,0.0,0.0,0.0,0.0,0.0,0.0,0.0,0.0,0,0.15999996660000002,0.5,0.5768169761,0.5426052213,90.0,60.0,60.0,89.12677001950001,117.13804626459999,119.62085723879999,25.0019989014,15.89564991,12.0400009155,2,-1,10,1,194,544
57,1532112594457,74457, AUTO,0,40.0434592604,-88.2344147,0,-104.95931754540001,419.5823624998,432.5110602754,-107.1309513141,421.54807672699997,0.5870252847999999,0.0,-107.0798411613,420.6813963675,1.1697941335,1.6658233971,0.0,0.0,1500,1750,40.0472503333,-88.2331561667,0.0,0.0,0.0,0.0,0.0,0.0,0.0,0.0,0.0,0.0,0.0,0.0,0.0,0,0.0,0.5,0.6077178717,0.5663327575,90.0,60.0,60.0,90.0816955566,118.53860473629999,118.9205703735,25.0019989014,15.89564991,12.0400009155,2,-1,10,1,212,553
58,1532112594657,74657, AUTO,0,40.0434592604,-88.2344147,0,-104.95931754540001,419.5823624998,432.5110602754,-107.1309513141,421.54807672699997,0.6025677919,0.0,-107.0798411613,420.6813963675,1.1697941335,1.6658233971,0.0,0.0,1490,1750,40.0472503333,-88.2331561667,0.0,0.0,0.0,0.0,0.0,0.0,0.0,0.0,0.0,0.0,0.0,0.0,0.0,0,-0.019999980900000002,0.5,0.6522299646999999,0.5529055595,90.0,60.0,60.0,89.82704925540001,118.2839584351,119.62085723879999,25.0019989014,15.8946590424,10.7700004578,2,-1,10,1,207,562
59,1532112594858,74858, AUTO,0,40.0434592604,-88.2344147,0,-104.95931754540001,419.5823624998,432.5110602754,-107.1309513141,421.54807672699997,0.5646773577,0.0,-107.0798411613,420.6813963675,1.1697941335,1.6658233971,0.0,0.0,1430,1750,40.0472503333,-88.2331561667,0.0,0.0,0.0,0.0,0.0,0.0,0.0,0.0,0.0,0.0,0.0,0.0,0.0,0,-0.1399999857,0.5,0.6194896698,0.5098650455,90.0,60.0,60.0,88.9994430542,119.7481765747,118.4749450684,25.0019989014,15.8946590424,10.7700004578,2,-1,10,1,71,571
60,1532112595059,75059, AUTO,0,40.0434592604,-88.2344147,0,-104.95931754540001,419.5823624998,432.5110602754,-107.1309513141,421.54807672699997,0.5805876255,0.0,-107.0798411613,420.6813963675,1.1697941335,1.6658233971,0.0,0.0,1520,1750,40.0472503333,-88.2331561667,0.0,0.0,0.0,0.0,0.0,0.0,0.0,0.0,0.0,0.0,0.0,0.0,0.0,0,0.0399999619,0.5,0.6042231917,0.5569521189,90.0,60.0,60.0,88.6174697876,117.4563446045,120.0664901733,25.0019989014,15.8946590424,10.7700004578,2,-1,10,1,63,580
61,1532112595259,75259, AUTO,0,40.0434592604,-88.2344147,0,-105.159080283,419.82364227230005,432.7936260815,-107.57075868049999,421.2886218987,0.5635737181,0.0,-107.27960389889999,420.92267614,1.1859702126,1.7560225707,0.0,0.0,1510,1750,40.047248,-88.233151,0.0,0.0,0.0,0.0,0.0,0.0,0.0,0.0,0.0,0.0,0.0,0.0,0.0,0,0.019999980900000002,0.5,0.5736901164,0.5534573793,90.0,60.0,60.0,90.5909881592,119.5571899414,118.4749450684,24.4640007019,15.8946590424,10.7700004578,2,-1,10,1,39,589
62,1532112595460,75460, AUTO,0,40.0434592604,-88.2344147,0,-105.159080283,419.82364227230005,432.7936260815,-107.57075868049999,421.2886218987,0.5680801867999999,0.0,-107.27960389889999,420.92267614,1.1859702126,1.7560225707,0.0,0.0,1520,1750,40.047248,-88.233151,0.0,0.0,0.0,0.0,0.0,0.0,0.0,0.0,0.0,0.0,0.0,0.0,0.0,0,0.0399999619,0.5,0.5909799337,0.5451803803,90.0,60.0,60.0,89.9543762207,120.4484634399,117.77465820309999,24.4640007019,15.8946590424,10.7700004578,2,-1,10,1,67,599
63,1532112595661,75661, AUTO,0,40.0434592604,-88.2344147,0,-105.159080283,419.82364227230005,432.7936260815,-107.57075868049999,421.2886218987,0.5916236639,0.0,-107.27960389889999,420.92267614,1.1859702126,1.7560225707,0.0,0.0,1420,1750,40.047248,-88.233151,0.0,0.0,0.0,0.0,0.0,0.0,0.0,0.0,0.0,0.0,0.0,0.0,0.0,0,-0.16000002619999998,0.5,0.5966818929,0.5865654945000001,90.0,60.0,60.0,88.4264831543,117.77465820309999,119.5571899414,24.4640007019,15.885911941500002,13.350000381500001,2,-1,10,1,61,607
64,1532112595861,75861, AUTO,0,40.0434592604,-88.2344147,0,-105.159080283,419.82364227230005,432.7936260815,-107.57075868049999,421.2886218987,0.6332847476,0.0,-107.27960389889999,420.92267614,1.1859702126,1.7560225707,0.0,0.0,1520,1750,40.047248,-88.233151,0.0,0.0,0.0,0.0,0.0,0.0,0.0,0.0,0.0,0.0,0.0,0.0,0.0,0,0.0399999619,0.5,0.6755895615,0.5909799337,90.0,60.0,60.0,88.2991638184,116.7560577393,120.7031021118,24.4640007019,15.885911941500002,13.350000381500001,2,-1,10,1,61,616
65,1532112596062,76062, AUTO,0,40.0434592604,-88.2344147,0,-105.159080283,419.82364227230005,432.7936260815,-107.57075868049999,421.2886218987,0.5946586132,0.0,-107.27960389889999,420.92267614,1.1859702126,1.7560225707,0.0,0.0,1500,1750,40.047248,-88.233151,0.0,0.0,0.0,0.0,0.0,0.0,0.0,0.0,0.0,0.0,0.0,0.0,0.0,0,0.0,0.5,0.5560324192,0.6332847476,90.0,60.0,60.0,88.9994430542,119.62085723879999,117.0743713379,24.4640007019,15.885911941500002,13.350000381500001,2,-1,10,1,36,626
66,1532112596262,76262, AUTO,0,40.0434592604,-88.2344147,0,-105.07049282540001,420.1463954827,433.0852134392,-106.9607003519,422.06698638410006,0.5934630632,0.0,-107.1910164413,421.2454293504,1.1876583568,1.6915762567,0.0,0.0,1480,1750,40.047255,-88.2331581667,0.0,0.0,0.0,0.0,0.0,0.0,0.0,0.0,0.0,0.0,0.0,0.0,0.0,0,-0.040000021499999996,0.5,0.5966818929,0.590244174,90.0,60.0,60.0,88.8721160889,118.9842300415,118.2839584351,25.0019989014,15.885911941500002,13.350000381500001,2,-1,10,1,46,635
67,1532112596463,76463, AUTO,0,40.0434592604,-88.2344147,0,-105.07049282540001,420.1463954827,433.0852134392,-106.9607003519,422.06698638410006,0.5547448993,0.0,-107.1910164413,421.2454293504,1.1876583568,1.6915762567,0.0,0.0,1510,1750,40.047255,-88.2331581667,0.0,0.0,0.0,0.0,0.0,0.0,0.0,0.0,0.0,0.0,0.0,0.0,0.0,0,0.019999980900000002,0.5,0.5438928008,0.5655969977,90.0,60.0,60.0,86.8349304199,118.15663146969999,118.4749450684,25.0019989014,15.885911941500002,13.350000381500001,2,-1,10,1,47,644
68,1532112596664,76664, AUTO,0,40.0434592604,-88.2344147,0,-105.07049282540001,420.1463954827,433.0852134392,-106.9607003519,422.06698638410006,0.5812314153,0.0,-107.1910164413,421.2454293504,1.1876583568,1.6915762567,0.0,0.0,1500,1750,40.047255,-88.2331581667,0.0,0.0,0.0,0.0,0.0,0.0,0.0,0.0,0.0,0.0,0.0,0.0,0.0,0,0.0,0.5,0.5834386349,0.5790241957,90.0,60.0,60.0,87.8535232544,118.7932434082,119.0479049683,25.0019989014,15.877863884000002,18.6299991608,2,-1,10,1,35,653
69,1532112596865,76865, AUTO,0,40.0434592604,-88.2344147,0,-105.07049282540001,420.1463954827,433.0852134392,-106.9607003519,422.06698638410006,0.5990730524,0.0,-107.1910164413,421.2454293504,1.1876583568,1.6915762567,0.0,0.0,1490,1750,40.047255,-88.2331581667,0.0,0.0,0.0,0.0,0.0,0.0,0.0,0.0,0.0,0.0,0.0,0.0,0.0,0,-0.019999980900000002,0.5,0.6261113286,0.5720347165999999,90.0,60.0,60.0,90.0816955566,118.856918335,118.2202911377,25.0019989014,15.877863884000002,18.6299991608,2,-1,10,1,66,662
70,1532112597065,77065, AUTO,0,40.0434592604,-88.2344147,0,-105.07049282540001,420.1463954827,433.0852134392,-106.9607003519,422.06698638410006,0.5695515871,0.0,-107.1910164413,421.2454293504,1.1876583568,1.6915762567,0.0,0.0,1540,1750,40.047255,-88.2331581667,0.0,0.0,0.0,0.0,0.0,0.0,0.0,0.0,0.0,0.0,0.0,0.0,0.0,0,0.0800000429,0.5,0.6062464118,0.5328567624,90.0,60.0,60.0,90.20902252200001,118.0929718018,119.939163208,25.0019989014,15.877863884000002,18.6299991608,2,-1,10,1,48,671
71,1532112597266,77266, AUTO,0,40.0434592604,-88.2344147,0,-105.18109441809999,420.35949267660004,433.31878069879997,-107.3153843158,421.7704665804,0.6085456014,0.0,-107.301618034,421.4585265443,1.1530471012999999,1.7516810038,0.0,0.0,1490,1750,40.0472523333,-88.233154,0.0,0.0,0.0,0.0,0.0,0.0,0.0,0.0,0.0,0.0,0.0,0.0,0.0,0,-0.019999980900000002,0.5,0.6244558692000001,0.5926353335,90.0,60.0,60.0,88.8721160889,119.0479049683,118.411277771,25.0019989014,15.877863884000002,18.6299991608,2,-1,10,1,41,680
72,1532112597466,77466, AUTO,0,40.0434592604,-88.2344147,0,-105.18109441809999,420.35949267660004,433.31878069879997,-107.3153843158,421.7704665804,0.5937389135,0.0,-107.301618034,421.4585265443,1.1530471012999999,1.7516810038,0.0,0.0,1460,1750,40.0472523333,-88.233154,0.0,0.0,0.0,0.0,0.0,0.0,0.0,0.0,0.0,0.0,0.0,0.0,0.0,0,-0.07999998330000001,0.5,0.5529055595,0.6345722675,90.0,60.0,60.0,91.1639480591,118.6659317017,119.87550354,25.0019989014,15.877863884000002,18.6299991608,2,-1,10,1,96,689
73,1532112597667,77667, AUTO,0,40.0434592604,-88.2344147,0,-105.18109441809999,420.35949267660004,433.31878069879997,-107.3153843158,421.7704665804,0.5716668367000001,0.0,-107.301618034,421.4585265443,1.1530471012999999,1.7516810038,0.0,0.0,1460,1750,40.0472523333,-88.233154,0.0,0.0,0.0,0.0,0.0,0.0,0.0,0.0,0.0,0.0,0.0,0.0,0.0,0,-0.07999998330000001,0.5,0.49606996770000006,0.6472637057,90.0,60.0,60.0,90.01803588870001,118.4749450684,119.0479049683,25.0019989014,15.875459671,3.6199998856,2,-1,10,1,164,698
74,1532112597868,77868, AUTO,0,40.0434592604,-88.2344147,0,-105.18109441809999,420.35949267660004,433.31878069879997,-107.3153843158,421.7704665804,0.5602629185,0.0,-107.301618034,421.4585265443,1.1530471012999999,1.7516810038,0.0,0.0,1520,1750,40.0472523333,-88.233154,0.0,0.0,0.0,0.0,0.0,0.0,0.0,0.0,0.0,0.0,0.0,0.0,0.0,0,0.0399999619,0.5,0.5144633651,0.6060624719,90.0,60.0,60.0,88.93578338620001,119.87550354,117.6473312378,25.0019989014,15.875459671,3.6199998856,2,-1,10,1,121,708
75,1532112598068,78068, AUTO,0,40.0434592604,-88.2344147,0,-105.18109441809999,420.35949267660004,433.31878069879997,-107.3153843158,421.7704665804,0.5608147383,0.0,-107.301618034,421.4585265443,1.1530471012999999,1.7516810038,0.0,0.0,1490,1750,40.0472523333,-88.233154,0.0,0.0,0.0,0.0,0.0,0.0,0.0,0.0,0.0,0.0,0.0,0.0,0.0,0,-0.019999980900000002,0.5,0.54830724,0.5733222365,90.0,60.0,60.0,87.9808578491,118.9205703735,118.9842300415,25.0019989014,15.875459671,3.6199998856,2,-1,10,1,115,717
76,1532112598269,78269, AUTO,0,40.0434592604,-88.2344147,0,-105.1372747792,420.57921164510003,433.5213026092,-107.3863201645,421.8445965306,0.5770009756000001,0.0,-107.2577983951,421.6782455128,1.1350957179,1.6845083523,0.0,0.0,1480,1750,40.047253,-88.2331531667,0.0,0.0,0.0,0.0,0.0,0.0,0.0,0.0,0.0,0.0,0.0,0.0,0.0,0,-0.040000021499999996,0.5,0.5617344379,0.5922674537,90.0,60.0,60.0,88.681137085,117.58367156979999,120.32112884520001,25.540000915500002,15.875459671,3.6199998856,2,-1,10,1,90,726
77,1532112598470,78470, AUTO,0,40.0434592604,-88.2344147,0,-105.1372747792,420.57921164510003,433.5213026092,-107.3863201645,421.8445965306,0.6007283926,0.0,-107.2577983951,421.6782455128,1.1350957179,1.6845083523,0.0,0.0,1480,1750,40.047253,-88.2331531667,0.0,0.0,0.0,0.0,0.0,0.0,0.0,0.0,0.0,0.0,0.0,0.0,0.0,0,-0.040000021499999996,0.5,0.5992569327,0.6021998525,90.0,60.0,60.0,89.7633895874,118.7932434082,118.411277771,25.540000915500002,15.875459671,3.6199998856,2,-1,10,1,82,735
78,1532112598670,78670, AUTO,0,40.0434592604,-88.2344147,0,-105.1372747792,420.57921164510003,433.5213026092,-107.3863201645,421.8445965306,0.6062464714,0.0,-107.2577983951,421.6782455128,1.1350957179,1.6845083523,0.0,0.0,1480,1750,40.047253,-88.2331531667,0.0,0.0,0.0,0.0,0.0,0.0,0.0,0.0,0.0,0.0,0.0,0.0,0.0,0,-0.040000021499999996,0.5,0.6182021499,0.5942907332999999,90.0,60.0,60.0,90.0816955566,118.6022567749,118.6659317017,25.540000915500002,15.878395080599999,12.6899995804,2,-1,10,1,76,745
79,1532112598871,78871, AUTO,0,40.0434592604,-88.2344147,0,-105.1372747792,420.57921164510003,433.5213026092,-107.3863201645,421.8445965306,0.5922673941,0.0,-107.2577983951,421.6782455128,1.1350957179,1.6845083523,0.0,0.0,1480,1750,40.047253,-88.2331531667,0.0,0.0,0.0,0.0,0.0,0.0,0.0,0.0,0.0,0.0,0.0,0.0,0.0,0,-0.040000021499999996,0.5,0.6077178717,0.5768169761,90.0,60.0,60.0,89.3177566528,117.9019851685,119.42987060549999,25.540000915500002,15.878395080599999,12.6899995804,2,-1,10,1,67,754
80,1532112599072,79072, AUTO,0,40.0434592604,-88.2344147,0,-105.1372747792,420.57921164510003,433.5213026092,-107.3863201645,421.8445965306,0.5861057043,0.0,-107.2577983951,421.6782455128,1.1350957179,1.6845083523,0.0,0.0,1540,1750,40.047253,-88.2331531667,0.0,0.0,0.0,0.0,0.0,0.0,0.0,0.0,0.0,0.0,0.0,0.0,0.0,0,0.0800000429,0.5,0.596314013,0.575897336,90.0,60.0,60.0,89.3814163208,118.7932434082,119.1115570068,25.540000915500002,15.878395080599999,12.6899995804,2,-1,10,1,86,763
81,1532112599272,79272, AUTO,0,40.0434592604,-88.2344147,0,-105.2124040973,420.7810302641,433.7353172224,-107.443067161,422.141116335,0.5804957151,0.0,-107.3329277132,421.8800641318,1.0934212839,1.7034468688,0.0,0.0,1500,1750,40.0472556667,-88.2331525,0.0,0.0,0.0,0.0,0.0,0.0,0.0,0.0,0.0,0.0,0.0,0.0,0.0,0,0.0,0.5,0.574793756,0.5861976147,90.0,60.0,60.0,87.8535232544,118.0929718018,119.42987060549999,25.540000915500002,15.878395080599999,12.6899995804,2,-1,10,1,120,772
82,1532112599473,79473, AUTO,0,40.0434592604,-88.2344147,0,-105.2124040973,420.7810302641,433.7353172224,-107.443067161,422.141116335,0.5712069868999999,0.0,-107.3329277132,421.8800641318,1.0934212839,1.7034468688,0.0,0.0,1470,1750,40.0472556667,-88.2331525,0.0,0.0,0.0,0.0,0.0,0.0,0.0,0.0,0.0,0.0,0.0,0.0,0.0,0,-0.0600000024,0.5,0.6021998525,0.5402141213,90.0,60.0,60.0,91.6095809937,119.1115570068,118.6022567749,25.540000915500002,15.878395080599999,12.6899995804,2,-1,10,1,94,781
83,1532112599674,79674, AUTO,0,40.0434592604,-88.2344147,0,-105.2124040973,420.7810302641,433.7353172224,-107.443067161,422.141116335,0.5971416831,0.0,-107.3329277132,421.8800641318,1.0934212839,1.7034468688,0.0,0.0,1540,1750,40.0472556667,-88.2331525,0.0,0.0,0.0,0.0,0.0,0.0,0.0,0.0,0.0,0.0,0.0,0.0,0.0,0,0.0800000429,0.5,0.6673125029,0.5269708633,90.0,60.0,60.0,88.1081771851,118.6022567749,117.77465820309999,25.540000915500002,15.8733959198,7.0900001526,2,-1,10,1,72,790
84,1532112599874,79874, AUTO,0,40.0434592604,-88.2344147,0,-105.2124040973,420.7810302641,433.7353172224,-107.443067161,422.141116335,0.5643094778,0.0,-107.3329277132,421.8800641318,1.0934212839,1.7034468688,0.0,0.0,1520,1750,40.0472556667,-88.2331525,0.0,0.0,0.0,0.0,0.0,0.0,0.0,0.0,0.0,0.0,0.0,0.0,0.0,0,0.0399999619,0.5,0.6331008077,0.4955181479,90.0,60.0,60.0,91.1639480591,119.0479049683,119.3025436401,25.540000915500002,15.8733959198,7.0900001526,2,-1,10,1,59,799
85,1532112600075,80075, AUTO,0,40.0434592604,-88.2344147,0,-105.2124040973,420.7810302641,433.7353172224,-107.443067161,422.141116335,0.5506983995,0.0,-107.3329277132,421.8800641318,1.0934212839,1.7034468688,0.0,0.0,1570,1750,40.0472556667,-88.2331525,0.0,0.0,0.0,0.0,0.0,0.0,0.0,0.0,0.0,0.0,0.0,0.0,0.0,0,0.1399999857,0.5,0.5906120539,0.5107846856,90.0,60.0,60.0,88.4264831543,120.0664901733,116.6924057007,25.540000915500002,15.8733959198,7.0900001526,2,-1,10,1,56,808
86,1532112600276,80276, AUTO,0,40.0434592604,-88.2344147,0,-105.2843667061,420.95105581160004,433.91772176489997,-107.68425109180001,422.1040513603,0.5694596171,0.0,-107.40489032200001,422.0500896793,1.0418169885,1.72154267,0.0,0.0,1530,1750,40.0472553333,-88.2331496667,0.0,0.0,0.0,0.0,0.0,0.0,0.0,0.0,0.0,0.0,0.0,0.0,0.0,0,0.059999942800000004,0.5,0.6231683493,0.515750885,90.0,60.0,60.0,88.8084564209,116.5014190674,121.0214157104,25.540000915500002,15.8733959198,7.0900001526,2,-1,10,1,47,817
87,1532112600476,80476, AUTO,0,40.0434592604,-88.2344147,0,-105.2843667061,420.95105581160004,433.91772176489997,-107.68425109180001,422.1040513603,0.5779205561,0.0,-107.40489032200001,422.0500896793,1.0418169885,1.72154267,0.0,0.0,1490,1750,40.0472553333,-88.2331496667,0.0,0.0,0.0,0.0,0.0,0.0,0.0,0.0,0.0,0.0,0.0,0.0,0.0,0,-0.019999980900000002,0.5,0.585277915,0.5705632567,90.0,60.0,60.0,90.01803588870001,119.42987060549999,117.96564483639999,25.540000915500002,15.87748909,6.5900001526,2,-1,10,1,71,827
88,1532112600677,80677, AUTO,0,40.0434592604,-88.2344147,0,-105.2843667061,420.95105581160004,433.91772176489997,-107.68425109180001,422.1040513603,0.5954862833,0.0,-107.40489032200001,422.0500896793,1.0418169885,1.72154267,0.0,0.0,1510,1750,40.0472553333,-88.2331496667,0.0,0.0,0.0,0.0,0.0,0.0,0.0,0.0,0.0,0.0,0.0,0.0,0.0,0,0.019999980900000002,0.5,0.6069821715,0.5839904547,90.0,60.0,60.0,88.8084564209,119.6845169067,117.8383178711,25.540000915500002,15.87748909,6.5900001526,2,-1,10,1,129,836
89,1532112600878,80878, AUTO,0,40.0434592604,-88.2344147,0,-105.2843667061,420.95105581160004,433.91772176489997,-107.68425109180001,422.1040513603,0.5735061765,0.0,-107.40489032200001,422.0500896793,1.0418169885,1.72154267,0.0,0.0,1510,1750,40.0472553333,-88.2331496667,0.0,0.0,0.0,0.0,0.0,0.0,0.0,0.0,0.0,0.0,0.0,0.0,0.0,0,0.019999980900000002,0.5,0.6071661115,0.5477554202,90.0,60.0,60.0,88.9994430542,118.2839584351,118.7932434082,25.540000915500002,15.87748909,6.5900001526,2,-1,10,1,86,844
90,1532112601078,81078, AUTO,0,40.0434592604,-88.2344147,0,-105.2843667061,420.95105581160004,433.91772176489997,-107.68425109180001,422.1040513603,0.5868413447999999,0.0,-107.40489032200001,422.0500896793,1.0418169885,1.72154267,0.0,0.0,1480,1750,40.0472553333,-88.2331496667,0.0,0.0,0.0,0.0,0.0,0.0,0.0,0.0,0.0,0.0,0.0,0.0,0.0,0,-0.040000021499999996,0.5,0.591347754,0.5823349953,90.0,60.0,60.0,87.7262039185,117.6473312378,119.1752166748,25.540000915500002,15.87748909,6.5900001526,2,-1,10,1,80,853
91,1532112601279,81279, AUTO,0,40.0434592604,-88.2344147,0,-105.335955697,421.12848094730003,434.1023623842,-107.5281892299,422.3635061892,0.5868414044,0.0,-107.45647931290002,422.227514815,1.0041224526,1.7424042762,0.0,0.0,1490,1750,40.0472576667,-88.2331515,0.0,0.0,0.0,0.0,0.0,0.0,0.0,0.0,0.0,0.0,0.0,0.0,0.0,0,-0.019999980900000002,0.5,0.5777366757,0.5959461331,90.0,60.0,60.0,88.2991638184,119.0479049683,118.0293045044,24.4640007019,15.87748909,6.5900001526,2,-1,10,1,32,863
92,1532112601479,81479, AUTO,0,40.0434592604,-88.2344147,0,-105.335955697,421.12848094730003,434.1023623842,-107.5281892299,422.3635061892,0.5732302666,0.0,-107.45647931290002,422.227514815,1.0041224526,1.7424042762,0.0,0.0,1470,1750,40.0472576667,-88.2331515,0.0,0.0,0.0,0.0,0.0,0.0,0.0,0.0,0.0,0.0,0.0,0.0,0.0,0,-0.0600000024,0.5,0.5609986782,0.5854618549,90.0,60.0,60.0,89.3814163208,120.13014221190001,117.9019851685,24.4640007019,15.872800827,10.0500001907,2,-1,10,1,44,875
93,1532112601680,81680, AUTO,0,40.0434592604,-88.2344147,0,-105.335955697,421.12848094730003,434.1023623842,-107.5281892299,422.3635061892,0.5781965256,0.0,-107.45647931290002,422.227514815,1.0041224526,1.7424042762,0.0,0.0,1480,1750,40.0472576667,-88.2331515,0.0,0.0,0.0,0.0,0.0,0.0,0.0,0.0,0.0,0.0,0.0,0.0,0.0,0,-0.040000021499999996,0.5,0.5459160805,0.6104769111,90.0,60.0,60.0,89.7633895874,118.6022567749,117.9019851685,24.4640007019,15.872800827,10.0500001907,2,-1,10,1,117,885
94,1532112601881,81881, AUTO,0,40.0434592604,-88.2344147,0,-105.335955697,421.12848094730003,434.1023623842,-107.5281892299,422.3635061892,0.5960381031,0.0,-107.45647931290002,422.227514815,1.0041224526,1.7424042762,0.0,0.0,1490,1750,40.0472576667,-88.2331515,0.0,0.0,0.0,0.0,0.0,0.0,0.0,0.0,0.0,0.0,0.0,0.0,0.0,0,-0.019999980900000002,0.5,0.5979693532,0.5858297348,90.0,60.0,60.0,89.9543762207,118.72959136959999,118.15663146969999,24.4640007019,15.872800827,10.0500001907,2,-1,10,1,82,895
95,1532112602081,82081, AUTO,0,40.0434592604,-88.2344147,0,-105.335955697,421.12848094730003,434.1023623842,-107.5281892299,422.3635061892,0.6009123325,0.0,-107.45647931290002,422.227514815,1.0041224526,1.7424042762,0.0,0.0,1520,1750,40.0472576667,-88.2331515,0.0,0.0,0.0,0.0,0.0,0.0,0.0,0.0,0.0,0.0,0.0,0.0,0.0,0,0.0399999619,0.5,0.5847260952000001,0.6170985699,90.0,60.0,60.0,88.6174697876,119.2388916016,118.0293045044,24.4640007019,15.872800827,10.0500001907,2,-1,10,1,72,905
96,1532112602282,82282, AUTO,0,40.0434592604,-88.2344147,0,-105.49725674700001,421.2409251007,434.25060525099997,-108.1240564691,422.1225838476,0.5885887742,0.0,-107.6177803629,422.33995896839997,0.9556817825,1.8186919168,0.0,0.0,1450,1750,40.0472555,-88.2331445,0.0,0.0,0.0,0.0,0.0,0.0,0.0,0.0,0.0,0.0,0.0,0.0,0.0,0,-0.1000000238,0.5,0.5716668367000001,0.6055107117,90.0,60.0,60.0,88.4264831543,119.3662033081,118.4749450684,25.540000915500002,15.872800827,10.0500001907,2,-1,10,1,71,915
97,1532112602483,82483, AUTO,0,40.0434592604,-88.2344147,0,-105.49725674700001,421.2409251007,434.25060525099997,-108.1240564691,422.1225838476,0.6079937816,0.0,-107.6177803629,422.33995896839997,0.9556817825,1.8186919168,0.0,0.0,1460,1750,40.0472555,-88.2331445,0.0,0.0,0.0,0.0,0.0,0.0,0.0,0.0,0.0,0.0,0.0,0.0,0.0,0,-0.07999998330000001,0.5,0.5521697997999999,0.6638177633,90.0,60.0,60.0,88.4264831543,119.1115570068,118.9205703735,25.540000915500002,15.8630886078,17.5299987793,2,-1,10,1,54,925
98,1532112602683,82683, AUTO,0,40.0434592604,-88.2344147,0,-105.49725674700001,421.2409251007,434.25060525099997,-108.1240564691,422.1225838476,0.5702873468,0.0,-107.6177803629,422.33995896839997,0.9556817825,1.8186919168,0.0,0.0,1560,1750,40.0472555,-88.2331445,0.0,0.0,0.0,0.0,0.0,0.0,0.0,0.0,0.0,0.0,0.0,0.0,0.0,0,0.1200000048,0.5,0.4940466881,0.6465280056,90.0,60.0,60.0,88.681137085,119.939163208,117.13804626459999,25.540000915500002,15.8630886078,17.5299987793,2,-1,10,1,66,935
99,1532112602884,82884, AUTO,0,40.0434592604,-88.2344147,0,-105.49725674700001,421.2409251007,434.25060525099997,-108.1240564691,422.1225838476,0.5547449589,0.0,-107.6177803629,422.33995896839997,0.9556817825,1.8186919168,0.0,0.0,1430,1750,40.0472555,-88.2331445,0.0,0.0,0.0,0.0,0.0,0.0,0.0,0.0,0.0,0.0,0.0,0.0,0.0,0,-0.1399999857,0.5,0.5295459628,0.5799438953,90.0,60.0,60.0,88.8721160889,117.5200195312,119.4935302734,25.540000915500002,15.8630886078,17.5299987793,2,-1,10,1,49,945
100,1532112603085,83085, AUTO,0,40.0434592604,-88.2344147,0,-105.49725674700001,421.2409251007,434.25060525099997,-108.1240564691,422.1225838476,0.6014641522999999,0.0,-107.6177803629,422.33995896839997,0.9556817825,1.8186919168,0.0,0.0,1540,1750,40.0472555,-88.2331445,0.0,0.0,0.0,0.0,0.0,0.0,0.0,0.0,0.0,0.0,0.0,0.0,0.0,0,0.0800000429,0.5,0.514647305,0.6882809997,90.0,60.0,60.0,88.36282348629999,119.1752166748,118.15663146969999,25.540000915500002,15.8630886078,17.5299987793,2,-1,10,1,42,955
101,1532112603285,83285, AUTO,0,40.0434592604,-88.2344147,0,-105.797661748,421.3769763933,434.4556380871,-108.83341633629999,422.6600259936,0.5996248126,0.0,-107.9181853639,422.476010261,0.9290558045999999,1.9907066116,0.0,0.0,1490,1750,40.0472603333,-88.2331361667,0.0,0.0,0.0,0.0,0.0,0.0,0.0,0.0,0.0,0.0,0.0,0.0,0.0,0,-0.019999980900000002,0.5,0.5779206157,0.6213290095,90.0,60.0,60.0,88.9994430542,119.1752166748,118.34761810299999,24.4640007019,15.8630886078,17.5299987793,2,-1,10,1,83,965
102,1532112603486,83486, AUTO,0,40.0434592604,-88.2344147,0,-105.797661748,421.3769763933,434.4556380871,-108.83341633629999,422.6600259936,0.6013721824,0.0,-107.9181853639,422.476010261,0.9290558045999999,1.9907066116,0.0,0.0,1530,1750,40.0472603333,-88.2331361667,0.0,0.0,0.0,0.0,0.0,0.0,0.0,0.0,0.0,0.0,0.0,0.0,0.0,0,0.059999942800000004,0.5,0.5922674537,0.6104769111,90.0,60.0,60.0,89.82704925540001,119.87550354,117.4563446045,24.4640007019,15.863087654100001,12.030000686600001,2,-1,10,1,197,975
103,1532112603687,83687, AUTO,0,40.0434592604,-88.2344147,0,-105.797661748,421.3769763933,434.4556380871,-108.83341633629999,422.6600259936,0.6228004694,0.0,-107.9181853639,422.476010261,0.9290558045999999,1.9907066116,0.0,0.0,1550,1750,40.0472603333,-88.2331361667,0.0,0.0,0.0,0.0,0.0,0.0,0.0,0.0,0.0,0.0,0.0,0.0,0.0,0,0.1000000238,0.5,0.643217206,0.6023837924000001,90.0,60.0,60.0,88.2991638184,118.34761810299999,118.4749450684,24.4640007019,15.863087654100001,12.030000686600001,2,-1,10,1,233,985
104,1532112603887,83887, AUTO,0,40.0434592604,-88.2344147,0,-105.797661748,421.3769763933,434.4556380871,-108.83341633629999,422.6600259936,0.5964059829999999,0.0,-107.9181853639,422.476010261,0.9290558045999999,1.9907066116,0.0,0.0,1490,1750,40.0472603333,-88.2331361667,0.0,0.0,0.0,0.0,0.0,0.0,0.0,0.0,0.0,0.0,0.0,0.0,0.0,0,-0.019999980900000002,0.5,0.6553568244,0.5374551415,90.0,60.0,60.0,89.8907089233,117.0107192993,120.32112884520001,24.4640007019,15.863087654100001,12.030000686600001,2,-1,10,1,148,995
105,1532112604088,84088, AUTO,0,40.0434592604,-88.2344147,0,-105.797661748,421.3769763933,434.4556380871,-109.2874053649,423.17893565139997,0.5954862833,0.0,-107.9181853639,422.476010261,0.9290558045999999,1.9907066116,0.0,0.0,1560,1750,40.047265,-88.2331308333,0.0,0.0,0.0,0.0,0.0,0.0,0.0,0.0,0.0,0.0,0.0,0.0,0.0,0,0.1200000048,0.5,0.6051428318,0.5858297348,90.0,60.0,60.0,85.1160583496,120.7031021118,116.6924057007,24.4640007019,15.863087654100001,12.030000686600001,2,-1,10,1,83,1005
106,1532112604289,84289, AUTO,0,40.0434592604,-88.2344147,0,-106.10353467,421.5430880957,434.6913102314,-109.2874053649,423.17893565139997,0.5490429401,0.0,-108.2240582859,422.6421219634,0.9548906571,2.1444971697,0.0,0.0,1540,1750,40.047265,-88.2331308333,0.0,0.0,0.0,0.0,0.0,0.0,0.0,0.0,0.0,0.0,0.0,0.0,0.0,0,0.0800000429,0.5,0.6218808293,0.4762050807,90.0,60.0,60.0,88.1718444824,118.0293045044,119.1115570068,25.540000915500002,15.863087654100001,12.030000686600001,2,-1,10,1,101,1015
107,1532112604489,84489, AUTO,0,40.0434592604,-88.2344147,0,-106.10353467,421.5430880957,434.6913102314,-109.2874053649,423.17893565139997,0.5704712868,0.0,-108.2240582859,422.6421219634,0.9548906571,2.1444971697,0.0,0.0,1500,1750,40.047265,-88.2331308333,0.0,0.0,0.0,0.0,0.0,0.0,0.0,0.0,0.0,0.0,0.0,0.0,0.0,0,0.0,0.5,0.6421135664000001,0.4988289773,90.0,60.0,60.0,88.74479675290002,117.96564483639999,118.9205703735,25.540000915500002,15.8587903976,13.579999923699999,2,-1,10,1,88,1025
108,1532112604690,84690, AUTO,0,40.0434592604,-88.2344147,0,-106.10353467,421.5430880957,434.6913102314,-109.2874053649,423.17893565139997,0.5868414044,0.0,-108.2240582859,422.6421219634,0.9548906571,2.1444971697,0.0,0.0,1550,1750,40.047265,-88.2331308333,0.0,0.0,0.0,0.0,0.0,0.0,0.0,0.0,0.0,0.0,0.0,0.0,0.0,0,0.1000000238,0.5,0.6647374629999999,0.5089453459000001,90.0,60.0,60.0,89.25408935549999,118.6022567749,118.7932434082,25.540000915500002,15.8587903976,13.579999923699999,2,-1,10,1,83,1035
109,1532112604890,84890, AUTO,0,40.0434592604,-88.2344147,0,-106.10353467,421.5430880957,434.6913102314,-109.2874053649,423.17893565139997,0.557779789,0.0,-108.2240582859,422.6421219634,0.9548906571,2.1444971697,0.0,0.0,1560,1750,40.047265,-88.2331308333,0.0,0.0,0.0,0.0,0.0,0.0,0.0,0.0,0.0,0.0,0.0,0.0,0.0,0,0.1200000048,0.5,0.5979693532,0.5175902246999999,90.0,60.0,60.0,88.36282348629999,117.7109985352,119.42987060549999,25.540000915500002,15.8587903976,13.579999923699999,2,-1,10,1,85,1045
110,1532112605091,85091, AUTO,0,40.0434592604,-88.2344147,0,-106.10353467,421.5430880957,434.6913102314,-109.2874053649,423.17893565139997,0.5472955704,0.0,-108.2240582859,422.6421219634,0.9548906571,2.1444971697,0.0,0.0,1540,1750,40.047265,-88.2331308333,0.0,0.0,0.0,0.0,0.0,0.0,0.0,0.0,0.0,0.0,0.0,0.0,0.0,0,0.0800000429,0.5,0.5854618549,0.5091292857999999,90.0,60.0,60.0,89.82704925540001,118.9842300415,118.2202911377,25.540000915500002,15.8587903976,13.579999923699999,2,-1,10,1,79,1055
111,1532112605292,85292, AUTO,0,40.0434592604,-88.2344147,0,-106.54813400270001,421.5501421002,434.8068849088,-109.9542112511,422.6229610181,0.5639415979,0.0,-108.66865761860001,422.6491759679,0.97051966,2.4079803458,0.0,0.0,1530,1750,40.04726,-88.233123,0.0,0.0,0.0,0.0,0.0,0.0,0.0,0.0,0.0,0.0,0.0,0.0,0.0,0,0.059999942800000004,0.5,0.6009123921,0.5269708633,90.0,60.0,60.0,89.5724029541,118.7932434082,118.0929718018,25.0019989014,15.8587903976,13.579999923699999,2,-1,10,1,48,1065
112,1532112605492,85492, AUTO,0,40.0434592604,-88.2344147,0,-106.54813400270001,421.5501421002,434.8068849088,-109.9542112511,422.6229610181,0.5764491558,0.0,-108.66865761860001,422.6491759679,0.97051966,2.4079803458,0.0,0.0,1490,1750,40.04726,-88.233123,0.0,0.0,0.0,0.0,0.0,0.0,0.0,0.0,0.0,0.0,0.0,0.0,0.0,0,-0.019999980900000002,0.5,0.5952103734,0.5576878786,90.0,60.0,60.0,88.74479675290002,117.58367156979999,119.62085723879999,25.0019989014,15.8617019653,5.0,2,-1,10,1,51,1075
113,1532112605693,85693, AUTO,0,40.0434592604,-88.2344147,0,-106.54813400270001,421.5501421002,434.8068849088,-109.9542112511,422.6229610181,0.5488590002,0.0,-108.66865761860001,422.6491759679,0.97051966,2.4079803458,0.0,0.0,1530,1750,40.04726,-88.233123,0.0,0.0,0.0,0.0,0.0,0.0,0.0,0.0,0.0,0.0,0.0,0.0,0.0,0,0.059999942800000004,0.5,0.5751615763,0.5225564837,90.0,60.0,60.0,88.74479675290002,117.8383178711,119.5571899414,25.0019989014,15.8617019653,5.0,2,-1,10,1,46,1085
114,1532112605894,85894, AUTO,0,40.0434592604,-88.2344147,0,-106.54813400270001,421.5501421002,434.8068849088,-109.9542112511,422.6229610181,0.5383747816,0.0,-108.66865761860001,422.6491759679,0.97051966,2.4079803458,0.0,0.0,1540,1750,40.04726,-88.233123,0.0,0.0,0.0,0.0,0.0,0.0,0.0,0.0,0.0,0.0,0.0,0.0,0.0,0,0.0800000429,0.5,0.5429731011,0.5337764621,90.0,60.0,60.0,88.681137085,119.7481765747,118.2839584351,25.0019989014,15.8617019653,5.0,2,-1,10,1,73,1095
115,1532112606094,86094, AUTO,0,40.0434592604,-88.2344147,0,-106.54813400270001,421.5501421002,434.8068849088,-110.3088789439,424.5688722343,0.5286263227,0.0,-108.66865761860001,422.6491759679,0.97051966,2.4079803458,0.0,0.0,1610,1750,40.0472775,-88.2331188333,0.0,0.0,0.0,0.0,0.0,0.0,0.0,0.0,0.0,0.0,0.0,0.0,0.0,0,0.22000002859999998,0.5,0.5475714803,0.5096811056,90.0,60.0,60.0,88.1081771851,119.0479049683,117.0743713379,25.0019989014,15.8617019653,5.0,2,-1,10,1,75,1105
116,1532112606295,86295, AUTO,0,40.0434592604,-88.2344147,0,-106.8283012372,421.9050569518,435.2196721504,-110.3088789439,424.5688722343,0.5366274118,0.0,-108.94882485309999,423.0040908195,1.1100837293,2.4032200461,0.0,0.0,1460,1750,40.0472775,-88.2331188333,0.0,0.0,0.0,0.0,0.0,0.0,0.0,0.0,0.0,0.0,0.0,0.0,0.0,0,-0.07999998330000001,0.5,0.5166705846999999,0.556584239,90.0,60.0,60.0,89.3177566528,119.2388916016,117.5200195312,25.0019989014,15.8617019653,5.0,2,-1,10,1,81,1115
117,1532112606496,86496, AUTO,0,40.0434592604,-88.2344147,0,-106.8283012372,421.9050569518,435.2196721504,-110.3088789439,424.5688722343,0.5107846856,0.0,-108.94882485309999,423.0040908195,1.1100837293,2.4032200461,0.0,0.0,1480,1750,40.0472775,-88.2331188333,0.0,0.0,0.0,0.0,0.0,0.0,0.0,0.0,0.0,0.0,0.0,0.0,0.0,0,-0.040000021499999996,0.5,0.4620421827,0.5595271587,90.0,60.0,60.0,88.36282348629999,119.87550354,117.0743713379,25.0019989014,15.854124069200001,28.3199996948,2,-1,10,1,70,1125
