,(0)linux time (ms),    (1)uptime  (ms),      (2)drive mode,(3)mpc step counter,(4)mpc origin latitude  (deg),(5)mpc origin longitude  (deg),(6)closest trajectory point index to robot,(7)mpc error x (W;E)  (m),(8)mpc error y (W;E)  (m),(9)abs mpc error (m),(10)input [x] for mhe (m),(11)input [y] for mhe (m),(12)input [speed] for mhe (m/s),(13)input [vyaw] for mhe (rad/s),(14)mhe output x  (m),(15)mhe output y  (m),(16)mhe output speed  (m/s),(17)mhe output yaw  (rad),(18)mpc reference heading (rad),(19)mpc turn rate command (rad/s),(20)turn rate command as PWM,(21)throttle command as PWM,(22)primary gps latitude (deg),(23)primary gps longitude (deg),(24)secondary gps latitude  (deg),(25)secondary gps longitude (deg),(26)accelerometer x (m/s^2),(27)accelerometer y (m/s^2),(28)accelerometer z (m/s^2),(29)gyro yaw rate (rad/s),(30)gyro pitch rate   (rad/s),(31)gyro roll rate (rad/s),      (32)yaw (rad),  (33)pitch   (rad),     (34)roll (rad),(35)sonar1 measurement (m),(36)ultrasonic sensor measurement (m),(37)primary gps time (s),(38)normalized turn rate command,(39)normalized throttle command,(40)speed calculation from encoder left (m/s),(41)speed calculation from encoder right (m/s),(42)front gimbal target angle (degrees from straight down),(43)left gimbal target angle  (degrees from straight down),(44)right gimbal target angle  (degrees from straight down),(45)front gimbal measured angle  (degrees from straight down),(46)left gimbal measured angle    (degrees from straight down),(47)right gimbal measured angle  (degrees from straight down),(48)internal temperature (C),(49)battery voltage (V),(50)primary gps type,(51)secondary gps type,    (52)MPC R value, (53)MPC Q[0] value,Unnamed: 54,weed_num,start
0,1532113062488,542488, AUTO,0,40.0434592604,-88.2344147,0,-112.9392670303,415.5135673597,430.58890219949996,-112.4654027484,416.6925649298,0.0,0.0,-115.05979064620001,416.6126012274,0.083103823,-30.248954955,0.0,0.0,1500,1500,40.0472066667,-88.2330935,0.0,0.0,0.0,0.0,0.0,0.0,0.0,0.0,0.0,0.0,0.0,0.0,0.0,0,0.0,0.0,0.0,0.0,90.0,60.0,60.0,89.25408935549999,118.7932434082,118.6022567749,31.995998382600003,15.650762558,0.37999999520000005,2,-1,10,1,151,16
1,1532113062688,542688, AUTO,0,40.0434592604,-88.2344147,0,-112.9392670303,415.5135673597,430.58890219949996,-112.4654027484,416.6925649298,0.0,0.0,-115.05979064620001,416.6126012274,0.083103823,-30.248954955,0.0,0.0,1500,1500,40.0472066667,-88.2330935,0.0,0.0,0.0,0.0,0.0,0.0,0.0,0.0,0.0,0.0,0.0,0.0,0.0,0,0.0,0.0,0.0,0.0,90.0,60.0,60.0,89.25408935549999,118.7932434082,118.6022567749,31.995998382600003,15.6457471848,0.200000003,2,-1,10,1,128,26
2,1532113062889,542889, AUTO,0,40.0434592604,-88.2344147,0,-112.9392670303,415.5135673597,430.58890219949996,-112.4654027484,416.6925649298,0.0,0.0,-115.05979064620001,416.6126012274,0.083103823,-30.248954955,0.0,0.0,1500,1500,40.0472066667,-88.2330935,0.0,0.0,0.0,0.0,0.0,0.0,0.0,0.0,0.0,0.0,0.0,0.0,0.0,0,0.0,0.0,0.0,0.0,90.0,60.0,60.0,89.25408935549999,118.7932434082,118.6022567749,31.995998382600003,15.6457471848,0.200000003,2,-1,10,1,261,35
3,1532113063089,543089, AUTO,0,40.0434592604,-88.2344147,0,-112.9392670303,415.5135673597,430.58890219949996,-112.4654027484,416.6925649298,0.0,0.0,-115.05979064620001,416.6126012274,0.083103823,-30.248954955,0.0,0.0,1500,1500,40.0472066667,-88.2330935,0.0,0.0,0.0,0.0,0.0,0.0,0.0,0.0,0.0,0.0,0.0,0.0,0.0,0,0.0,0.0,0.0,0.0,90.0,60.0,60.0,89.25408935549999,118.7932434082,118.6022567749,31.995998382600003,15.6457471848,0.200000003,2,-1,10,1,138,44
4,1532113063290,543290, AUTO,0,40.0434592604,-88.2344147,0,-112.4639587641,415.42337277620004,430.3774165424,-112.47959319,416.266317711,0.0,0.0,-114.58448238,416.5224066439,0.2893977823,-31.490365114699998,0.0,0.0,1500,1500,40.0472028333,-88.2330933333,0.0,0.0,0.0,0.0,0.0,0.0,0.0,0.0,0.0,0.0,0.0,0.0,0.0,0,0.0,0.0,0.0,0.0,90.0,60.0,60.0,89.25408935549999,118.7932434082,118.6022567749,31.995998382600003,15.6457471848,0.200000003,2,-1,10,1,154,53
5,1532113063490,543490, AUTO,0,40.0434592604,-88.2344147,0,-112.4639587641,415.42337277620004,430.3774165424,-112.47959319,416.266317711,0.0,0.0,-114.58448238,416.5224066439,0.2893977823,-31.490365114699998,0.0,0.0,1500,1500,40.0472028333,-88.2330933333,0.0,0.0,0.0,0.0,0.0,0.0,0.0,0.0,0.0,0.0,0.0,0.0,0.0,0,0.0,0.0,0.0,0.0,90.0,60.0,60.0,89.25408935549999,118.7932434082,118.6022567749,31.995998382600003,15.6457471848,0.200000003,2,-1,10,1,167,62
6,1532113063691,543691, AUTO,0,40.0434592604,-88.2344147,0,-112.4639587641,415.42337277620004,430.3774165424,-112.47959319,416.266317711,0.0,0.0,-114.58448238,416.5224066439,0.2893977823,-31.490365114699998,0.0,0.0,1500,1500,40.0472028333,-88.2330933333,0.0,0.0,0.0,0.0,0.0,0.0,0.0,0.0,0.0,0.0,0.0,0.0,0.0,0,0.0,0.0,0.0,0.0,90.0,60.0,60.0,89.25408935549999,118.7932434082,118.6022567749,31.995998382600003,15.6357164383,0.2599999905,2,-1,10,1,128,74
7,1532113063891,543891, AUTO,0,40.0434592604,-88.2344147,0,-112.4639587641,415.42337277620004,430.3774165424,-112.47959319,416.266317711,0.0,0.0,-114.58448238,416.5224066439,0.2893977823,-31.490365114699998,0.0,0.0,1500,1500,40.0472028333,-88.2330933333,0.0,0.0,0.0,0.0,0.0,0.0,0.0,0.0,0.0,0.0,0.0,0.0,0.0,0,0.0,0.0,0.0,0.0,90.0,60.0,60.0,89.25408935549999,118.7932434082,118.6022567749,31.995998382600003,15.6357164383,0.2599999905,2,-1,10,1,160,84
8,1532113064091,544091, AUTO,0,40.0434592604,-88.2344147,0,-112.4639587641,415.42337277620004,430.3774165424,-112.47959319,416.266317711,0.0,0.0,-114.58448238,416.5224066439,0.2893977823,-31.490365114699998,0.0,0.0,1500,1500,40.0472028333,-88.2330933333,0.0,0.0,0.0,0.0,0.0,0.0,0.0,0.0,0.0,0.0,0.0,0.0,0.0,0,0.0,0.0,0.0,0.0,90.0,60.0,60.0,89.25408935549999,118.7932434082,118.6022567749,31.995998382600003,15.6357164383,0.2599999905,2,-1,10,1,154,94
9,1532113064292,544292, AUTO,0,40.0434592604,-88.2344147,0,-111.00869135129999,415.6255701076,430.1947745879,-112.1816607227,416.2107202474,0.0,0.0,-113.1292149672,416.7246039753,1.1417900712,-30.310079036999998,0.0,0.0,1500,1500,40.0472023333,-88.2330968333,0.0,0.0,0.0,0.0,0.0,0.0,0.0,0.0,0.0,0.0,0.0,0.0,0.0,0,0.0,0.0,0.0,0.0,90.0,60.0,60.0,89.25408935549999,118.7932434082,118.6022567749,31.995998382600003,15.6357164383,0.2599999905,2,-1,10,1,175,104
10,1532113064492,544492, AUTO,0,40.0434592604,-88.2344147,0,-111.00869135129999,415.6255701076,430.1947745879,-112.1816607227,416.2107202474,0.0,0.0,-113.1292149672,416.7246039753,1.1417900712,-30.310079036999998,0.0,0.0,1500,1500,40.0472023333,-88.2330968333,0.0,0.0,0.0,0.0,0.0,0.0,0.0,0.0,0.0,0.0,0.0,0.0,0.0,0,0.0,0.0,0.0,0.0,90.0,60.0,60.0,89.25408935549999,118.7932434082,118.53860473629999,32.533000946,15.6357164383,0.2599999905,2,-1,10,1,149,114
11,1532113064693,544693, AUTO,0,40.0434592604,-88.2344147,0,-111.00869135129999,415.6255701076,430.1947745879,-112.1816607227,416.2107202474,0.0,0.0,-113.1292149672,416.7246039753,1.1417900712,-30.310079036999998,0.0,0.0,1500,1500,40.0472023333,-88.2330968333,0.0,0.0,0.0,0.0,0.0,0.0,0.0,0.0,0.0,0.0,0.0,0.0,0.0,0,0.0,0.0,0.0,0.0,90.0,60.0,60.0,89.25408935549999,118.7932434082,118.856918335,32.533000946,15.630703926099999,0.1599999964,2,-1,10,1,145,124
12,1532113064893,544893, AUTO,0,40.0434592604,-88.2344147,0,-111.00869135129999,415.6255701076,430.1947745879,-112.1816607227,416.2107202474,0.0008277028999999999,0.0,-113.1292149672,416.7246039753,1.1417900712,-30.310079036999998,0.0,0.0,1500,1500,40.0472023333,-88.2330968333,0.0,0.0,0.0,0.0,0.0,0.0,0.0,0.0,0.0,0.0,0.0,0.0,0.0,0,0.0,0.0,0.0,0.0016554058999999999,90.0,60.0,60.0,89.25408935549999,118.72959136959999,118.9205703735,32.533000946,15.630703926099999,0.1599999964,2,-1,10,1,98,134
13,1532113065093,545093, AUTO,0,40.0434592604,-88.2344147,0,-111.00869135129999,415.6255701076,430.1947745879,-112.1816607227,416.2107202474,0.000275901,0.0,-113.1292149672,416.7246039753,1.1417900712,-30.310079036999998,0.0,0.0,1500,1500,40.0472023333,-88.2330968333,0.0,0.0,0.0,0.0,0.0,0.0,0.0,0.0,0.0,0.0,0.0,0.0,0.0,0,0.0,0.0,0.0,0.000551802,90.0,60.0,60.0,89.25408935549999,118.72959136959999,118.9205703735,32.533000946,15.630703926099999,0.1599999964,2,-1,10,1,271,144
14,1532113065294,545294, AUTO,0,40.0434592604,-88.2344147,0,-109.51040792959999,414.7466166696,428.96070389230005,-112.09653923450001,415.91420044309996,9.196700000000001e-05,0.0,-111.63093154549999,415.84565053730006,0.5941725111999999,-32.0908340429,0.0,0.0,1500,1500,40.0471996667,-88.2330978333,0.0,0.0,0.0,0.0,0.0,0.0,0.0,0.0,0.0,0.0,0.0,0.0,0.0,0,0.0,0.0,0.0,0.00018393400000000002,90.0,60.0,60.0,89.25408935549999,118.7932434082,118.856918335,31.995998382600003,15.630703926099999,0.1599999964,2,-1,10,1,86,154
15,1532113065494,545494, AUTO,0,40.0434592604,-88.2344147,0,-109.51040792959999,414.7466166696,428.96070389230005,-112.09653923450001,415.91420044309996,0.0004598349,0.0,-111.63093154549999,415.84565053730006,0.5941725111999999,-32.0908340429,0.0,0.0,1500,1500,40.0471996667,-88.2330978333,0.0,0.0,0.0,0.0,0.0,0.0,0.0,0.0,0.0,0.0,0.0,0.0,0.0,0,0.0,0.0,-0.0031268778000000004,0.0040465477,90.0,60.0,60.0,89.5724029541,119.87550354,118.34761810299999,31.995998382600003,15.630703926099999,0.1599999964,2,-1,10,1,62,164
16,1532113065694,545694, AUTO,0,40.0434592604,-88.2344147,0,-109.51040792959999,414.7466166696,428.96070389230005,-112.09653923450001,415.91420044309996,0.0004598349,0.0,-111.63093154549999,415.84565053730006,0.5941725111999999,-32.0908340429,0.0,0.0,1500,1500,40.0471996667,-88.2330978333,0.0,0.0,0.0,0.0,0.0,0.0,0.0,0.0,0.0,0.0,0.0,0.0,0.0,0,0.0,0.0,-0.0023911418,0.0014714720000000001,90.0,60.0,60.0,87.9808578491,119.87550354,118.2202911377,31.995998382600003,15.6256885529,0.2099999934,2,-1,10,1,15,174
17,1532113065895,545895, AUTO,0,40.0434592604,-88.2344147,0,-109.51040792959999,414.7466166696,428.96070389230005,-112.09653923450001,415.91420044309996,0.00018393400000000002,0.0,-111.63093154549999,415.84565053730006,0.5941725111999999,-32.0908340429,0.0,0.0,1500,1500,40.0471996667,-88.2330978333,0.0,0.0,0.0,0.0,0.0,0.0,0.0,0.0,0.0,0.0,0.0,0.0,0.0,0,0.0,0.0,-0.0009196699,0.000551802,90.0,60.0,60.0,90.40000915530001,119.81184387209998,118.4749450684,31.995998382600003,15.6256885529,0.2099999934,2,-1,10,1,1,184
18,1532113066095,546095, AUTO,0,40.0434592604,-88.2344147,0,-109.51040792959999,414.7466166696,428.96070389230005,-112.09653923450001,415.91420044309996,9.196700000000001e-05,0.0,-111.63093154549999,415.84565053730006,0.5941725111999999,-32.0908340429,0.0,0.0,1500,1500,40.0471996667,-88.2330978333,0.0,0.0,0.0,0.0,0.0,0.0,0.0,0.0,0.0,0.0,0.0,0.0,0.0,0,0.0,0.0,-0.00036786800000000004,0.00018393400000000002,90.0,60.0,60.0,89.5724029541,120.32112884520001,117.3290328979,31.995998382600003,15.6256885529,0.2099999934,2,-1,10,1,43,194
19,1532113066296,546296, AUTO,0,40.0434592604,-88.2344147,0,-109.8087888902,416.1068890933,430.3520805904,-111.74185353760001,416.4145776135,0.0,0.0,-111.9293125061,417.205922961,0.7372498273,-29.6979534739,0.0,0.0,1500,1500,40.0472041667,-88.233102,0.0,0.0,0.0,0.0,0.0,0.0,0.0,0.0,0.0,0.0,0.0,0.0,0.0,0,0.0,0.0,0.0,0.0,90.0,60.0,60.0,89.1904296875,120.51211547850001,118.9205703735,31.995998382600003,15.6256885529,0.2099999934,2,-1,10,1,17,204
20,1532113066496,546496, AUTO,0,40.0434592604,-88.2344147,0,-109.8087888902,416.1068890933,430.3520805904,-111.74185353760001,416.4145776135,0.0,0.0,-111.9293125061,417.205922961,0.7372498273,-29.6979534739,0.0,0.0,1500,1500,40.0472041667,-88.233102,0.0,0.0,0.0,0.0,0.0,0.0,0.0,0.0,0.0,0.0,0.0,0.0,0.0,0,0.0,0.0,0.0,0.0,90.0,60.0,60.0,88.1081771851,118.9842300415,119.939163208,31.995998382600003,15.6256885529,0.2099999934,2,-1,10,1,14,212
21,1532113066697,546697, AUTO,0,40.0434592604,-88.2344147,0,-109.8087888902,416.1068890933,430.3520805904,-111.74185353760001,416.4145776135,0.0,0.0,-111.9293125061,417.205922961,0.7372498273,-29.6979534739,0.0,0.0,1500,1500,40.0472041667,-88.233102,0.0,0.0,0.0,0.0,0.0,0.0,0.0,0.0,0.0,0.0,0.0,0.0,0.0,0,0.0,0.0,0.0,0.0,90.0,60.0,60.0,89.0631027222,118.0293045044,119.2388916016,31.995998382600003,15.6206912994,0.1599999964,2,-1,10,1,25,221
22,1532113066897,546897, AUTO,0,40.0434592604,-88.2344147,0,-109.8087888902,416.1068890933,430.3520805904,-111.74185353760001,416.4145776135,0.0,0.0,-111.9293125061,417.205922961,0.7372498273,-29.6979534739,0.0,0.0,1500,1500,40.0472041667,-88.233102,0.0,0.0,0.0,0.0,0.0,0.0,0.0,0.0,0.0,0.0,0.0,0.0,0.0,0,0.0,0.0,0.0,0.0,90.0,60.0,60.0,90.5273361206,117.96564483639999,120.57579040530001,31.995998382600003,15.6206912994,0.1599999964,2,-1,10,1,63,229
23,1532113067098,547098, AUTO,0,40.0434592604,-88.2344147,0,-109.8087888902,416.1068890933,430.3520805904,-111.74185353760001,416.4145776135,0.0,0.0,-111.9293125061,417.205922961,0.7372498273,-29.6979534739,0.0,0.0,1500,1500,40.0472041667,-88.233102,0.0,0.0,0.0,0.0,0.0,0.0,0.0,0.0,0.0,0.0,0.0,0.0,0.0,0,0.0,0.0,0.0,0.0,90.0,60.0,60.0,90.5273361206,118.15663146969999,119.1115570068,31.995998382600003,15.6206912994,0.1599999964,2,-1,10,1,86,238
24,1532113067299,547299, AUTO,0,40.0434592604,-88.2344147,0,-109.0035957949,415.65526609660003,429.7104654649,-112.1249079009,416.7110974179,0.0,0.0,-111.1241194108,416.7542999643,0.0013138573000000002,-32.277173540599996,0.0,0.0,1500,1500,40.0472068333,-88.2330975,0.0,0.0,0.0,0.0,0.0,0.0,0.0,0.0,0.0,0.0,0.0,0.0,0.0,0,0.0,0.0,0.0,0.0,90.0,60.0,60.0,89.63606262209998,117.5200195312,119.87550354,31.995998382600003,15.6206912994,0.1599999964,2,-1,10,1,135,247
25,1532113067499,547499, AUTO,0,40.0434592604,-88.2344147,0,-109.0035957949,415.65526609660003,429.7104654649,-112.1249079009,416.7110974179,0.0,0.0,-111.1241194108,416.7542999643,0.0013138573000000002,-32.277173540599996,0.0,0.0,1500,1500,40.0472068333,-88.2330975,0.0,0.0,0.0,0.0,0.0,0.0,0.0,0.0,0.0,0.0,0.0,0.0,0.0,0,0.0,0.0,0.0,0.0,90.0,60.0,60.0,90.20902252200001,118.72959136959999,118.2839584351,31.995998382600003,15.6206912994,0.1599999964,2,-1,10,1,62,255
26,1532113067700,547700, AUTO,0,40.0434592604,-88.2344147,0,-109.0035957949,415.65526609660003,429.7104654649,-112.1249079009,416.7110974179,0.0377984345,0.0,-111.1241194108,416.7542999643,0.0013138573000000002,-32.277173540599996,0.0,0.0,1490,1750,40.0472068333,-88.2330975,0.0,0.0,0.0,0.0,0.0,0.0,0.0,0.0,0.0,0.0,0.0,0.0,0.0,0,-0.019999980900000002,0.5,0.0274061635,0.0481907055,90.0,60.0,60.0,93.1374740601,118.15663146969999,119.3025436401,31.995998382600003,15.6156787872,0.37999999520000005,2,-1,10,1,47,264
27,1532113067901,547901, AUTO,0,40.0434592604,-88.2344147,0,-109.0035957949,415.65526609660003,429.7104654649,-112.1249079009,416.7110974179,0.27737247940000004,0.0,-111.1241194108,416.7542999643,0.0013138573000000002,-32.277173540599996,0.0,0.0,1450,1750,40.0472068333,-88.2330975,0.0,0.0,0.0,0.0,0.0,0.0,0.0,0.0,0.0,0.0,0.0,0.0,0.0,0,-0.1000000238,0.5,0.287856698,0.26688823100000003,90.0,60.0,60.0,91.48226165770001,119.0479049683,119.3025436401,31.995998382600003,15.6156787872,0.37999999520000005,2,-1,10,1,50,272
28,1532113068101,548101, AUTO,0,40.0434592604,-88.2344147,0,-109.0035957949,415.65526609660003,429.7104654649,-112.1249079009,416.7110974179,0.4218525887,0.0,-111.1241194108,416.7542999643,0.0013138573000000002,-32.277173540599996,0.0,0.0,1480,1750,40.0472068333,-88.2330975,0.0,0.0,0.0,0.0,0.0,0.0,0.0,0.0,0.0,0.0,0.0,0.0,0.0,0,-0.040000021499999996,0.5,0.4197373688,0.42396783829999996,90.0,60.0,60.0,86.3256378174,120.76677703860001,117.77465820309999,31.995998382600003,15.6156787872,0.37999999520000005,2,-1,10,1,58,281
29,1532113068302,548302, AUTO,0,40.0434592604,-88.2344147,0,-110.7985492725,414.8778599906,429.4181612732,-111.7276605219,417.1929420996,0.47418183090000005,0.0,-112.9190728884,415.9768938583,0.4361621678,-32.2320081097,0.0,0.0,1400,1750,40.0472111667,-88.23310216670001,0.0,0.0,0.0,0.0,0.0,0.0,0.0,0.0,0.0,0.0,0.0,0.0,0.0,0,-0.1999999881,0.5,0.4719746113,0.4763890207,90.0,60.0,60.0,89.3177566528,117.0743713379,120.57579040530001,31.995998382600003,15.6156787872,0.37999999520000005,2,-1,10,1,49,289
30,1532113068503,548503, AUTO,0,40.0434592604,-88.2344147,0,-110.7985492725,414.8778599906,429.4181612732,-111.7276605219,417.1929420996,0.5712070465,0.0,-112.9190728884,415.9768938583,0.4361621678,-32.2320081097,0.0,0.0,1510,1750,40.0472111667,-88.23310216670001,0.0,0.0,0.0,0.0,0.0,0.0,0.0,0.0,0.0,0.0,0.0,0.0,0.0,0,0.019999980900000002,0.5,0.5957621932,0.5466518402,90.0,60.0,60.0,87.3442306519,118.53860473629999,118.9205703735,31.995998382600003,15.6156787872,0.37999999520000005,2,-1,10,1,93,298
31,1532113068703,548703, AUTO,0,40.0434592604,-88.2344147,0,-110.7985492725,414.8778599906,429.4181612732,-111.7276605219,417.1929420996,0.5701953769,0.0,-112.9190728884,415.9768938583,0.4361621678,-32.2320081097,0.0,0.0,1540,1750,40.0472111667,-88.23310216670001,0.0,0.0,0.0,0.0,0.0,0.0,0.0,0.0,0.0,0.0,0.0,0.0,0.0,0,0.0800000429,0.5,0.6158109903,0.5245797634,90.0,60.0,60.0,90.40000915530001,120.0664901733,117.7109985352,31.995998382600003,15.602961540199999,9.3400001526,2,-1,10,1,107,307
32,1532113068904,548904, AUTO,0,40.0434592604,-88.2344147,0,-110.7985492725,414.8778599906,429.4181612732,-111.7276605219,417.1929420996,0.5820590854,0.0,-112.9190728884,415.9768938583,0.4361621678,-32.2320081097,0.0,0.0,1530,1750,40.0472111667,-88.23310216670001,0.0,0.0,0.0,0.0,0.0,0.0,0.0,0.0,0.0,0.0,0.0,0.0,0.0,0,0.059999942800000004,0.5,0.611764431,0.5523537397,90.0,60.0,60.0,90.9729614258,120.38480377200001,118.7932434082,31.995998382600003,15.602961540199999,9.3400001526,2,-1,10,1,140,315
33,1532113069105,549105, AUTO,0,40.0434592604,-88.2344147,0,-110.7985492725,414.8778599906,429.4181612732,-111.7276605219,417.1929420996,0.5903362035999999,0.0,-112.9190728884,415.9768938583,0.4361621678,-32.2320081097,0.0,0.0,1520,1750,40.0472111667,-88.23310216670001,0.0,0.0,0.0,0.0,0.0,0.0,0.0,0.0,0.0,0.0,0.0,0.0,0.0,0,0.0399999619,0.5,0.6003605723,0.5803117752,90.0,60.0,60.0,90.4636688232,119.81184387209998,118.15663146969999,31.995998382600003,15.602961540199999,9.3400001526,2,-1,10,1,167,324
34,1532113069305,549305, AUTO,0,40.0434592604,-88.2344147,0,-109.2758500303,416.1647930479,430.27240949480006,-111.81278118899999,417.600656831,0.5792081356000001,0.0,-111.3963736462,417.26382691559996,0.38230088240000004,-29.4697932573,0.0,0.0,1470,1750,40.047214833299996,-88.2331011667,0.0,0.0,0.0,0.0,0.0,0.0,0.0,0.0,0.0,0.0,0.0,0.0,0.0,0,-0.0600000024,0.5,0.5220046639,0.6364116073,90.0,60.0,60.0,89.82704925540001,118.6659317017,118.15663146969999,31.995998382600003,15.602961540199999,9.3400001526,2,-1,10,1,161,332
35,1532113069506,549506, AUTO,0,40.0434592604,-88.2344147,0,-109.2758500303,416.1647930479,430.27240949480006,-111.81278118899999,417.600656831,0.5782884359,0.0,-111.3963736462,417.26382691559996,0.38230088240000004,-29.4697932573,0.0,0.0,1460,1750,40.047214833299996,-88.2331011667,0.0,0.0,0.0,0.0,0.0,0.0,0.0,0.0,0.0,0.0,0.0,0.0,0.0,0,-0.07999998330000001,0.5,0.5613665581,0.5952103734,90.0,60.0,60.0,88.4901504517,119.939163208,118.7932434082,31.995998382600003,15.602961540199999,9.3400001526,2,-1,10,1,93,341
36,1532113069706,549706, AUTO,0,40.0434592604,-88.2344147,0,-109.2758500303,416.1647930479,430.27240949480006,-111.81278118899999,417.600656831,0.5609986782,0.0,-111.3963736462,417.26382691559996,0.38230088240000004,-29.4697932573,0.0,0.0,1370,1750,40.047214833299996,-88.2331011667,0.0,0.0,0.0,0.0,0.0,0.0,0.0,0.0,0.0,0.0,0.0,0.0,0.0,0,-0.2599999905,0.5,0.5262351036,0.5957621932,90.0,60.0,60.0,89.5724029541,117.0107192993,120.7031021118,31.995998382600003,15.58705616,16.6499996185,2,-1,10,1,77,350
37,1532113069907,549907, AUTO,0,40.0434592604,-88.2344147,0,-109.2758500303,416.1647930479,430.27240949480006,-111.81278118899999,417.600656831,0.5650452375,0.0,-111.3963736462,417.26382691559996,0.38230088240000004,-29.4697932573,0.0,0.0,1480,1750,40.047214833299996,-88.2331011667,0.0,0.0,0.0,0.0,0.0,0.0,0.0,0.0,0.0,0.0,0.0,0.0,0.0,0,-0.040000021499999996,0.5,0.5302816629,0.5998087525,90.0,60.0,60.0,90.5909881592,120.51211547850001,117.39268493649999,31.995998382600003,15.58705616,16.6499996185,2,-1,10,1,69,359
38,1532113070108,550108, AUTO,0,40.0434592604,-88.2344147,0,-109.2758500303,416.1647930479,430.27240949480006,-111.81278118899999,417.600656831,0.5908879042,0.0,-111.3963736462,417.26382691559996,0.38230088240000004,-29.4697932573,0.0,0.0,1500,1750,40.047214833299996,-88.2331011667,0.0,0.0,0.0,0.0,0.0,0.0,0.0,0.0,0.0,0.0,0.0,0.0,0.0,0,0.0,0.5,0.5792081356000001,0.6025677322999999,90.0,60.0,60.0,89.82704925540001,118.72959136959999,118.6659317017,31.995998382600003,15.58705616,16.6499996185,2,-1,10,1,47,368
39,1532113070308,550308, AUTO,0,40.0434592604,-88.2344147,0,-108.80657542590001,416.5023574234,430.48006294730004,-110.4224185598,418.8793984875,0.5702873468,0.0,-110.9270990418,417.6013912911,0.0996476244,-32.9735375308,0.0,0.0,1510,1750,40.047226333299996,-88.2331175,0.0,0.0,0.0,0.0,0.0,0.0,0.0,0.0,0.0,0.0,0.0,0.0,0.0,0,0.019999980900000002,0.5,0.5280745029,0.6125001907000001,90.0,60.0,60.0,89.5724029541,119.5571899414,118.2202911377,31.995998382600003,15.58705616,16.6499996185,2,-1,10,1,49,376
40,1532113070509,550509, AUTO,0,40.0434592604,-88.2344147,0,-108.80657542590001,416.5023574234,430.48006294730004,-110.4224185598,418.8793984875,0.5473875403,0.0,-110.9270990418,417.6013912911,0.0996476244,-32.9735375308,0.0,0.0,1440,1750,40.047226333299996,-88.2331175,0.0,0.0,0.0,0.0,0.0,0.0,0.0,0.0,0.0,0.0,0.0,0.0,0.0,0,-0.1200000048,0.5,0.5026915668999999,0.5920835137,90.0,60.0,60.0,89.3177566528,118.0293045044,119.3662033081,31.995998382600003,15.58705616,16.6499996185,2,-1,10,1,36,385
41,1532113070710,550710, AUTO,0,40.0434592604,-88.2344147,0,-108.80657542590001,416.5023574234,430.48006294730004,-110.4224185598,418.8793984875,0.5907959938,0.0,-110.9270990418,417.6013912911,0.0996476244,-32.9735375308,0.0,0.0,1470,1750,40.047226333299996,-88.2331175,0.0,0.0,0.0,0.0,0.0,0.0,0.0,0.0,0.0,0.0,0.0,0.0,0.0,0,-0.0600000024,0.5,0.5501465797,0.6314453483,90.0,60.0,60.0,88.9994430542,118.53860473629999,120.32112884520001,31.995998382600003,15.5484218597,25.9500007629,2,-1,10,1,28,395
42,1532113070910,550910, AUTO,0,40.0434592604,-88.2344147,0,-108.80657542590001,416.5023574234,430.48006294730004,-110.4224185598,418.8793984875,0.5666086674,0.0,-110.9270990418,417.6013912911,0.0996476244,-32.9735375308,0.0,0.0,1460,1750,40.047226333299996,-88.2331175,0.0,0.0,0.0,0.0,0.0,0.0,0.0,0.0,0.0,0.0,0.0,0.0,0.0,0,-0.07999998330000001,0.5,0.5357996821000001,0.5974176526,90.0,60.0,60.0,89.6997299194,120.6394424438,118.0929718018,31.995998382600003,15.5484218597,25.9500007629,2,-1,10,1,25,404
43,1532113071111,551111, AUTO,0,40.0434592604,-88.2344147,0,-108.80657542590001,416.5023574234,430.48006294730004,-110.4224185598,418.8793984875,0.5589753985,0.0,-110.9270990418,417.6013912911,0.0996476244,-32.9735375308,0.0,0.0,1500,1750,40.047226333299996,-88.2331175,0.0,0.0,0.0,0.0,0.0,0.0,0.0,0.0,0.0,0.0,0.0,0.0,0.0,0,0.0,0.5,0.5177741647,0.6001766324000001,90.0,60.0,60.0,90.8456420898,118.4749450684,119.3025436401,31.995998382600003,15.5484218597,25.9500007629,2,-1,10,1,38,413
44,1532113071312,551312, AUTO,0,40.0434592604,-88.2344147,0,-109.334525398,415.8069243229,429.9412015135,-107.95382092,420.4731924358,0.5647692679999999,0.0,-111.4550490139,416.90595819059996,0.0,-29.4474185732,0.0,0.0,1520,1750,40.0472406667,-88.2331465,0.0,0.0,0.0,0.0,0.0,0.0,0.0,0.0,0.0,0.0,0.0,0.0,0.0,0,0.0399999619,0.5,0.5308334827000001,0.5987051129,90.0,60.0,60.0,89.12677001950001,118.72959136959999,118.7932434082,31.4580001831,15.5484218597,25.9500007629,2,-1,10,1,44,422
45,1532113071512,551512, AUTO,0,40.0434592604,-88.2344147,0,-109.334525398,415.8069243229,429.9412015135,-107.95382092,420.4731924358,0.5885887146000001,0.0,-111.4550490139,416.90595819059996,0.0,-29.4474185732,0.0,0.0,1550,1750,40.0472406667,-88.2331465,0.0,0.0,0.0,0.0,0.0,0.0,0.0,0.0,0.0,0.0,0.0,0.0,0.0,0,0.1000000238,0.5,0.6176503301,0.5595271587,90.0,60.0,60.0,89.0631027222,119.0479049683,119.3025436401,31.4580001831,15.5484218597,25.9500007629,2,-1,10,1,49,431
46,1532113071713,551713, AUTO,0,40.0434592604,-88.2344147,0,-109.334525398,415.8069243229,429.9412015135,-107.95382092,420.4731924358,0.6091893911,0.0,-111.4550490139,416.90595819059996,0.0,-29.4474185732,0.0,0.0,1540,1750,40.0472406667,-88.2331465,0.0,0.0,0.0,0.0,0.0,0.0,0.0,0.0,0.0,0.0,0.0,0.0,0.0,0,0.0800000429,0.5,0.7057547569,0.5126240253000001,90.0,60.0,60.0,87.7898712158,119.42987060549999,118.7932434082,31.4580001831,15.534602165199999,5.1000003815,2,-1,10,1,41,440
47,1532113071914,551914, AUTO,0,40.0434592604,-88.2344147,0,-109.334525398,415.8069243229,429.9412015135,-107.95382092,420.4731924358,0.5938308835,0.0,-111.4550490139,416.90595819059996,0.0,-29.4474185732,0.0,0.0,1510,1750,40.0472406667,-88.2331465,0.0,0.0,0.0,0.0,0.0,0.0,0.0,0.0,0.0,0.0,0.0,0.0,0.0,0,0.019999980900000002,0.5,0.6338365078,0.5538252592,90.0,60.0,60.0,89.3177566528,119.1752166748,119.3025436401,31.4580001831,15.534602165199999,5.1000003815,2,-1,10,1,26,449
48,1532113072114,552114, AUTO,0,40.0434592604,-88.2344147,0,-109.334525398,415.8069243229,429.9412015135,-107.95382092,420.4731924358,0.591439724,0.0,-111.4550490139,416.90595819059996,0.0,-29.4474185732,0.0,0.0,1530,1750,40.0472406667,-88.2331465,0.0,0.0,0.0,0.0,0.0,0.0,0.0,0.0,0.0,0.0,0.0,0.0,0.0,0,0.059999942800000004,0.5,0.6555407643,0.5273387432,90.0,60.0,60.0,89.6997299194,119.81184387209998,118.411277771,31.4580001831,15.534602165199999,5.1000003815,2,-1,10,1,40,458
49,1532113072315,552315, AUTO,0,40.0434592604,-88.2344147,0,-109.71234112360001,416.41206155300006,430.62257581510005,-105.7405986189,421.51101175080004,0.5862895846,0.0,-111.83286473950001,417.5110954207,0.2695726488,-29.446697521500003,0.0,0.0,1540,1750,40.04725,-88.2331725,0.0,0.0,0.0,0.0,0.0,0.0,0.0,0.0,0.0,0.0,0.0,0.0,0.0,0,0.0800000429,0.5,0.6154431105,0.5571360588000001,90.0,60.0,60.0,90.145362854,119.2388916016,119.1752166748,30.919998168899998,15.534602165199999,5.1000003815,2,-1,10,1,36,467
50,1532113072516,552516, AUTO,0,40.0434592604,-88.2344147,0,-109.71234112360001,416.41206155300006,430.62257581510005,-105.7405986189,421.51101175080004,0.5935549736,0.0,-111.83286473950001,417.5110954207,0.2695726488,-29.446697521500003,0.0,0.0,1520,1750,40.04725,-88.2331725,0.0,0.0,0.0,0.0,0.0,0.0,0.0,0.0,0.0,0.0,0.0,0.0,0.0,0,0.0399999619,0.5,0.6084536314,0.5786563158,90.0,60.0,60.0,87.1532516479,118.856918335,119.1115570068,30.919998168899998,15.534602165199999,5.1000003815,2,-1,10,1,30,476
51,1532113072717,552717, AUTO,0,40.0434592604,-88.2344147,0,-109.71234112360001,416.41206155300006,430.62257581510005,-105.7405986189,421.51101175080004,0.5946586132,0.0,-111.83286473950001,417.5110954207,0.2695726488,-29.446697521500003,0.0,0.0,1550,1750,40.04725,-88.2331725,0.0,0.0,0.0,0.0,0.0,0.0,0.0,0.0,0.0,0.0,0.0,0.0,0.0,0,0.1000000238,0.5,0.6485512257,0.5407659411,90.0,60.0,60.0,89.1904296875,119.81184387209998,118.6659317017,30.919998168899998,15.5283565521,15.219999313399999,2,-1,10,1,38,484
52,1532113072917,552917, AUTO,0,40.0434592604,-88.2344147,0,-109.71234112360001,416.41206155300006,430.62257581510005,-105.7405986189,421.51101175080004,0.5935549736,0.0,-111.83286473950001,417.5110954207,0.2695726488,-29.446697521500003,0.0,0.0,1530,1750,40.04725,-88.2331725,0.0,0.0,0.0,0.0,0.0,0.0,0.0,0.0,0.0,0.0,0.0,0.0,0.0,0,0.059999942800000004,0.5,0.6354919672,0.5516180396,90.0,60.0,60.0,87.8535232544,120.13014221190001,118.0293045044,30.919998168899998,15.5283565521,15.219999313399999,2,-1,10,1,48,493
53,1532113073118,553118, AUTO,0,40.0434592604,-88.2344147,0,-109.71234112360001,416.41206155300006,430.62257581510005,-105.7405986189,421.51101175080004,0.5863815546,0.0,-111.83286473950001,417.5110954207,0.2695726488,-29.446697521500003,0.0,0.0,1530,1750,40.04725,-88.2331725,0.0,0.0,0.0,0.0,0.0,0.0,0.0,0.0,0.0,0.0,0.0,0.0,0.0,0,0.059999942800000004,0.5,0.6233522892,0.54941082,90.0,60.0,60.0,88.93578338620001,118.0293045044,119.7481765747,30.919998168899998,15.5283565521,15.219999313399999,2,-1,10,1,271,501
54,1532113073319,553319, AUTO,0,40.0434592604,-88.2344147,0,-107.7286686582,417.6668692744,431.3363881478,-102.5910102568,423.47545545580005,0.5850020646999999,0.0,-109.8491922741,418.7659031421,0.3191450908,-36.0769626486,0.0,0.0,1550,1750,40.0472676667,-88.2332095,0.0,0.0,0.0,0.0,0.0,0.0,0.0,0.0,0.0,0.0,0.0,0.0,0.0,0,0.1000000238,0.5,0.5882208943,0.5817831754999999,90.0,60.0,60.0,88.8084564209,120.32112884520001,117.5200195312,31.4580001831,15.5283565521,15.219999313399999,2,-1,10,1,293,510
55,1532113073519,553519, AUTO,0,40.0434592604,-88.2344147,0,-107.7286686582,417.6668692744,431.3363881478,-102.5910102568,423.47545545580005,0.5843582749,0.0,-109.8491922741,418.7659031421,0.3191450908,-36.0769626486,0.0,0.0,1600,1750,40.0472676667,-88.2332095,0.0,0.0,0.0,0.0,0.0,0.0,0.0,0.0,0.0,0.0,0.0,0.0,0.0,0,0.2000000477,0.5,0.5959461331,0.5727704167000001,90.0,60.0,60.0,88.681137085,118.9205703735,119.62085723879999,31.4580001831,15.5283565521,15.219999313399999,2,-1,10,1,246,518
56,1532113073720,553720, AUTO,0,40.0434592604,-88.2344147,0,-107.7286686582,417.6668692744,431.3363881478,-102.5910102568,423.47545545580005,0.5617344379,0.0,-109.8491922741,418.7659031421,0.3191450908,-36.0769626486,0.0,0.0,1470,1750,40.0472676667,-88.2332095,0.0,0.0,0.0,0.0,0.0,0.0,0.0,0.0,0.0,0.0,0.0,0.0,0.0,0,-0.0600000024,0.5,0.5992569327,0.5242118835,90.0,60.0,60.0,89.8907089233,118.0929718018,119.42987060549999,31.4580001831,15.5250930786,7.1999998092999995,2,-1,10,1,133,527
57,1532113073921,553921, AUTO,0,40.0434592604,-88.2344147,0,-107.7286686582,417.6668692744,431.3363881478,-102.5910102568,423.47545545580005,0.5348800421000001,0.0,-109.8491922741,418.7659031421,0.3191450908,-36.0769626486,0.0,0.0,1410,1750,40.0472676667,-88.2332095,0.0,0.0,0.0,0.0,0.0,0.0,0.0,0.0,0.0,0.0,0.0,0.0,0.0,0,-0.18000000719999998,0.5,0.5974176526,0.4723424911,90.0,60.0,60.0,89.63606262209998,119.62085723879999,118.53860473629999,31.4580001831,15.5250930786,7.1999998092999995,2,-1,10,1,13,535
58,1532113074121,554121, AUTO,0,40.0434592604,-88.2344147,0,-107.7286686582,417.6668692744,431.3363881478,-102.5910102568,423.47545545580005,0.529086113,0.0,-109.8491922741,418.7659031421,0.3191450908,-36.0769626486,0.0,0.0,1460,1750,40.0472676667,-88.2332095,0.0,0.0,0.0,0.0,0.0,0.0,0.0,0.0,0.0,0.0,0.0,0.0,0.0,0,-0.07999998330000001,0.5,0.5205332040999999,0.5376390815,90.0,60.0,60.0,88.681137085,119.4935302734,118.856918335,31.4580001831,15.5250930786,7.1999998092999995,2,-1,10,1,18,544
59,1532113074322,554322, AUTO,0,40.0434592604,-88.2344147,0,-102.34944004260001,419.28952003349997,431.6006365692,-98.29225433,425.3472367211,0.5216367840999999,0.0,-104.4699636585,420.38855390120005,1.4498833412,-47.4567890671,0.0,0.0,1480,1750,40.0472845,-88.23326,0.0,0.0,0.0,0.0,0.0,0.0,0.0,0.0,0.0,0.0,0.0,0.0,0.0,0,-0.040000021499999996,0.5,0.5277066231,0.5155669451,90.0,60.0,60.0,88.9994430542,118.34761810299999,119.3025436401,30.919998168899998,15.5250930786,7.1999998092999995,2,-1,10,1,57,552
60,1532113074523,554523, AUTO,0,40.0434592604,-88.2344147,0,-102.34944004260001,419.28952003349997,431.6006365692,-98.29225433,425.3472367211,0.5469277500999999,0.0,-104.4699636585,420.38855390120005,1.4498833412,-47.4567890671,0.0,0.0,1480,1750,40.0472845,-88.23326,0.0,0.0,0.0,0.0,0.0,0.0,0.0,0.0,0.0,0.0,0.0,0.0,0.0,0,-0.040000021499999996,0.5,0.5225564837,0.5712990165,90.0,60.0,60.0,89.0631027222,118.7932434082,119.2388916016,30.919998168899998,15.5250930786,7.1999998092999995,2,-1,10,1,243,561
61,1532113074724,554724, AUTO,0,40.0434592604,-88.2344147,0,-102.34944004260001,419.28952003349997,431.6006365692,-98.29225433,425.3472367211,0.5540091991,0.0,-104.4699636585,420.38855390120005,1.4498833412,-47.4567890671,0.0,0.0,1460,1750,40.0472845,-88.23326,0.0,0.0,0.0,0.0,0.0,0.0,0.0,0.0,0.0,0.0,0.0,0.0,0.0,0,-0.07999998330000001,0.5,0.4925752282,0.6154431105,90.0,60.0,60.0,88.9994430542,120.13014221190001,118.9842300415,30.919998168899998,15.5090532303,16.0,2,-1,10,1,263,569
62,1532113074924,554924, AUTO,0,40.0434592604,-88.2344147,0,-102.34944004260001,419.28952003349997,431.6006365692,-98.29225433,425.3472367211,0.5499626397999999,0.0,-104.4699636585,420.38855390120005,1.4498833412,-47.4567890671,0.0,0.0,1470,1750,40.0472845,-88.23326,0.0,0.0,0.0,0.0,0.0,0.0,0.0,0.0,0.0,0.0,0.0,0.0,0.0,0,-0.0600000024,0.5,0.5394783616,0.5604468584000001,90.0,60.0,60.0,88.8084564209,119.42987060549999,117.9019851685,30.919998168899998,15.5090532303,16.0,2,-1,10,1,24,578
63,1532113075125,555125, AUTO,0,40.0434592604,-88.2344147,0,-102.34944004260001,419.28952003349997,431.6006365692,-98.29225433,425.3472367211,0.5666086674,0.0,-104.4699636585,420.38855390120005,1.4498833412,-47.4567890671,0.0,0.0,1460,1750,40.0472845,-88.23326,0.0,0.0,0.0,0.0,0.0,0.0,0.0,0.0,0.0,0.0,0.0,0.0,0.0,0,-0.07999998330000001,0.5,0.5418695807,0.591347754,90.0,60.0,60.0,89.0631027222,117.3290328979,120.13014221190001,30.919998168899998,15.5090532303,16.0,2,-1,10,1,21,586
64,1532113075326,555326, AUTO,0,40.0434592604,-88.2344147,0,-103.58738569239999,424.1120027857,436.5791307214,-96.6890898149,425.79201642730004,0.5796679854,0.0,-105.7079093083,425.21103665339996,0.0,-51.434150663800004,0.0,0.0,1450,1750,40.0472885,-88.2332788333,0.0,0.0,0.0,0.0,0.0,0.0,0.0,0.0,0.0,0.0,0.0,0.0,0.0,0,-0.1000000238,0.5,0.5131758451,0.6461601257,90.0,60.0,60.0,89.3177566528,119.1115570068,119.2388916016,30.919998168899998,15.5090532303,16.0,2,-1,10,1,29,595
65,1532113075526,555526, AUTO,0,40.0434592604,-88.2344147,0,-103.58738569239999,424.1120027857,436.5791307214,-96.6890898149,425.79201642730004,0.575897336,0.0,-105.7079093083,425.21103665339996,0.0,-51.434150663800004,0.0,0.0,1510,1750,40.0472885,-88.2332788333,0.0,0.0,0.0,0.0,0.0,0.0,0.0,0.0,0.0,0.0,0.0,0.0,0.0,0,0.019999980900000002,0.5,0.5096811056,0.6421135664000001,90.0,60.0,60.0,88.8084564209,118.72959136959999,119.6845169067,30.919998168899998,15.5090532303,16.0,2,-1,10,1,70,603
66,1532113075727,555727, AUTO,0,40.0434592604,-88.2344147,0,-103.58738569239999,424.1120027857,436.5791307214,-96.6890898149,425.79201642730004,0.5627460479999999,0.0,-105.7079093083,425.21103665339996,0.0,-51.434150663800004,0.0,0.0,1480,1750,40.0472885,-88.2332788333,0.0,0.0,0.0,0.0,0.0,0.0,0.0,0.0,0.0,0.0,0.0,0.0,0.0,0,-0.040000021499999996,0.5,0.5407659411,0.5847260952000001,90.0,60.0,60.0,89.0631027222,119.1115570068,118.9205703735,30.919998168899998,15.487283706700001,13.129999160799999,2,-1,10,1,51,612
67,1532113075949,555949, AUTO,0,40.0434592604,-88.2344147,0,-103.58738569239999,424.1120027857,436.5791307214,-96.6890898149,425.79201642730004,0.5723105668999999,0.0,-105.7079093083,425.21103665339996,0.0,-51.434150663800004,0.0,0.0,1490,1750,40.0472885,-88.2332788333,0.0,0.0,0.0,0.0,0.0,0.0,0.0,0.0,0.0,0.0,0.0,0.0,0.0,0,-0.019999980900000002,0.5,0.5552966595000001,0.5893244743,90.0,60.0,60.0,89.25408935549999,118.34761810299999,119.5571899414,30.919998168899998,15.487283706700001,13.129999160799999,2,-1,10,1,69,621
68,1532113076149,556149, AUTO,0,40.0434592604,-88.2344147,0,-103.58738569239999,424.1120027857,436.5791307214,-96.6890898149,425.79201642730004,0.5225564240999999,0.0,-105.7079093083,425.21103665339996,0.0,-51.434150663800004,0.0,0.0,1480,1750,40.0472885,-88.2332788333,0.0,0.0,0.0,0.0,0.0,0.0,0.0,0.0,0.0,0.0,0.0,0.0,0.0,0,-0.040000021499999996,0.5,0.5297299027000001,0.5153830051,90.0,60.0,60.0,89.3814163208,118.411277771,119.4935302734,30.919998168899998,15.487283706700001,13.129999160799999,2,-1,10,1,248,630
69,1532113076350,556350, AUTO,0,40.0434592604,-88.2344147,0,-105.78288549850001,418.2675629721,431.4368703518,-96.1925307425,426.5147834498,0.5640335679,0.0,-107.9034091144,419.3665968398,-0.0,-51.4418082491,0.0,0.0,1490,1750,40.047295,-88.2332846667,0.0,0.0,0.0,0.0,0.0,0.0,0.0,0.0,0.0,0.0,0.0,0.0,0.0,0,-0.019999980900000002,0.5,0.5619183182999999,0.5661488175,90.0,60.0,60.0,89.0631027222,120.00283050540001,118.2839584351,31.995998382600003,15.487283706700001,13.129999160799999,2,-1,10,1,322,638
70,1532113076550,556550, AUTO,0,40.0434592604,-88.2344147,0,-105.78288549850001,418.2675629721,431.4368703518,-96.1925307425,426.5147834498,0.5593432784000001,0.0,-107.9034091144,419.3665968398,-0.0,-51.4418082491,0.0,0.0,1430,1750,40.047295,-88.2332846667,0.0,0.0,0.0,0.0,0.0,0.0,0.0,0.0,0.0,0.0,0.0,0.0,0.0,0,-0.1399999857,0.5,0.5608147383,0.5578718185,90.0,60.0,60.0,88.93578338620001,117.7109985352,120.32112884520001,31.995998382600003,15.479522705099999,9.1200008392,2,-1,10,1,226,646
71,1532113076751,556751, AUTO,0,40.0434592604,-88.2344147,0,-105.78288549850001,418.2675629721,431.4368703518,-96.1925307425,426.5147834498,0.590244174,0.0,-107.9034091144,419.3665968398,-0.0,-51.4418082491,0.0,0.0,1500,1750,40.047295,-88.2332846667,0.0,0.0,0.0,0.0,0.0,0.0,0.0,0.0,0.0,0.0,0.0,0.0,0.0,0,0.0,0.5,0.6033034921,0.5771848559,90.0,60.0,60.0,90.01803588870001,119.4935302734,119.3662033081,31.995998382600003,15.479522705099999,9.1200008392,2,-1,10,1,207,653
72,1532113076952,556952, AUTO,0,40.0434592604,-88.2344147,0,-105.78288549850001,418.2675629721,431.4368703518,-96.1925307425,426.5147834498,0.5977854729,0.0,-107.9034091144,419.3665968398,-0.0,-51.4418082491,0.0,0.0,1540,1750,40.047295,-88.2332846667,0.0,0.0,0.0,0.0,0.0,0.0,0.0,0.0,0.0,0.0,0.0,0.0,0.0,0,0.0800000429,0.5,0.6058785915,0.5896923542,90.0,60.0,60.0,89.5724029541,119.0479049683,119.0479049683,31.995998382600003,15.479522705099999,9.1200008392,2,-1,10,1,181,660
73,1532113077153,557153, AUTO,0,40.0434592604,-88.2344147,0,-105.78288549850001,418.2675629721,431.4368703518,-96.1925307425,426.5147834498,0.6021078825,0.0,-107.9034091144,419.3665968398,-0.0,-51.4418082491,0.0,0.0,1500,1750,40.047295,-88.2332846667,0.0,0.0,0.0,0.0,0.0,0.0,0.0,0.0,0.0,0.0,0.0,0.0,0.0,0,0.0,0.5,0.6021998525,0.6020159125,90.0,60.0,60.0,89.82704925540001,118.72959136959999,119.42987060549999,31.995998382600003,15.479522705099999,9.1200008392,2,-1,10,1,56,668
74,1532113077353,557353, AUTO,0,40.0434592604,-88.2344147,0,-104.7344862989,418.8810047842,431.7761095629,-96.0222819701,426.7557057913,0.6109367609,0.0,-106.8550099148,419.98003865190003,0.0,-51.443493345,0.0,0.0,1580,1750,40.0472971667,-88.2332866667,0.0,0.0,0.0,0.0,0.0,0.0,0.0,0.0,0.0,0.0,0.0,0.0,0.0,0,0.15999996660000002,0.5,0.6176503301,0.6042231917,90.0,60.0,60.0,88.4264831543,119.939163208,117.39268493649999,31.4580001831,15.479522705099999,9.1200008392,2,-1,10,1,102,675
75,1532113077554,557554, AUTO,0,40.0434592604,-88.2344147,0,-104.7344862989,418.8810047842,431.7761095629,-96.0222819701,426.7557057913,0.584082365,0.0,-106.8550099148,419.98003865190003,0.0,-51.443493345,0.0,0.0,1520,1750,40.0472971667,-88.2332866667,0.0,0.0,0.0,0.0,0.0,0.0,0.0,0.0,0.0,0.0,0.0,0.0,0.0,0,0.0399999619,0.5,0.5797599554,0.5884048343,90.0,60.0,60.0,89.25408935549999,118.411277771,119.81184387209998,31.4580001831,15.4719438553,10.0600004196,2,-1,10,1,99,682
76,1532113077755,557755, AUTO,0,40.0434592604,-88.2344147,0,-104.7344862989,418.8810047842,431.7761095629,-96.0222819701,426.7557057913,0.5696435571,0.0,-106.8550099148,419.98003865190003,0.0,-51.443493345,0.0,0.0,1280,1750,40.0472971667,-88.2332866667,0.0,0.0,0.0,0.0,0.0,0.0,0.0,0.0,0.0,0.0,0.0,0.0,0.0,0,-0.43999999759999997,0.5,0.4710549414,0.6682322025,90.0,60.0,60.0,88.93578338620001,120.38480377200001,117.13804626459999,31.4580001831,15.4719438553,10.0600004196,2,-1,10,1,255,689
77,1532113077956,557956, AUTO,0,40.0434592604,-88.2344147,0,-104.7344862989,418.8810047842,431.7761095629,-96.0222819701,426.7557057913,0.5690917969,0.0,-106.8550099148,419.98003865190003,0.0,-51.443493345,0.0,0.0,1570,1750,40.0472971667,-88.2332866667,0.0,0.0,0.0,0.0,0.0,0.0,0.0,0.0,0.0,0.0,0.0,0.0,0.0,0,0.1399999857,0.5,0.465536952,0.6726466417,90.0,60.0,60.0,89.25408935549999,118.34761810299999,119.3025436401,31.4580001831,15.4719438553,10.0600004196,2,-1,10,1,65,697
78,1532113078157,558157, AUTO,0,40.0434592604,-88.2344147,0,-104.7344862989,418.8810047842,431.7761095629,-96.0222819701,426.7557057913,0.5839903951,0.0,-106.8550099148,419.98003865190003,0.0,-51.443493345,0.0,0.0,1540,1750,40.0472971667,-88.2332866667,0.0,0.0,0.0,0.0,0.0,0.0,0.0,0.0,0.0,0.0,0.0,0.0,0.0,0,0.0800000429,0.5,0.6505745053,0.5174062848,90.0,60.0,60.0,91.0366287231,118.6022567749,119.3662033081,31.4580001831,15.4719438553,10.0600004196,2,-1,10,1,29,704
79,1532113078358,558358, AUTO,0,40.0434592604,-88.2344147,0,-103.712322815,419.53533614139997,432.1644874061,-96.10740300799999,427.1634205221,0.5428811311999999,0.0,-105.8328464309,420.63437000910005,-0.0,-51.445166031599996,0.0,0.0,1560,1750,40.0473008333,-88.2332856667,0.0,0.0,0.0,0.0,0.0,0.0,0.0,0.0,0.0,0.0,0.0,0.0,0.0,0,0.1200000048,0.5,0.6020159125,0.48374640939999997,90.0,60.0,60.0,88.74479675290002,119.6845169067,118.15663146969999,30.919998168899998,15.4719438553,10.0600004196,2,-1,10,1,67,712
80,1532113078559,558559, AUTO,0,40.0434592604,-88.2344147,0,-103.712322815,419.53533614139997,432.1644874061,-96.10740300799999,427.1634205221,0.5579637289,0.0,-105.8328464309,420.63437000910005,-0.0,-51.445166031599996,0.0,0.0,1540,1750,40.0473008333,-88.2332856667,0.0,0.0,0.0,0.0,0.0,0.0,0.0,0.0,0.0,0.0,0.0,0.0,0.0,0,0.0800000429,0.5,0.6218808293,0.4940466881,90.0,60.0,60.0,88.681137085,118.72959136959999,119.1115570068,30.919998168899998,15.4682788849,14.6800003052,2,-1,10,1,147,719
81,1532113078760,558760, AUTO,0,40.0434592604,-88.2344147,0,-103.712322815,419.53533614139997,432.1644874061,-96.10740300799999,427.1634205221,0.5596191883,0.0,-105.8328464309,420.63437000910005,-0.0,-51.445166031599996,0.0,0.0,1560,1750,40.0473008333,-88.2332856667,0.0,0.0,0.0,0.0,0.0,0.0,0.0,0.0,0.0,0.0,0.0,0.0,0.0,0,0.1200000048,0.5,0.6345722675,0.48466604950000003,90.0,60.0,60.0,88.4901504517,119.2388916016,118.856918335,30.919998168899998,15.4682788849,14.6800003052,2,-1,10,1,113,726
82,1532113078961,558961, AUTO,0,40.0434592604,-88.2344147,0,-103.712322815,419.53533614139997,432.1644874061,-96.10740300799999,427.1634205221,0.5828868151,0.0,-105.8328464309,420.63437000910005,-0.0,-51.445166031599996,0.0,0.0,1540,1750,40.0473008333,-88.2332856667,0.0,0.0,0.0,0.0,0.0,0.0,0.0,0.0,0.0,0.0,0.0,0.0,0.0,0,0.0800000429,0.5,0.6649214029,0.5008522272,90.0,60.0,60.0,88.1081771851,118.856918335,118.6022567749,30.919998168899998,15.4682788849,14.6800003052,2,-1,10,1,64,733
83,1532113079162,559162, AUTO,0,40.0434592604,-88.2344147,0,-103.712322815,419.53533614139997,432.1644874061,-96.10740300799999,427.1634205221,0.5790241957,0.0,-105.8328464309,420.63437000910005,-0.0,-51.445166031599996,0.0,0.0,1570,1750,40.0473008333,-88.2332856667,0.0,0.0,0.0,0.0,0.0,0.0,0.0,0.0,0.0,0.0,0.0,0.0,0.0,0,0.1399999857,0.5,0.6312614083,0.5267869234,90.0,60.0,60.0,87.9808578491,119.81184387209998,119.62085723879999,30.919998168899998,15.4682788849,14.6800003052,2,-1,10,1,70,740
84,1532113079363,559363, AUTO,0,40.0434592604,-88.2344147,0,-102.68041743,420.2441023046,432.6064882146,-95.9655274935,427.60820022900003,0.5462839603,0.0,-104.8009410459,421.34313617230004,0.0,-51.4468798773,0.0,0.0,1520,1750,40.0473048333,-88.2332873333,0.0,0.0,0.0,0.0,0.0,0.0,0.0,0.0,0.0,0.0,0.0,0.0,0.0,0,0.0399999619,0.5,0.6097412109,0.48282670969999997,90.0,60.0,60.0,89.6997299194,117.2017059326,119.4935302734,30.919998168899998,15.4682788849,14.6800003052,2,-1,10,1,53,748
85,1532113079564,559564, AUTO,0,40.0434592604,-88.2344147,0,-102.68041743,420.2441023046,432.6064882146,-95.9655274935,427.60820022900003,0.5703792571999999,0.0,-104.8009410459,421.34313617230004,0.0,-51.4468798773,0.0,0.0,1570,1750,40.0473048333,-88.2332873333,0.0,0.0,0.0,0.0,0.0,0.0,0.0,0.0,0.0,0.0,0.0,0.0,0.0,0,0.1399999857,0.5,0.6231683493,0.5175902246999999,90.0,60.0,60.0,89.3814163208,118.9205703735,118.2202911377,30.919998168899998,15.4674100876,13.179999351500001,2,-1,10,1,38,755
86,1532113079765,559765, AUTO,0,40.0434592604,-88.2344147,0,-102.68041743,420.2441023046,432.6064882146,-95.9655274935,427.60820022900003,0.5556645989,0.0,-104.8009410459,421.34313617230004,0.0,-51.4468798773,0.0,0.0,1510,1750,40.0473048333,-88.2332873333,0.0,0.0,0.0,0.0,0.0,0.0,0.0,0.0,0.0,0.0,0.0,0.0,0.0,0,0.019999980900000002,0.5,0.6827629805,0.4285661876,90.0,60.0,60.0,90.01803588870001,120.2574768066,118.2202911377,30.919998168899998,15.4674100876,13.179999351500001,2,-1,10,1,34,763
87,1532113079965,559965, AUTO,0,40.0434592604,-88.2344147,0,-102.68041743,420.2441023046,432.6064882146,-95.9655274935,427.60820022900003,0.5579637885000001,0.0,-104.8009410459,421.34313617230004,0.0,-51.4468798773,0.0,0.0,1560,1750,40.0473048333,-88.2332873333,0.0,0.0,0.0,0.0,0.0,0.0,0.0,0.0,0.0,0.0,0.0,0.0,0.0,0,0.1200000048,0.5,0.6680482625999999,0.4478792846,90.0,60.0,60.0,88.4264831543,118.6022567749,118.4749450684,30.919998168899998,15.4674100876,13.179999351500001,2,-1,10,1,55,770
88,1532113080166,560166, AUTO,0,40.0434592604,-88.2344147,0,-102.68041743,420.2441023046,432.6064882146,-95.9655274935,427.60820022900003,0.5415936708,0.0,-104.8009410459,421.34313617230004,0.0,-51.4468798773,0.0,0.0,1530,1750,40.0473048333,-88.2332873333,0.0,0.0,0.0,0.0,0.0,0.0,0.0,0.0,0.0,0.0,0.0,0.0,0.0,0,0.059999942800000004,0.5,0.6071661115,0.47602117060000004,90.0,60.0,60.0,89.25408935549999,118.7932434082,118.856918335,30.919998168899998,15.4674100876,13.179999351500001,2,-1,10,1,118,777
89,1532113080367,560367, AUTO,0,40.0434592604,-88.2344147,0,-101.703647213,420.93726911339996,433.04943873080003,-96.5613945779,427.33021291269995,0.5001164675,0.0,-103.8241708289,422.0363029811,0.0061869548,-51.448513390600006,0.0,0.0,1520,1750,40.047302333299996,-88.2332803333,0.0,0.0,0.0,0.0,0.0,0.0,0.0,0.0,0.0,0.0,0.0,0.0,0.0,0,0.0399999619,0.5,0.5725864768,0.4276465178,90.0,60.0,60.0,88.36282348629999,119.81184387209998,117.58367156979999,30.919998168899998,15.4674100876,13.179999351500001,2,-1,10,1,75,784
90,1532113080567,560567, AUTO,0,40.0434592604,-88.2344147,0,-101.703647213,420.93726911339996,433.04943873080003,-96.5613945779,427.33021291269995,0.5438928604,0.0,-103.8241708289,422.0363029811,0.0061869548,-51.448513390600006,0.0,0.0,1520,1750,40.047302333299996,-88.2332803333,0.0,0.0,0.0,0.0,0.0,0.0,0.0,0.0,0.0,0.0,0.0,0.0,0.0,0,0.0399999619,0.5,0.5499626397999999,0.5378230214,90.0,60.0,60.0,89.44507598879999,118.53860473629999,118.2839584351,30.919998168899998,15.4762554169,21.329999923699997,2,-1,10,1,68,791
91,1532113080768,560768, AUTO,0,40.0434592604,-88.2344147,0,-101.703647213,420.93726911339996,433.04943873080003,-96.5613945779,427.33021291269995,0.5547449589,0.0,-103.8241708289,422.0363029811,0.0061869548,-51.448513390600006,0.0,0.0,1400,1750,40.047302333299996,-88.2332803333,0.0,0.0,0.0,0.0,0.0,0.0,0.0,0.0,0.0,0.0,0.0,0.0,0.0,0,-0.1999999881,0.5,0.4999325871,0.609557271,90.0,60.0,60.0,89.3177566528,117.7109985352,120.38480377200001,30.919998168899998,15.4762554169,21.329999923699997,2,-1,10,1,90,799
92,1532113080969,560969, AUTO,0,40.0434592604,-88.2344147,0,-101.703647213,420.93726911339996,433.04943873080003,-96.5613945779,427.33021291269995,0.5743339062,0.0,-103.8241708289,422.0363029811,0.0061869548,-51.448513390600006,0.0,0.0,1520,1750,40.047302333299996,-88.2332803333,0.0,0.0,0.0,0.0,0.0,0.0,0.0,0.0,0.0,0.0,0.0,0.0,0.0,0,0.0399999619,0.5,0.5150151849,0.6336526275,90.0,60.0,60.0,87.66254425049999,121.7853622437,117.6473312378,30.919998168899998,15.4762554169,21.329999923699997,2,-1,10,1,84,807
93,1532113081170,561170, AUTO,0,40.0434592604,-88.2344147,0,-101.703647213,420.93726911339996,433.04943873080003,-96.5613945779,427.33021291269995,0.5913478136,0.0,-103.8241708289,422.0363029811,0.0061869548,-51.448513390600006,0.0,0.0,1460,1750,40.047302333299996,-88.2332803333,0.0,0.0,0.0,0.0,0.0,0.0,0.0,0.0,0.0,0.0,0.0,0.0,0.0,0,-0.07999998330000001,0.5,0.554377079,0.6283184886,90.0,60.0,60.0,90.6546554565,117.8383178711,119.42987060549999,30.919998168899998,15.4762554169,21.329999923699997,2,-1,10,1,196,814
94,1532113081371,561371, AUTO,0,40.0434592604,-88.2344147,0,-100.6877562967,421.615592158,433.47171974519995,-96.9160802292,426.71864081589996,0.582978785,0.0,-102.8082799126,422.7146260257,0.0813697397,-51.002359772,0.0,0.0,1460,1750,40.0472968333,-88.2332761667,0.0,0.0,0.0,0.0,0.0,0.0,0.0,0.0,0.0,0.0,0.0,0.0,0.0,0,-0.07999998330000001,0.5,0.5378230214,0.6281345487,90.0,60.0,60.0,90.4636688232,117.7109985352,120.4484634399,30.919998168899998,15.4762554169,21.329999923699997,2,-1,10,1,251,822
95,1532113081571,561571, AUTO,0,40.0434592604,-88.2344147,0,-100.6877562967,421.615592158,433.47171974519995,-96.9160802292,426.71864081589996,0.5348800421000001,0.0,-102.8082799126,422.7146260257,0.0813697397,-51.002359772,0.0,0.0,1500,1750,40.0472968333,-88.2332761667,0.0,0.0,0.0,0.0,0.0,0.0,0.0,0.0,0.0,0.0,0.0,0.0,0.0,0,0.0,0.5,0.4782283604,0.5915316939,90.0,60.0,60.0,89.1904296875,120.57579040530001,117.0107192993,30.919998168899998,15.471862793,7.5299997329999995,2,-1,10,1,262,830
96,1532113081772,561772, AUTO,0,40.0434592604,-88.2344147,0,-100.6877562967,421.615592158,433.47171974519995,-96.9160802292,426.71864081589996,0.5402141809000001,0.0,-102.8082799126,422.7146260257,0.0813697397,-51.002359772,0.0,0.0,1480,1750,40.0472968333,-88.2332761667,0.0,0.0,0.0,0.0,0.0,0.0,0.0,0.0,0.0,0.0,0.0,0.0,0.0,0,-0.040000021499999996,0.5,0.5256834029999999,0.5547449589,90.0,60.0,60.0,89.25408935549999,118.6022567749,118.4749450684,30.919998168899998,15.471862793,7.5299997329999995,2,-1,10,1,42,837
97,1532113081973,561973, AUTO,0,40.0434592604,-88.2344147,0,-100.6877562967,421.615592158,433.47171974519995,-96.9160802292,426.71864081589996,0.5533654094,0.0,-102.8082799126,422.7146260257,0.0813697397,-51.002359772,0.0,0.0,1400,1750,40.0472968333,-88.2332761667,0.0,0.0,0.0,0.0,0.0,0.0,0.0,0.0,0.0,0.0,0.0,0.0,0.0,0,-0.1999999881,0.5,0.5363515019,0.5703793168,90.0,60.0,60.0,88.8084564209,119.0479049683,119.1752166748,30.919998168899998,15.471862793,7.5299997329999995,2,-1,10,1,29,845
98,1532113082174,562174, AUTO,0,40.0434592604,-88.2344147,0,-100.6877562967,421.615592158,433.47171974519995,-96.9160802292,426.71864081589996,0.5958541632,0.0,-102.8082799126,422.7146260257,0.0813697397,-51.002359772,0.0,0.0,1520,1750,40.0472968333,-88.2332761667,0.0,0.0,0.0,0.0,0.0,0.0,0.0,0.0,0.0,0.0,0.0,0.0,0.0,0,0.0399999619,0.5,0.5186938643,0.6730145216,90.0,60.0,60.0,89.5724029541,119.1752166748,118.856918335,30.919998168899998,15.471862793,7.5299997329999995,2,-1,10,1,43,853
99,1532113082374,562374, AUTO,0,40.0434592604,-88.2344147,0,-98.8919190853,422.7340614597,434.147093021,-96.66070487559999,427.42287535099996,0.5885888338,0.0,-101.01244270120002,423.8330953274,1.0369096513,-45.6595871605,0.0,0.0,1510,1750,40.0473031667,-88.2332791667,0.0,0.0,0.0,0.0,0.0,0.0,0.0,0.0,0.0,0.0,0.0,0.0,0.0,0,0.019999980900000002,0.5,0.5633898377000001,0.6137877703,90.0,60.0,60.0,88.93578338620001,118.53860473629999,119.3025436401,30.919998168899998,15.471862793,7.5299997329999995,2,-1,10,1,43,861
100,1532113082575,562575, AUTO,0,40.0434592604,-88.2344147,0,-98.8919190853,422.7340614597,434.147093021,-96.66070487559999,427.42287535099996,0.5740579367,0.0,-101.01244270120002,423.8330953274,1.0369096513,-45.6595871605,0.0,0.0,1530,1750,40.0473031667,-88.2332791667,0.0,0.0,0.0,0.0,0.0,0.0,0.0,0.0,0.0,0.0,0.0,0.0,0.0,0,0.059999942800000004,0.5,0.5556645393,0.5924513936,90.0,60.0,60.0,89.3177566528,119.3662033081,118.9842300415,30.919998168899998,15.4676761627,18.4700012207,2,-1,10,1,148,868
101,1532113082775,562775, AUTO,0,40.0434592604,-88.2344147,0,-98.8919190853,422.7340614597,434.147093021,-96.66070487559999,427.42287535099996,0.6050508618,0.0,-101.01244270120002,423.8330953274,1.0369096513,-45.6595871605,0.0,0.0,1520,1750,40.0473031667,-88.2332791667,0.0,0.0,0.0,0.0,0.0,0.0,0.0,0.0,0.0,0.0,0.0,0.0,0.0,0,0.0399999619,0.5,0.6180182099,0.5920835137,90.0,60.0,60.0,89.0631027222,118.0929718018,118.9842300415,30.919998168899998,15.4676761627,18.4700012207,2,-1,10,1,31,876
102,1532113082975,562975, AUTO,0,40.0434592604,-88.2344147,0,-98.8919190853,422.7340614597,434.147093021,-96.66070487559999,427.42287535099996,0.6000846624,0.0,-101.01244270120002,423.8330953274,1.0369096513,-45.6595871605,0.0,0.0,1460,1750,40.0473031667,-88.2332791667,0.0,0.0,0.0,0.0,0.0,0.0,0.0,0.0,0.0,0.0,0.0,0.0,0.0,0,-0.07999998330000001,0.5,0.5953943133,0.6047749519,90.0,60.0,60.0,90.4636688232,119.1115570068,119.2388916016,30.919998168899998,15.4676761627,18.4700012207,2,-1,10,1,56,884
103,1532113083176,563176, AUTO,0,40.0434592604,-88.2344147,0,-98.8919190853,422.7340614597,434.147093021,-96.66070487559999,427.42287535099996,0.6096491814,0.0,-101.01244270120002,423.8330953274,1.0369096513,-45.6595871605,0.0,0.0,1500,1750,40.0473031667,-88.2332791667,0.0,0.0,0.0,0.0,0.0,0.0,0.0,0.0,0.0,0.0,0.0,0.0,0.0,0,0.0,0.5,0.5696435571,0.6496548653,90.0,60.0,60.0,88.6174697876,119.3025436401,118.0293045044,30.919998168899998,15.4676761627,18.4700012207,2,-1,10,1,169,892
104,1532113083376,563376, AUTO,0,40.0434592604,-88.2344147,0,-90.24824302260001,422.85155737559995,432.3750512502,-96.7883947958,426.71864081589996,0.6012802124000001,0.0,-92.3687666385,423.95059124330004,-0.0,-39.0537589429,0.0,0.0,1500,1750,40.0472968333,-88.2332776667,0.0,0.0,0.0,0.0,0.0,0.0,0.0,0.0,0.0,0.0,0.0,0.0,0.0,0,0.0,0.5,0.5827028751,0.6198575497,90.0,60.0,60.0,90.2726821899,119.5571899414,117.4563446045,31.995998382600003,15.4676761627,18.4700012207,2,-1,10,1,65,899
105,1532113083577,563577, AUTO,0,40.0434592604,-88.2344147,0,-90.24824302260001,422.85155737559995,432.3750512502,-96.7883947958,426.71864081589996,0.5358916521,0.0,-92.3687666385,423.95059124330004,-0.0,-39.0537589429,0.0,0.0,1520,1750,40.0472968333,-88.2332776667,0.0,0.0,0.0,0.0,0.0,0.0,0.0,0.0,0.0,0.0,0.0,0.0,0.0,0,0.0399999619,0.5,0.5611826181,0.5106007457,90.0,60.0,60.0,89.6997299194,117.4563446045,120.57579040530001,31.995998382600003,15.4695453644,14.6800003052,2,-1,10,1,33,907
106,1532113083777,563777, AUTO,0,40.0434592604,-88.2344147,0,-90.24824302260001,422.85155737559995,432.3750512502,-96.7883947958,426.71864081589996,0.5546529293,0.0,-92.3687666385,423.95059124330004,-0.0,-39.0537589429,0.0,0.0,1590,1750,40.0472968333,-88.2332776667,0.0,0.0,0.0,0.0,0.0,0.0,0.0,0.0,0.0,0.0,0.0,0.0,0.0,0,0.1799999475,0.5,0.5648612976,0.5444446206,90.0,60.0,60.0,89.5724029541,119.62085723879999,118.53860473629999,31.995998382600003,15.4695453644,14.6800003052,2,-1,10,1,65,914
107,1532113083977,563977, AUTO,0,40.0434592604,-88.2344147,0,-90.24824302260001,422.85155737559995,432.3750512502,-96.7883947958,426.71864081589996,0.5795760154999999,0.0,-92.3687666385,423.95059124330004,-0.0,-39.0537589429,0.0,0.0,1600,1750,40.0472968333,-88.2332776667,0.0,0.0,0.0,0.0,0.0,0.0,0.0,0.0,0.0,0.0,0.0,0.0,0.0,0,0.2000000477,0.5,0.5523537397,0.6067982316,90.0,60.0,60.0,90.145362854,119.42987060549999,119.0479049683,31.995998382600003,15.4695453644,14.6800003052,2,-1,10,1,81,922
108,1532113084178,564178, AUTO,0,40.0434592604,-88.2344147,0,-90.24824302260001,422.85155737559995,432.3750512502,-96.7883947958,426.71864081589996,0.5906120539,0.0,-92.3687666385,423.95059124330004,-0.0,-39.0537589429,0.0,0.0,1570,1750,40.0472968333,-88.2332776667,0.0,0.0,0.0,0.0,0.0,0.0,0.0,0.0,0.0,0.0,0.0,0.0,0.0,0,0.1399999857,0.5,0.6353080273,0.5459160805,90.0,60.0,60.0,89.6997299194,119.3025436401,117.96564483639999,31.995998382600003,15.4695453644,14.6800003052,2,-1,10,1,43,930
109,1532113084378,564378, AUTO,0,40.0434592604,-88.2344147,0,-97.95765978760001,423.5201345744,434.7010553253,-97.0153894593,426.9780956448,0.5556645989,0.0,-100.0781834035,424.6191684421,0.0401363351,-39.0632253642,0.0,0.0,1550,1750,40.0472991667,-88.233275,0.0,0.0,0.0,0.0,0.0,0.0,0.0,0.0,0.0,0.0,0.0,0.0,0.0,0,0.1000000238,0.5,0.5604468584000001,0.5508823395,90.0,60.0,60.0,89.3814163208,120.0664901733,117.58367156979999,31.4580001831,15.4695453644,14.6800003052,2,-1,10,1,52,937
110,1532113084579,564579, AUTO,0,40.0434592604,-88.2344147,0,-97.95765978760001,423.5201345744,434.7010553253,-97.0153894593,426.9780956448,0.5505144596,0.0,-100.0781834035,424.6191684421,0.0401363351,-39.0632253642,0.0,0.0,1500,1750,40.0472991667,-88.233275,0.0,0.0,0.0,0.0,0.0,0.0,0.0,0.0,0.0,0.0,0.0,0.0,0.0,0,0.0,0.5,0.5836225748,0.5174062848,90.0,60.0,60.0,88.4901504517,119.4935302734,117.58367156979999,31.4580001831,15.478512764000001,11.869999885599999,2,-1,10,1,58,945
111,1532113084779,564779, AUTO,0,40.0434592604,-88.2344147,0,-97.95765978760001,423.5201345744,434.7010553253,-97.0153894593,426.9780956448,0.5662407875,0.0,-100.0781834035,424.6191684421,0.0401363351,-39.0632253642,0.0,0.0,1450,1750,40.0472991667,-88.233275,0.0,0.0,0.0,0.0,0.0,0.0,0.0,0.0,0.0,0.0,0.0,0.0,0.0,0,-0.1000000238,0.5,0.5801278353,0.5523537397,90.0,60.0,60.0,91.0366287231,117.6473312378,120.7031021118,31.4580001831,15.478512764000001,11.869999885599999,2,-1,10,1,58,953
112,1532113084979,564979, AUTO,0,40.0434592604,-88.2344147,0,-97.95765978760001,423.5201345744,434.7010553253,-97.0153894593,426.9780956448,0.5699194670000001,0.0,-100.0781834035,424.6191684421,0.0401363351,-39.0632253642,0.0,0.0,1490,1750,40.0472991667,-88.233275,0.0,0.0,0.0,0.0,0.0,0.0,0.0,0.0,0.0,0.0,0.0,0.0,0.0,0,-0.019999980900000002,0.5,0.5893244743,0.5505144596,90.0,60.0,60.0,89.7633895874,118.7932434082,118.6022567749,31.4580001831,15.478512764000001,11.869999885599999,2,-1,10,1,59,960
113,1532113085180,565180, AUTO,0,40.0434592604,-88.2344147,0,-97.95765978760001,423.5201345744,434.7010553253,-97.0153894593,426.9780956448,0.5858297348,0.0,-100.0781834035,424.6191684421,0.0401363351,-39.0632253642,0.0,0.0,1530,1750,40.0472991667,-88.233275,0.0,0.0,0.0,0.0,0.0,0.0,0.0,0.0,0.0,0.0,0.0,0.0,0.0,0,0.059999942800000004,0.5,0.6143394709000001,0.5573199986999999,90.0,60.0,60.0,88.681137085,120.0664901733,118.2202911377,31.4580001831,15.478512764000001,11.869999885599999,2,-1,10,1,64,968
114,1532113085380,565380, AUTO,0,40.0434592604,-88.2344147,0,-96.7921801651,424.1694504438,435.0729235783,-96.84513819629998,427.60820022900003,0.5740579963,0.0,-98.912703781,425.2684843115,0.1190123921,-37.556544619099995,0.0,0.0,1480,1750,40.0473048333,-88.233277,0.0,0.0,0.0,0.0,0.0,0.0,0.0,0.0,0.0,0.0,0.0,0.0,0.0,0,-0.040000021499999996,0.5,0.5941067934,0.5540091991,90.0,60.0,60.0,88.1081771851,116.81973266600001,120.76677703860001,31.4580001831,15.478512764000001,11.869999885599999,2,-1,10,1,55,976
115,1532113085581,565581, AUTO,0,40.0434592604,-88.2344147,0,-96.7921801651,424.1694504438,435.0729235783,-96.84513819629998,427.60820022900003,0.5764491558,0.0,-98.912703781,425.2684843115,0.1190123921,-37.556544619099995,0.0,0.0,1500,1750,40.0473048333,-88.233277,0.0,0.0,0.0,0.0,0.0,0.0,0.0,0.0,0.0,0.0,0.0,0.0,0.0,0,0.0,0.5,0.5650452375,0.5878530741,90.0,60.0,60.0,89.82704925540001,119.6845169067,118.0293045044,31.4580001831,15.4893264771,16.3899993896,2,-1,10,1,39,984
116,1532113085781,565781, AUTO,0,40.0434592604,-88.2344147,0,-96.7921801651,424.1694504438,435.0729235783,-96.84513819629998,427.60820022900003,0.5393863916,0.0,-98.912703781,425.2684843115,0.1190123921,-37.556544619099995,0.0,0.0,1480,1750,40.0473048333,-88.233277,0.0,0.0,0.0,0.0,0.0,0.0,0.0,0.0,0.0,0.0,0.0,0.0,0.0,0,-0.040000021499999996,0.5,0.5304656029,0.54830724,90.0,60.0,60.0,88.6174697876,118.72959136959999,118.7932434082,31.4580001831,15.4893264771,16.3899993896,2,-1,10,1,42,992
117,1532113085982,565982, AUTO,0,40.0434592604,-88.2344147,0,-96.7921801651,424.1694504438,435.0729235783,-96.84513819629998,427.60820022900003,0.5878530741,0.0,-98.912703781,425.2684843115,0.1190123921,-37.556544619099995,0.0,0.0,1490,1750,40.0473048333,-88.233277,0.0,0.0,0.0,0.0,0.0,0.0,0.0,0.0,0.0,0.0,0.0,0.0,0.0,0,-0.019999980900000002,0.5,0.5587914586,0.6169146299,90.0,60.0,60.0,88.6174697876,120.13014221190001,118.34761810299999,31.4580001831,15.4893264771,16.3899993896,2,-1,10,1,33,1000
