,(0)linux time (ms),    (1)uptime  (ms),      (2)drive mode,(3)mpc step counter,(4)mpc origin latitude  (deg),(5)mpc origin longitude  (deg),(6)closest trajectory point index to robot,(7)mpc error x (W;E)  (m),(8)mpc error y (W;E)  (m),(9)abs mpc error (m),(10)input [x] for mhe (m),(11)input [y] for mhe (m),(12)input [speed] for mhe (m/s),(13)input [vyaw] for mhe (rad/s),(14)mhe output x  (m),(15)mhe output y  (m),(16)mhe output speed  (m/s),(17)mhe output yaw  (rad),(18)mpc reference heading (rad),(19)mpc turn rate command (rad/s),(20)turn rate command as PWM,(21)throttle command as PWM,(22)primary gps latitude (deg),(23)primary gps longitude (deg),(24)secondary gps latitude  (deg),(25)secondary gps longitude (deg),(26)accelerometer x (m/s^2),(27)accelerometer y (m/s^2),(28)accelerometer z (m/s^2),(29)gyro yaw rate (rad/s),(30)gyro pitch rate   (rad/s),(31)gyro roll rate (rad/s),      (32)yaw (rad),  (33)pitch   (rad),     (34)roll (rad),(35)sonar1 measurement (m),(36)ultrasonic sensor measurement (m),(37)primary gps time (s),(38)normalized turn rate command,(39)normalized throttle command,(40)speed calculation from encoder left (m/s),(41)speed calculation from encoder right (m/s),(42)front gimbal target angle (degrees from straight down),(43)left gimbal target angle  (degrees from straight down),(44)right gimbal target angle  (degrees from straight down),(45)front gimbal measured angle  (degrees from straight down),(46)left gimbal measured angle    (degrees from straight down),(47)right gimbal measured angle  (degrees from straight down),(48)internal temperature (C),(49)battery voltage (V),(50)primary gps type,(51)secondary gps type,    (52)MPC R value, (53)MPC Q[0] value,Unnamed: 54,weed_num,start
0,1532115431983,132983, AUTO,0,40.0434592604,-88.2344147,0,-105.8725190236,514.3449678654,525.1283045626,-108.05245505799999,515.4336597902,0.0,0.0,-107.9930426395,515.4440017331,0.0335888317,1.1451604319,0.0,0.0,1400,1750,40.0480946667,-88.2331453333,0.0,0.0,0.0,0.0,0.0,0.0,0.0,0.0,0.0,0.0,0.0,0.0,0.0,0,-0.1999999881,0.5,0.0,0.0,90.0,60.0,60.0,89.7633895874,119.3662033081,119.42987060549999,37.3759994507,-1.0,752.0900268555,2,-1,10,1,49,0
1,1532115432184,133184, AUTO,0,40.0434592604,-88.2344147,0,-105.8725190236,514.3449678654,525.1283045626,-108.05245505799999,515.4336597902,0.0,0.0,-107.9930426395,515.4440017331,0.0335888317,1.1451604319,0.0,0.0,1420,1750,40.0480946667,-88.2331453333,0.0,0.0,0.0,0.0,0.0,0.0,0.0,0.0,0.0,0.0,0.0,0.0,0.0,0,-0.16000002619999998,0.5,0.0,0.0,90.0,60.0,60.0,89.7633895874,119.3662033081,119.42987060549999,37.3759994507,-1.0,752.0900268555,2,-1,10,1,49,0
2,1532115432384,133384, AUTO,0,40.0434592604,-88.2344147,0,-105.8725190236,514.3449678654,525.1283045626,-108.05245505799999,515.4336597902,0.0,0.0,-107.9930426395,515.4440017331,0.0335888317,1.1451604319,0.0,0.0,1410,1750,40.0480946667,-88.2331453333,0.0,0.0,0.0,0.0,0.0,0.0,0.0,0.0,0.0,0.0,0.0,0.0,0.0,0,-0.18000000719999998,0.5,0.0,0.0,90.0,60.0,60.0,89.7633895874,119.3662033081,119.42987060549999,37.3759994507,-1.0,752.0900268555,2,-1,10,1,49,0
3,1532115432585,133585, AUTO,0,40.0434592604,-88.2344147,0,-105.8725190236,514.3449678654,525.1283045626,-108.05245505799999,515.4336597902,0.0,0.0,-107.9930426395,515.4440017331,0.0335888317,1.1451604319,0.0,0.0,1420,1750,40.0480946667,-88.2331453333,0.0,0.0,0.0,0.0,0.0,0.0,0.0,0.0,0.0,0.0,0.0,0.0,0.0,0,-0.16000002619999998,0.5,0.0,0.0,90.0,60.0,60.0,89.7633895874,119.3662033081,119.42987060549999,37.3759994507,-1.0,752.0900268555,2,-1,10,1,49,0
4,1532115432785,133785, AUTO,0,40.0434592604,-88.2344147,0,-105.8725190236,514.3449678654,525.1283045626,-108.05245505799999,515.4336597902,0.0,0.0,-107.9930426395,515.4440017331,0.0335888317,1.1451604319,0.0,0.0,1430,1750,40.0480946667,-88.2331453333,0.0,0.0,0.0,0.0,0.0,0.0,0.0,0.0,0.0,0.0,0.0,0.0,0.0,0,-0.1399999857,0.5,0.0,0.0,90.0,60.0,60.0,89.7633895874,119.3662033081,119.42987060549999,37.3759994507,-1.0,752.0900268555,2,-1,10,1,49,0
5,1532115432986,133986, AUTO,0,40.0434592604,-88.2344147,0,-105.88458402120001,514.3697388182,525.1549993528,-108.1233908624,515.4521922775,0.0,0.0,-108.0051076371,515.4687726858999,0.0369440886,1.2158170299,0.0,0.0,1430,1750,40.0480948333,-88.2331445,0.0,0.0,0.0,0.0,0.0,0.0,0.0,0.0,0.0,0.0,0.0,0.0,0.0,0,-0.1399999857,0.5,0.0,0.0,90.0,60.0,60.0,89.7633895874,119.3662033081,119.42987060549999,37.9140014648,-1.0,752.0900268555,2,-1,10,1,82,7
6,1532115433186,134186, AUTO,0,40.0434592604,-88.2344147,0,-105.88458402120001,514.3697388182,525.1549993528,-108.1233908624,515.4521922775,0.0,0.0,-108.0051076371,515.4687726858999,0.0369440886,1.2158170299,0.0,0.0,1410,1750,40.0480948333,-88.2331445,0.0,0.0,0.0,0.0,0.0,0.0,0.0,0.0,0.0,0.0,0.0,0.0,0.0,0,-0.18000000719999998,0.5,0.0,0.0,90.0,60.0,60.0,89.7633895874,119.3662033081,119.42987060549999,37.9140014648,-1.0,752.0900268555,2,-1,10,1,76,17
7,1532115433386,134386, AUTO,0,40.0434592604,-88.2344147,0,-105.88458402120001,514.3697388182,525.1549993528,-108.1233908624,515.4521922775,0.0,0.0,-108.0051076371,515.4687726858999,0.0369440886,1.2158170299,0.0,0.0,1420,1750,40.0480948333,-88.2331445,0.0,0.0,0.0,0.0,0.0,0.0,0.0,0.0,0.0,0.0,0.0,0.0,0.0,0,-0.16000002619999998,0.5,0.0,0.0,90.0,60.0,60.0,89.7633895874,119.3662033081,119.42987060549999,37.9140014648,-1.0,752.0900268555,2,-1,10,1,79,27
8,1532115433587,134587, AUTO,0,40.0434592604,-88.2344147,0,-105.88458402120001,514.3697388182,525.1549993528,-108.1233908624,515.4521922775,0.0,0.0,-108.0051076371,515.4687726858999,0.0369440886,1.2158170299,0.0,0.0,1430,1750,40.0480948333,-88.2331445,0.0,0.0,0.0,0.0,0.0,0.0,0.0,0.0,0.0,0.0,0.0,0.0,0.0,0,-0.1399999857,0.5,0.0,0.0,90.0,60.0,60.0,89.7633895874,119.3662033081,119.42987060549999,37.9140014648,-1.0,752.0900268555,2,-1,10,1,78,37
9,1532115433787,134787, AUTO,0,40.0434592604,-88.2344147,0,-105.88458402120001,514.3697388182,525.1549993528,-108.0950162244,515.4892572537,0.0001,0.0,-108.0051076371,515.4687726858999,0.0369440886,1.2158170299,0.0,0.0,1390,1750,40.0480951667,-88.2331448333,0.0,0.0,0.0,0.0,0.0,0.0,0.0,0.0,0.0,0.0,0.0,0.0,0.0,0,-0.22000002859999998,0.5,0.0,0.0,90.0,60.0,60.0,89.7633895874,119.3662033081,119.42987060549999,37.9140014648,-1.0,752.5100097656,2,-1,10,1,78,47
10,1532115433988,134988, AUTO,0,40.0434592604,-88.2344147,0,-105.8973432067,514.4004254539,525.1876283819,-108.0950162244,515.4892572537,0.0,0.0,-108.0178668226,515.4994593216,0.0462862242,1.294129252,0.0,0.0,1430,1750,40.0480951667,-88.2331448333,0.0,0.0,0.0,0.0,0.0,0.0,0.0,0.0,0.0,0.0,0.0,0.0,0.0,0,-0.1399999857,0.5,0.0,0.0,90.0,60.0,60.0,89.7633895874,119.3662033081,119.42987060549999,37.9140014648,-1.0,752.5100097656,2,-1,10,1,57,57
11,1532115434188,135188, AUTO,0,40.0434592604,-88.2344147,0,-105.8973432067,514.4004254539,525.1876283819,-108.0950162244,515.4892572537,0.0,0.0,-108.0178668226,515.4994593216,0.0462862242,1.294129252,0.0,0.0,1400,1750,40.0480951667,-88.2331448333,0.0,0.0,0.0,0.0,0.0,0.0,0.0,0.0,0.0,0.0,0.0,0.0,0.0,0,-0.1999999881,0.5,0.0,0.0,90.0,60.0,60.0,89.7633895874,119.3662033081,119.42987060549999,37.9140014648,-1.0,752.5100097656,2,-1,10,1,52,66
12,1532115434388,135388, AUTO,0,40.0434592604,-88.2344147,0,-105.8973432067,514.4004254539,525.1876283819,-108.0950162244,515.4892572537,0.0,0.0,-108.0178668226,515.4994593216,0.0462862242,1.294129252,0.0,0.0,1420,1750,40.0480951667,-88.2331448333,0.0,0.0,0.0,0.0,0.0,0.0,0.0,0.0,0.0,0.0,0.0,0.0,0.0,0,-0.16000002619999998,0.5,0.0,0.0,90.0,60.0,60.0,89.7633895874,119.3662033081,119.42987060549999,37.9140014648,-1.0,752.5100097656,2,-1,10,1,90,75
13,1532115434589,135589, AUTO,0,40.0434592604,-88.2344147,0,-105.8973432067,514.4004254539,525.1876283819,-108.0950162244,515.4892572537,0.0,0.0,-108.0178668226,515.4994593216,0.0462862242,1.294129252,0.0,0.0,1410,1750,40.0480951667,-88.2331448333,0.0,0.0,0.0,0.0,0.0,0.0,0.0,0.0,0.0,0.0,0.0,0.0,0.0,0,-0.18000000719999998,0.5,0.0,0.0,90.0,60.0,60.0,89.7633895874,119.3662033081,119.42987060549999,37.9140014648,-1.0,752.5100097656,2,-1,10,1,93,84
14,1532115434789,135789, AUTO,0,40.0434592604,-88.2344147,0,-105.9171683157,514.4334092376,525.223932322,-108.0950159601,515.5263222299,0.0,0.0,-108.0376919316,515.5324431053,0.0506523808,1.3749274194999999,0.0,0.0,1430,1750,40.0480955,-88.2331448333,0.0,0.0,0.0,0.0,0.0,0.0,0.0,0.0,0.0,0.0,0.0,0.0,0.0,0,-0.1399999857,0.5,0.0,0.0,90.0,60.0,60.0,89.7633895874,119.3662033081,119.42987060549999,37.9140014648,-1.0,752.5100097656,2,-1,10,1,75,92
15,1532115434990,135990, AUTO,0,40.0434592604,-88.2344147,0,-105.9171683157,514.4334092376,525.223932322,-108.0950159601,515.5263222299,0.0,0.0,-108.0376919316,515.5324431053,0.0506523808,1.3749274194999999,0.0,0.0,1400,1750,40.0480955,-88.2331448333,0.0,0.0,0.0,0.0,0.0,0.0,0.0,0.0,0.0,0.0,0.0,0.0,0.0,0,-0.1999999881,0.5,0.0,0.0,90.0,60.0,60.0,89.7633895874,119.3662033081,119.42987060549999,37.3759994507,-1.0,752.5100097656,2,-1,10,1,56,101
16,1532115435190,136190, AUTO,0,40.0434592604,-88.2344147,0,-105.9171683157,514.4334092376,525.223932322,-108.0950159601,515.5263222299,0.0,0.0,-108.0376919316,515.5324431053,0.0506523808,1.3749274194999999,0.0,0.0,1410,1750,40.0480955,-88.2331448333,0.0,0.0,0.0,0.0,0.0,0.0,0.0,0.0,0.0,0.0,0.0,0.0,0.0,0,-0.18000000719999998,0.5,0.0,0.0,90.0,60.0,60.0,89.7633895874,119.3662033081,119.42987060549999,37.3759994507,-1.0,752.5100097656,2,-1,10,1,74,109
17,1532115435390,136390, AUTO,0,40.0434592604,-88.2344147,0,-105.9171683157,514.4334092376,525.223932322,-108.0950159601,515.5263222299,0.0,0.0,-108.0376919316,515.5324431053,0.0506523808,1.3749274194999999,0.0,0.0,1410,1750,40.0480955,-88.2331448333,0.0,0.0,0.0,0.0,0.0,0.0,0.0,0.0,0.0,0.0,0.0,0.0,0.0,0,-0.18000000719999998,0.5,0.0,0.0,90.0,60.0,60.0,89.7633895874,119.3662033081,119.42987060549999,37.3759994507,-1.0,752.5100097656,2,-1,10,1,42,118
18,1532115435591,136591, AUTO,0,40.0434592604,-88.2344147,0,-105.9171683157,514.4334092376,525.223932322,-108.0950159601,515.5263222299,0.0,0.0,-108.0376919316,515.5324431053,0.0506523808,1.3749274194999999,0.0,0.0,1410,1750,40.0480955,-88.2331448333,0.0,0.0,0.0,0.0,0.0,0.0,0.0,0.0,0.0,0.0,0.0,0.0,0.0,0,-0.18000000719999998,0.5,0.0,0.0,90.0,60.0,60.0,89.7633895874,119.3662033081,119.42987060549999,37.3759994507,-1.0,752.5100097656,2,-1,10,1,66,126
19,1532115435791,136791, AUTO,0,40.0434592604,-88.2344147,0,-105.93919099799999,514.4560792226,525.2505779515,-108.1233907302,515.4707247663,0.0,0.0,-108.0597146139,515.5551130903,0.059202041,1.4318341919,0.0,0.0,1430,1750,40.048095,-88.2331445,0.0,0.0,0.0,0.0,0.0,0.0,0.0,0.0,0.0,0.0,0.0,0.0,0.0,0,-0.1399999857,0.5,0.0,0.0,90.0,60.0,60.0,89.7633895874,119.3662033081,119.42987060549999,37.3759994507,-1.0,752.5100097656,2,-1,10,1,52,137
20,1532115435992,136992, AUTO,0,40.0434592604,-88.2344147,0,-105.93919099799999,514.4560792226,525.2505779515,-108.1233907302,515.4707247663,0.0,0.0,-108.0597146139,515.5551130903,0.059202041,1.4318341919,0.0,0.0,1420,1750,40.048095,-88.2331445,0.0,0.0,0.0,0.0,0.0,0.0,0.0,0.0,0.0,0.0,0.0,0.0,0.0,0,-0.16000002619999998,0.5,0.0,0.0,90.0,60.0,60.0,89.7633895874,119.3662033081,119.42987060549999,37.3759994507,-1.0,752.5100097656,2,-1,10,1,70,146
21,1532115436192,137192, AUTO,0,40.0434592604,-88.2344147,0,-105.93919099799999,514.4560792226,525.2505779515,-108.1233907302,515.4707247663,0.0,0.0,-108.0597146139,515.5551130903,0.059202041,1.4318341919,0.0,0.0,1420,1750,40.048095,-88.2331445,0.0,0.0,0.0,0.0,0.0,0.0,0.0,0.0,0.0,0.0,0.0,0.0,0.0,0,-0.16000002619999998,0.5,0.0,0.0,90.0,60.0,60.0,89.7633895874,119.3662033081,119.42987060549999,37.3759994507,-1.0,752.5100097656,2,-1,10,1,75,154
22,1532115436392,137392, AUTO,0,40.0434592604,-88.2344147,0,-105.93919099799999,514.4560792226,525.2505779515,-108.1233907302,515.4707247663,0.0,0.0,-108.0597146139,515.5551130903,0.059202041,1.4318341919,0.0,0.0,1410,1750,40.048095,-88.2331445,0.0,0.0,0.0,0.0,0.0,0.0,0.0,0.0,0.0,0.0,0.0,0.0,0.0,0,-0.18000000719999998,0.5,0.0,0.0,90.0,60.0,60.0,89.7633895874,119.3662033081,119.42987060549999,37.3759994507,-1.0,752.5100097656,2,-1,10,1,81,163
23,1532115436593,137593, AUTO,0,40.0434592604,-88.2344147,0,-105.93919099799999,514.4560792226,525.2505779515,-108.1233907302,515.4707247663,0.0,0.0,-108.0597146139,515.5551130903,0.059202041,1.4318341919,0.0,0.0,1410,1750,40.048095,-88.2331445,0.0,0.0,0.0,0.0,0.0,0.0,0.0,0.0,0.0,0.0,0.0,0.0,0.0,0,-0.18000000719999998,0.5,0.0,0.0,90.0,60.0,60.0,89.7633895874,119.3662033081,119.42987060549999,37.3759994507,-1.0,752.5100097656,2,-1,10,1,58,171
24,1532115436793,137793, AUTO,0,40.0434592604,-88.2344147,0,-105.93919099799999,514.4560792226,525.2505779515,-108.1233907302,515.4707247663,0.0,0.0,-108.0597146139,515.5551130903,0.059202041,1.4318341919,0.0,0.0,1410,1750,40.048095,-88.2331445,0.0,0.0,0.0,0.0,0.0,0.0,0.0,0.0,0.0,0.0,0.0,0.0,0.0,0,-0.18000000719999998,0.5,0.0,0.0,90.0,60.0,60.0,89.7633895874,119.3662033081,119.42987060549999,37.3759994507,-1.0,752.5100097656,2,-1,10,1,54,180
25,1532115436993,137993, AUTO,0,40.0434592604,-88.2344147,0,-105.9549808147,514.4721608408,525.2695139065,-108.1233907302,515.4707247663,0.0,0.0,-108.07550443059999,515.5711947085,0.0579608032,1.4836237128,0.0,0.0,1430,1750,40.048095,-88.2331445,0.0,0.0,0.0,0.0,0.0,0.0,0.0,0.0,0.0,0.0,0.0,0.0,0.0,0,-0.1399999857,0.5,0.0,0.0,90.0,60.0,60.0,89.7633895874,119.3662033081,119.42987060549999,37.3759994507,-1.0,752.5100097656,2,-1,10,1,37,189
26,1532115437194,138194, AUTO,0,40.0434592604,-88.2344147,0,-105.9549808147,514.4721608408,525.2695139065,-108.1233907302,515.4707247663,0.0,0.0,-108.07550443059999,515.5711947085,0.0579608032,1.4836237128,0.0,0.0,1410,1750,40.048095,-88.2331445,0.0,0.0,0.0,0.0,0.0,0.0,0.0,0.0,0.0,0.0,0.0,0.0,0.0,0,-0.18000000719999998,0.5,0.0,0.0,90.0,60.0,60.0,89.7633895874,119.3662033081,119.42987060549999,37.3759994507,-1.0,752.5100097656,2,-1,10,1,37,197
27,1532115437395,138395, AUTO,0,40.0434592604,-88.2344147,0,-105.9549808147,514.4721608408,525.2695139065,-108.1233907302,515.4707247663,0.0,0.0,-108.07550443059999,515.5711947085,0.0579608032,1.4836237128,0.0,0.0,1410,1750,40.048095,-88.2331445,0.0,0.0,0.0,0.0,0.0,0.0,0.0,0.0,0.0,0.0,0.0,0.0,0.0,0,-0.18000000719999998,0.5,0.0,0.0,90.0,60.0,60.0,89.7633895874,119.3662033081,119.42987060549999,37.3759994507,-1.0,752.5100097656,2,-1,10,1,39,206
28,1532115437595,138595, AUTO,0,40.0434592604,-88.2344147,0,-105.9549808147,514.4721608408,525.2695139065,-108.1233907302,515.4707247663,0.0,0.0,-108.07550443059999,515.5711947085,0.0579608032,1.4836237128,0.0,0.0,1420,1750,40.048095,-88.2331445,0.0,0.0,0.0,0.0,0.0,0.0,0.0,0.0,0.0,0.0,0.0,0.0,0.0,0,-0.16000002619999998,0.5,0.0,0.0,90.0,60.0,60.0,89.7633895874,119.3662033081,119.42987060549999,37.3759994507,-1.0,752.5100097656,2,-1,10,1,39,215
29,1532115437796,138796, AUTO,0,40.0434592604,-88.2344147,0,-105.9549808147,514.4721608408,525.2695139065,-108.09501688510001,515.3965948147,0.0,0.0,-108.07550443059999,515.5711947085,0.0579608032,1.4836237128,0.0,0.0,1390,1750,40.0480943333,-88.2331448333,0.0,0.0,0.0,0.0,0.0,0.0,0.0,0.0,0.0,0.0,0.0,0.0,0.0,0,-0.22000002859999998,0.5,0.0,0.0,90.0,60.0,60.0,89.7633895874,119.3662033081,119.42987060549999,37.3759994507,-1.0,752.5100097656,2,-1,10,1,63,223
30,1532115437997,138997, AUTO,0,40.0434592604,-88.2344147,0,-105.96446067040002,514.4752946963999,525.2744956479,-108.09501688510001,515.3965948147,0.0,0.0,-108.08498428629999,515.5743285641,0.052251661100000006,1.5146175832,0.0,0.0,1430,1750,40.0480943333,-88.2331448333,0.0,0.0,0.0,0.0,0.0,0.0,0.0,0.0,0.0,0.0,0.0,0.0,0.0,0,-0.1399999857,0.5,0.0,0.0,90.0,60.0,60.0,89.7633895874,119.3662033081,119.42987060549999,37.3759994507,-1.0,752.5100097656,2,-1,10,1,61,232
31,1532115438197,139197, AUTO,0,40.0434592604,-88.2344147,0,-105.96446067040002,514.4752946963999,525.2744956479,-108.09501688510001,515.3965948147,0.0,0.0,-108.08498428629999,515.5743285641,0.052251661100000006,1.5146175832,0.0,0.0,1430,1750,40.0480943333,-88.2331448333,0.0,0.0,0.0,0.0,0.0,0.0,0.0,0.0,0.0,0.0,0.0,0.0,0.0,0,-0.1399999857,0.5,0.0,0.0,90.0,60.0,60.0,89.7633895874,119.3662033081,119.42987060549999,37.3759994507,-1.0,752.5100097656,2,-1,10,1,71,240
32,1532115438398,139398, AUTO,0,40.0434592604,-88.2344147,0,-105.96446067040002,514.4752946963999,525.2744956479,-108.09501688510001,515.3965948147,0.0,0.0,-108.08498428629999,515.5743285641,0.052251661100000006,1.5146175832,0.0,0.0,1420,1750,40.0480943333,-88.2331448333,0.0,0.0,0.0,0.0,0.0,0.0,0.0,0.0,0.0,0.0,0.0,0.0,0.0,0,-0.16000002619999998,0.5,0.0,0.0,90.0,60.0,60.0,89.7633895874,119.3662033081,119.42987060549999,37.3759994507,-1.0,752.5100097656,2,-1,10,1,70,249
33,1532115438599,139599, AUTO,0,40.0434592604,-88.2344147,0,-105.96446067040002,514.4752946963999,525.2744956479,-108.09501688510001,515.3965948147,0.0,0.0,-108.08498428629999,515.5743285641,0.052251661100000006,1.5146175832,0.0,0.0,1400,1750,40.0480943333,-88.2331448333,0.0,0.0,0.0,0.0,0.0,0.0,0.0,0.0,0.0,0.0,0.0,0.0,0.0,0,-0.1999999881,0.5,0.0,0.0,90.0,60.0,60.0,89.7633895874,119.3662033081,119.42987060549999,37.3759994507,-1.0,752.5100097656,2,-1,10,1,61,257
34,1532115438799,139799, AUTO,0,40.0434592604,-88.2344147,0,-105.96446067040002,514.4752946963999,525.2744956479,-108.09501688510001,515.3965948147,0.0,0.0,-108.08498428629999,515.5743285641,0.052251661100000006,1.5146175832,0.0,0.0,1410,1750,40.0480943333,-88.2331448333,0.0,0.0,0.0,0.0,0.0,0.0,0.0,0.0,0.0,0.0,0.0,0.0,0.0,0,-0.18000000719999998,0.5,0.0,0.0,90.0,60.0,60.0,89.7633895874,119.3662033081,119.42987060549999,37.3759994507,-1.0,752.5100097656,2,-1,10,1,54,266
35,1532115439000,140000, AUTO,0,40.0434592604,-88.2344147,0,-105.9706589635,514.4748268353,525.2752878334,-108.10920407200001,515.3965948147,0.0,0.0,-108.09118257940001,515.573860703,0.040356264100000004,1.5386028568999999,0.0,0.0,1430,1750,40.0480943333,-88.2331446667,0.0,0.0,0.0,0.0,0.0,0.0,0.0,0.0,0.0,0.0,0.0,0.0,0.0,0,-0.1399999857,0.5,0.0,0.0,90.0,60.0,60.0,89.7633895874,119.3662033081,119.42987060549999,36.8380012512,-1.0,752.5100097656,2,-1,10,1,59,274
36,1532115439200,140200, AUTO,0,40.0434592604,-88.2344147,0,-105.9706589635,514.4748268353,525.2752878334,-108.10920407200001,515.3965948147,0.0,0.0,-108.09118257940001,515.573860703,0.040356264100000004,1.5386028568999999,0.0,0.0,1430,1750,40.0480943333,-88.2331446667,0.0,0.0,0.0,0.0,0.0,0.0,0.0,0.0,0.0,0.0,0.0,0.0,0.0,0,-0.1399999857,0.5,0.0,0.0,90.0,60.0,60.0,89.7633895874,119.3662033081,119.42987060549999,36.8380012512,-1.0,752.5100097656,2,-1,10,1,6,282
37,1532115439401,140401, AUTO,0,40.0434592604,-88.2344147,0,-105.9706589635,514.4748268353,525.2752878334,-108.10920407200001,515.3965948147,0.0,0.0,-108.09118257940001,515.573860703,0.040356264100000004,1.5386028568999999,0.0,0.0,1420,1750,40.0480943333,-88.2331446667,0.0,0.0,0.0,0.0,0.0,0.0,0.0,0.0,0.0,0.0,0.0,0.0,0.0,0,-0.16000002619999998,0.5,0.0,0.0,90.0,60.0,60.0,89.7633895874,119.3662033081,119.42987060549999,36.8380012512,-1.0,752.5100097656,2,-1,10,1,82,290
38,1532115439601,140601, AUTO,0,40.0434592604,-88.2344147,0,-105.9706589635,514.4748268353,525.2752878334,-108.10920407200001,515.3965948147,0.0,0.0,-108.09118257940001,515.573860703,0.040356264100000004,1.5386028568999999,0.0,0.0,1410,1750,40.0480943333,-88.2331446667,0.0,0.0,0.0,0.0,0.0,0.0,0.0,0.0,0.0,0.0,0.0,0.0,0.0,0,-0.18000000719999998,0.5,0.0,0.0,90.0,60.0,60.0,89.7633895874,119.3662033081,119.42987060549999,36.8380012512,-1.0,752.5100097656,2,-1,10,1,70,297
39,1532115439802,140802, AUTO,0,40.0434592604,-88.2344147,0,-106.0029199664,514.4674867003,525.2746080986,-108.4071352677,515.3595298392,0.0,0.0,-108.1234435823,515.566520568,0.026398656800000003,1.5913520634,0.0,0.0,1420,1750,40.048094,-88.2331411667,0.0,0.0,0.0,0.0,0.0,0.0,0.0,0.0,0.0,0.0,0.0,0.0,0.0,0,-0.16000002619999998,0.5,0.0,0.0,90.0,60.0,60.0,89.7633895874,119.3662033081,119.42987060549999,36.8380012512,-1.0,752.5100097656,2,-1,10,1,42,305
40,1532115440003,141003, AUTO,0,40.0434592604,-88.2344147,0,-106.0029199664,514.4674867003,525.2746080986,-108.4071352677,515.3595298392,0.0,0.0,-108.1234435823,515.566520568,0.026398656800000003,1.5913520634,0.0,0.0,1410,1750,40.048094,-88.2331411667,0.0,0.0,0.0,0.0,0.0,0.0,0.0,0.0,0.0,0.0,0.0,0.0,0.0,0,-0.18000000719999998,0.5,0.0,0.0,90.0,60.0,60.0,89.7633895874,119.3662033081,119.42987060549999,36.8380012512,-1.0,752.5100097656,2,-1,10,1,113,316
41,1532115440203,141203, AUTO,0,40.0434592604,-88.2344147,0,-106.0029199664,514.4674867003,525.2746080986,-108.4071352677,515.3595298392,0.0,0.0,-108.1234435823,515.566520568,0.026398656800000003,1.5913520634,0.0,0.0,1430,1750,40.048094,-88.2331411667,0.0,0.0,0.0,0.0,0.0,0.0,0.0,0.0,0.0,0.0,0.0,0.0,0.0,0,-0.1399999857,0.5,0.0,0.0,90.0,60.0,60.0,89.7633895874,119.3662033081,119.42987060549999,36.8380012512,-1.0,752.5100097656,2,-1,10,1,36,326
42,1532115440404,141404, AUTO,0,40.0434592604,-88.2344147,0,-106.0029199664,514.4674867003,525.2746080986,-108.4071352677,515.3595298392,0.0,0.0,-108.1234435823,515.566520568,0.026398656800000003,1.5913520634,0.0,0.0,1410,1750,40.048094,-88.2331411667,0.0,0.0,0.0,0.0,0.0,0.0,0.0,0.0,0.0,0.0,0.0,0.0,0.0,0,-0.18000000719999998,0.5,0.0,0.0,90.0,60.0,60.0,89.7633895874,119.3662033081,119.42987060549999,36.8380012512,-1.0,752.5100097656,2,-1,10,1,63,336
43,1532115440605,141605, AUTO,0,40.0434592604,-88.2344147,0,-106.0029199664,514.4674867003,525.2746080986,-108.4071352677,515.3595298392,0.0,0.0,-108.1234435823,515.566520568,0.026398656800000003,1.5913520634,0.0,0.0,1440,1750,40.048094,-88.2331411667,0.0,0.0,0.0,0.0,0.0,0.0,0.0,0.0,0.0,0.0,0.0,0.0,0.0,0,-0.1200000048,0.5,0.0,0.0,90.0,60.0,60.0,89.7633895874,119.3662033081,119.42987060549999,36.8380012512,-1.0,752.5100097656,2,-1,10,1,46,343
44,1532115440805,141805, AUTO,0,40.0434592604,-88.2344147,0,-106.0274221655,514.4488157887,525.2612667212001,-108.3503871821,515.2668674002,0.0,0.0,-108.1479457814,515.5478496564,0.0112361735,1.6428723068000002,0.0,0.0,1430,1750,40.0480931667,-88.2331418333,0.0,0.0,0.0,0.0,0.0,0.0,0.0,0.0,0.0,0.0,0.0,0.0,0.0,0,-0.1399999857,0.5,0.0,0.0,90.0,60.0,60.0,89.7633895874,119.3662033081,119.42987060549999,36.8380012512,-1.0,752.5100097656,2,-1,10,1,61,351
45,1532115441006,142006, AUTO,0,40.0434592604,-88.2344147,0,-106.0274221655,514.4488157887,525.2612667212001,-108.3503871821,515.2668674002,0.0,0.0,-108.1479457814,515.5478496564,0.0112361735,1.6428723068000002,0.0,0.0,1430,1750,40.0480931667,-88.2331418333,0.0,0.0,0.0,0.0,0.0,0.0,0.0,0.0,0.0,0.0,0.0,0.0,0.0,0,-0.1399999857,0.5,0.0,0.0,90.0,60.0,60.0,89.7633895874,119.3662033081,119.42987060549999,36.8380012512,-1.0,752.5100097656,2,-1,10,1,32,359
46,1532115441207,142207, AUTO,0,40.0434592604,-88.2344147,0,-106.0274221655,514.4488157887,525.2612667212001,-108.3503871821,515.2668674002,0.0,0.0,-108.1479457814,515.5478496564,0.0112361735,1.6428723068000002,0.0,0.0,1410,1750,40.0480931667,-88.2331418333,0.0,0.0,0.0,0.0,0.0,0.0,0.0,0.0,0.0,0.0,0.0,0.0,0.0,0,-0.18000000719999998,0.5,0.0,0.0,90.0,60.0,60.0,89.7633895874,119.3662033081,119.42987060549999,36.8380012512,-1.0,752.5100097656,2,-1,10,1,51,367
47,1532115441407,142407, AUTO,0,40.0434592604,-88.2344147,0,-106.0274221655,514.4488157887,525.2612667212001,-108.3503871821,515.2668674002,0.0,0.0,-108.1479457814,515.5478496564,0.0112361735,1.6428723068000002,0.0,0.0,1410,1750,40.0480931667,-88.2331418333,0.0,0.0,0.0,0.0,0.0,0.0,0.0,0.0,0.0,0.0,0.0,0.0,0.0,0,-0.18000000719999998,0.5,0.0,0.0,90.0,60.0,60.0,89.7633895874,119.3662033081,119.42987060549999,36.8380012512,-1.0,752.5100097656,2,-1,10,1,37,375
48,1532115441608,142608, AUTO,0,40.0434592604,-88.2344147,0,-106.0274221655,514.4488157887,525.2612667212001,-108.3503871821,515.2668674002,0.0,0.0,-108.1479457814,515.5478496564,0.0112361735,1.6428723068000002,0.0,0.0,1420,1750,40.0480931667,-88.2331418333,0.0,0.0,0.0,0.0,0.0,0.0,0.0,0.0,0.0,0.0,0.0,0.0,0.0,0,-0.16000002619999998,0.5,0.0,0.0,90.0,60.0,60.0,89.7633895874,119.3662033081,119.42987060549999,36.8380012512,-1.0,752.5100097656,2,-1,10,1,81,383
49,1532115441808,142808, RC,0,40.0434592604,-88.2344147,0,-106.0491352476,514.4356162622,525.2527223783001,-108.40713579780001,515.2853998883,0.0,0.0,-108.1696588635,515.5346501299,0.0,1.6742037719,0.0,0.0,1500,1500,40.0480933333,-88.2331411667,0.0,0.0,0.0,0.0,0.0,0.0,0.0,0.0,0.0,0.0,0.0,0.0,0.0,0,0.0,0.0,0.0,0.0,90.0,60.0,60.0,89.7633895874,119.3662033081,119.42987060549999,36.8380012512,-1.0,752.5100097656,2,-1,10,1,67,391
50,1532115442009,143009, RC,0,40.0434592604,-88.2344147,0,-106.0491352476,514.4356162622,525.2527223783001,-108.40713579780001,515.2853998883,0.0,0.0,-108.1696588635,515.5346501299,0.0,1.6742037719,0.0,0.0,1500,1500,40.0480933333,-88.2331411667,0.0,0.0,0.0,0.0,0.0,0.0,0.0,0.0,0.0,0.0,0.0,0.0,0.0,0,0.0,0.0,0.0,0.0,90.0,60.0,60.0,89.7633895874,119.3662033081,119.42987060549999,36.8380012512,-1.0,752.5100097656,2,-1,10,1,89,398
51,1532115442210,143210, RC,0,40.0434592604,-88.2344147,0,-106.0491352476,514.4356162622,525.2527223783001,-108.40713579780001,515.2853998883,0.0,0.0,-108.1696588635,515.5346501299,0.0,1.6742037719,0.0,0.0,1500,1500,40.0480933333,-88.2331411667,0.0,0.0,0.0,0.0,0.0,0.0,0.0,0.0,0.0,0.0,0.0,0.0,0.0,0,0.0,0.0,0.0,0.0,90.0,60.0,60.0,89.7633895874,119.3662033081,119.42987060549999,36.8380012512,-1.0,752.5100097656,2,-1,10,1,62,406
52,1532115442410,143410, RC,0,40.0434592604,-88.2344147,0,-106.0491352476,514.4356162622,525.2527223783001,-108.40713579780001,515.2853998883,0.0,0.0,-108.1696588635,515.5346501299,0.0,1.6742037719,0.0,0.0,1500,1500,40.0480933333,-88.2331411667,0.0,0.0,0.0,0.0,0.0,0.0,0.0,0.0,0.0,0.0,0.0,0.0,0.0,0,0.0,0.0,0.0,0.0,90.0,60.0,60.0,89.7633895874,119.3662033081,119.42987060549999,36.8380012512,-1.0,752.5100097656,2,-1,10,1,43,414
53,1532115442611,143611, RC,0,40.0434592604,-88.2344147,0,-106.0491352476,514.4356162622,525.2527223783001,-108.40713579780001,515.2853998883,0.0,0.0,-108.1696588635,515.5346501299,0.0,1.6742037719,0.0,0.0,1500,1500,40.0480933333,-88.2331411667,0.0,0.0,0.0,0.0,0.0,0.0,0.0,0.0,0.0,0.0,0.0,0.0,0.0,0,0.0,0.0,0.0,0.0,90.0,60.0,60.0,89.7633895874,119.3662033081,119.42987060549999,36.8380012512,-1.0,752.5100097656,2,-1,10,1,54,421
54,1532115442812,143812, RC,0,40.0434592604,-88.2344147,0,-106.06814773079999,514.4367821525,525.2577032224,-108.3929482132,515.3409973512,0.0,0.0,-108.1886713467,515.5358160202,0.0,1.6728592533000002,0.0,0.0,1500,1500,40.0480938333,-88.2331413333,0.0,0.0,0.0,0.0,0.0,0.0,0.0,0.0,0.0,0.0,0.0,0.0,0.0,0,0.0,0.0,0.0,0.0,90.0,60.0,60.0,89.7633895874,119.3662033081,119.42987060549999,36.2999992371,-1.0,752.5100097656,2,-1,10,1,72,430
55,1532115443012,144012, RC,0,40.0434592604,-88.2344147,0,-106.06814773079999,514.4367821525,525.2577032224,-108.3929482132,515.3409973512,0.0,0.0,-108.1886713467,515.5358160202,0.0,1.6728592533000002,0.0,0.0,1500,1500,40.0480938333,-88.2331413333,0.0,0.0,0.0,0.0,0.0,0.0,0.0,0.0,0.0,0.0,0.0,0.0,0.0,0,0.0,0.0,0.0,0.0,90.0,60.0,60.0,89.7633895874,119.3662033081,119.42987060549999,36.2999992371,-1.0,752.5100097656,2,-1,10,1,69,439
56,1532115443213,144213, RC,0,40.0434592604,-88.2344147,0,-106.06814773079999,514.4367821525,525.2577032224,-108.3929482132,515.3409973512,0.0,0.0,-108.1886713467,515.5358160202,0.0,1.6728592533000002,0.0,0.0,1500,1500,40.0480938333,-88.2331413333,0.0,0.0,0.0,0.0,0.0,0.0,0.0,0.0,0.0,0.0,0.0,0.0,0.0,0,0.0,0.0,0.0,0.0,90.0,60.0,60.0,89.7633895874,119.3662033081,119.42987060549999,36.2999992371,-1.0,752.5100097656,2,-1,10,1,12,447
57,1532115443413,144413, RC,0,40.0434592604,-88.2344147,0,-106.06814773079999,514.4367821525,525.2577032224,-108.3929482132,515.3409973512,0.0,0.0,-108.1886713467,515.5358160202,0.0,1.6728592533000002,0.0,0.0,1500,1500,40.0480938333,-88.2331413333,0.0,0.0,0.0,0.0,0.0,0.0,0.0,0.0,0.0,0.0,0.0,0.0,0.0,0,0.0,0.0,0.0,0.0,90.0,60.0,60.0,89.7633895874,119.3662033081,119.42987060549999,36.2999992371,-1.0,752.5100097656,2,-1,10,1,27,459
58,1532115443614,144614, RC,0,40.0434592604,-88.2344147,0,-106.06814773079999,514.4367821525,525.2577032224,-108.3929482132,515.3409973512,0.0,0.0,-108.1886713467,515.5358160202,0.0,1.6728592533000002,0.0,0.0,1500,1500,40.0480938333,-88.2331413333,0.0,0.0,0.0,0.0,0.0,0.0,0.0,0.0,0.0,0.0,0.0,0.0,0.0,0,0.0,0.0,0.0,0.0,90.0,60.0,60.0,89.7633895874,119.3662033081,119.42987060549999,36.2999992371,-1.0,752.5100097656,2,-1,10,1,67,469
59,1532115443815,144815, RC,0,40.0434592604,-88.2344147,0,-106.06648750299999,514.4286644566,525.2494175016001,-108.066643698,515.2298024255,0.0,0.0,-108.18701111889999,515.5276983243,-0.0,1.6745267653,0.0,0.0,1500,1500,40.0480928333,-88.2331451667,0.0,0.0,0.0,0.0,0.0,0.0,0.0,0.0,0.0,0.0,0.0,0.0,0.0,0,0.0,0.0,0.0,0.0,90.0,60.0,60.0,89.7633895874,119.3662033081,119.42987060549999,36.2999992371,-1.0,752.5100097656,2,-1,10,1,97,479
60,1532115444016,145016, RC,0,40.0434592604,-88.2344147,0,-106.06648750299999,514.4286644566,525.2494175016001,-108.066643698,515.2298024255,0.0,0.0,-108.18701111889999,515.5276983243,-0.0,1.6745267653,0.0,0.0,1500,1500,40.0480928333,-88.2331451667,0.0,0.0,0.0,0.0,0.0,0.0,0.0,0.0,0.0,0.0,0.0,0.0,0.0,0,0.0,0.0,0.0,0.0,90.0,60.0,60.0,89.7633895874,119.3662033081,119.42987060549999,36.8380012512,-1.0,752.5100097656,2,-1,10,1,68,489
61,1532115444216,145216, RC,0,40.0434592604,-88.2344147,0,-106.06648750299999,514.4286644566,525.2494175016001,-108.066643698,515.2298024255,0.0,0.0,-108.18701111889999,515.5276983243,-0.0,1.6745267653,0.0,0.0,1500,1500,40.0480928333,-88.2331451667,0.0,0.0,0.0,0.0,0.0,0.0,0.0,0.0,0.0,0.0,0.0,0.0,0.0,0,0.0,0.0,0.0,0.0,90.0,60.0,60.0,89.6997299194,119.3025436401,119.42987060549999,36.8380012512,-1.0,752.5100097656,2,-1,10,1,83,499
62,1532115444417,145417, RC,0,40.0434592604,-88.2344147,0,-106.06648750299999,514.4286644566,525.2494175016001,-108.066643698,515.2298024255,0.0,0.0,-108.18701111889999,515.5276983243,-0.0,1.6745267653,0.0,0.0,1500,1500,40.0480928333,-88.2331451667,0.0,0.0,0.0,0.0,0.0,0.0,0.0,0.0,0.0,0.0,0.0,0.0,0.0,0,0.0,0.0,0.0,0.0,90.0,60.0,60.0,89.1904296875,119.1115570068,119.62085723879999,36.8380012512,-1.0,752.5100097656,2,-1,10,1,61,509
63,1532115444617,145617, RC,0,40.0434592604,-88.2344147,0,-106.06648750299999,514.4286644566,525.2494175016001,-108.066643698,515.2298024255,0.0,0.0,-108.18701111889999,515.5276983243,-0.0,1.6745267653,0.0,0.0,1500,1500,40.0480928333,-88.2331451667,0.0,0.0,0.0,0.0,0.0,0.0,0.0,0.0,0.0,0.0,0.0,0.0,0.0,0,0.0,0.0,0.0,0.0,90.0,60.0,60.0,89.6997299194,119.0479049683,119.62085723879999,36.8380012512,-1.0,752.5100097656,2,-1,10,1,60,519
64,1532115444818,145818, RC,0,40.0434592604,-88.2344147,0,-106.0798248326,514.4124456783001,525.2362263832,-108.33620105450001,515.1186074976999,0.0,0.0,-108.20034844850001,515.511479546,-0.0,1.6744559763,0.0,0.0,1500,1500,40.0480918333,-88.233142,0.0,0.0,0.0,0.0,0.0,0.0,0.0,0.0,0.0,0.0,0.0,0.0,0.0,0,0.0,0.0,0.0,0.0,90.0,60.0,60.0,90.145362854,119.1115570068,119.62085723879999,36.8380012512,-1.0,752.5100097656,2,-1,10,1,93,529
65,1532115445019,146019, RC,0,40.0434592604,-88.2344147,0,-106.0798248326,514.4124456783001,525.2362263832,-108.33620105450001,515.1186074976999,0.0,0.0,-108.20034844850001,515.511479546,-0.0,1.6744559763,0.0,0.0,1500,1500,40.0480918333,-88.233142,0.0,0.0,0.0,0.0,0.0,0.0,0.0,0.0,0.0,0.0,0.0,0.0,0.0,0,0.0,0.0,0.0,0.0,90.0,60.0,60.0,90.0816955566,119.1115570068,119.62085723879999,36.2999992371,-1.0,752.5100097656,2,-1,10,1,50,539
66,1532115445219,146219, RC,0,40.0434592604,-88.2344147,0,-106.0798248326,514.4124456783001,525.2362263832,-108.33620105450001,515.1186074976999,0.0,0.0,-108.20034844850001,515.511479546,-0.0,1.6744559763,0.0,0.0,1500,1500,40.0480918333,-88.233142,0.0,0.0,0.0,0.0,0.0,0.0,0.0,0.0,0.0,0.0,0.0,0.0,0.0,0,0.0,0.0,0.0,0.0,90.0,60.0,60.0,89.9543762207,119.1115570068,119.62085723879999,36.2999992371,-1.0,752.5100097656,2,-1,10,1,87,549
67,1532115445420,146420, RC,0,40.0434592604,-88.2344147,0,-106.0798248326,514.4124456783001,525.2362263832,-108.33620105450001,515.1186074976999,0.0,0.0,-108.20034844850001,515.511479546,-0.0,1.6744559763,0.0,0.0,1500,1500,40.0480918333,-88.233142,0.0,0.0,0.0,0.0,0.0,0.0,0.0,0.0,0.0,0.0,0.0,0.0,0.0,0,0.0,0.0,0.0,0.0,90.0,60.0,60.0,89.9543762207,119.3025436401,119.62085723879999,36.2999992371,-1.0,752.5100097656,2,-1,10,1,66,559
68,1532115445621,146621, RC,0,40.0434592604,-88.2344147,0,-106.0798248326,514.4124456783001,525.2362263832,-108.33620105450001,515.1186074976999,0.0,0.0,-108.20034844850001,515.511479546,-0.0,1.6744559763,0.0,0.0,1500,1500,40.0480918333,-88.233142,0.0,0.0,0.0,0.0,0.0,0.0,0.0,0.0,0.0,0.0,0.0,0.0,0.0,0,0.0,0.0,0.0,0.0,90.0,60.0,60.0,89.9543762207,119.42987060549999,119.62085723879999,36.2999992371,-1.0,752.5100097656,2,-1,10,1,57,569
69,1532115445824,146824, RC,0,40.0434592604,-88.2344147,0,-106.0798248326,514.4124456783001,525.2362263832,-108.1375796366,515.2298024255,0.0,0.0,-108.20034844850001,515.511479546,-0.0,1.6744559763,0.0,0.0,1500,1500,40.0480928333,-88.2331443333,0.0,0.0,0.0,0.0,0.0,0.0,0.0,0.0,0.0,0.0,0.0,0.0,0.0,0,0.0,0.0,0.0,0.0,90.0,60.0,60.0,89.9543762207,119.42987060549999,119.62085723879999,36.2999992371,-1.0,752.5100097656,2,-1,10,1,54,576
