,(0)linux time (ms),    (1)uptime  (ms),      (2)drive mode,(3)mpc step counter,(4)mpc origin latitude  (deg),(5)mpc origin longitude  (deg),(6)closest trajectory point index to robot,(7)mpc error x (W;E)  (m),(8)mpc error y (W;E)  (m),(9)abs mpc error (m),(10)input [x] for mhe (m),(11)input [y] for mhe (m),(12)input [speed] for mhe (m/s),(13)input [vyaw] for mhe (rad/s),(14)mhe output x  (m),(15)mhe output y  (m),(16)mhe output speed  (m/s),(17)mhe output yaw  (rad),(18)mpc reference heading (rad),(19)mpc turn rate command (rad/s),(20)turn rate command as PWM,(21)throttle command as PWM,(22)primary gps latitude (deg),(23)primary gps longitude (deg),(24)secondary gps latitude  (deg),(25)secondary gps longitude (deg),(26)accelerometer x (m/s^2),(27)accelerometer y (m/s^2),(28)accelerometer z (m/s^2),(29)gyro yaw rate (rad/s),(30)gyro pitch rate   (rad/s),(31)gyro roll rate (rad/s),      (32)yaw (rad),  (33)pitch   (rad),     (34)roll (rad),(35)sonar1 measurement (m),(36)ultrasonic sensor measurement (m),(37)primary gps time (s),(38)normalized turn rate command,(39)normalized throttle command,(40)speed calculation from encoder left (m/s),(41)speed calculation from encoder right (m/s),(42)front gimbal target angle (degrees from straight down),(43)left gimbal target angle  (degrees from straight down),(44)right gimbal target angle  (degrees from straight down),(45)front gimbal measured angle  (degrees from straight down),(46)left gimbal measured angle    (degrees from straight down),(47)right gimbal measured angle  (degrees from straight down),(48)internal temperature (C),(49)battery voltage (V),(50)primary gps type,(51)secondary gps type,    (52)MPC R value, (53)MPC Q[0] value,Unnamed: 54,weed_num,start
0,1532114378483,524483, AUTO,0,40.0434592604,-88.2344147,0,-107.8220898355,433.7243724818,446.92553556629997,-111.4721667269,433.89071358449996,0.2217324227,0.0,-109.94261345139999,434.8234063495,1.2716746215999999,-21.6068595403,0.0,0.0,1540,1750,40.047361333299996,-88.2331051667,0.0,0.0,0.0,0.0,0.0,0.0,0.0,0.0,0.0,0.0,0.0,0.0,0.0,0,0.0800000429,0.5,0.1760248244,0.267440021,90.0,60.0,60.0,89.7633895874,130.4433898926,119.2388916016,38.450996398899996,15.6771821976,73.1999969482,2,-1,10,1,119,16
1,1532114378684,524684, AUTO,0,40.0434592604,-88.2344147,0,-107.8220898355,433.7243724818,446.92553556629997,-111.4721667269,433.89071358449996,0.1543206275,0.0,-109.94261345139999,434.8234063495,1.2716746215999999,-21.6068595403,0.0,0.0,1540,1750,40.047361333299996,-88.2331051667,0.0,0.0,0.0,0.0,0.0,0.0,0.0,0.0,0.0,0.0,0.0,0.0,0.0,0,0.0800000429,0.5,0.0651126355,0.2435286045,90.0,60.0,60.0,89.6997299194,130.12507629389998,119.1115570068,38.450996398899996,15.685667038,73.90999603270001,2,-1,10,1,107,26
2,1532114378884,524884, AUTO,0,40.0434592604,-88.2344147,0,-108.25743620520001,433.7016307353,447.0086990162,-111.7133519807,433.6497912437,0.1262706816,0.0,-110.3779598211,434.80066460300003,1.35444224,-21.7052554077,0.0,0.0,1540,1750,40.0473591667,-88.2331023333,0.0,0.0,0.0,0.0,0.0,0.0,0.0,0.0,0.0,0.0,0.0,0.0,0.0,0,0.0800000429,0.5,0.030900910499999996,0.2216404527,90.0,60.0,60.0,89.6997299194,130.1887512207,118.9205703735,38.450996398899996,15.685667038,73.90999603270001,2,-1,10,1,118,37
3,1532114379085,525085, AUTO,0,40.0434592604,-88.2344147,0,-108.25743620520001,433.7016307353,447.0086990162,-111.7133519807,433.6497912437,0.130593136,0.0,-110.3779598211,434.80066460300003,1.35444224,-21.7052554077,0.0,0.0,1540,1750,40.0473591667,-88.2331023333,0.0,0.0,0.0,0.0,0.0,0.0,0.0,0.0,0.0,0.0,0.0,0.0,0.0,0,0.0800000429,0.5,0.0369707309,0.22421553730000002,90.0,60.0,60.0,89.9543762207,131.2073364258,119.1752166748,38.450996398899996,15.685667038,73.90999603270001,2,-1,10,1,108,47
4,1532114379285,525285, AUTO,0,40.0434592604,-88.2344147,0,-108.25743620520001,433.7016307353,447.0086990162,-111.7133519807,433.6497912437,0.1348236203,0.0,-110.3779598211,434.80066460300003,1.35444224,-21.7052554077,0.0,0.0,1540,1750,40.0473591667,-88.2331023333,0.0,0.0,0.0,0.0,0.0,0.0,0.0,0.0,0.0,0.0,0.0,0.0,0.0,0,0.0800000429,0.5,0.0481907055,0.2214565277,90.0,60.0,60.0,89.9543762207,113.5729675293,119.3662033081,38.450996398899996,15.685667038,73.90999603270001,2,-1,10,1,107,56
5,1532114379486,525486, AUTO,0,40.0434592604,-88.2344147,0,-108.25743620520001,433.7016307353,447.0086990162,-111.7133519807,433.6497912437,0.1490784883,0.0,-110.3779598211,434.80066460300003,1.35444224,-21.7052554077,0.0,0.0,1540,1750,40.0473591667,-88.2331023333,0.0,0.0,0.0,0.0,0.0,0.0,0.0,0.0,0.0,0.0,0.0,0.0,0.0,0,0.0800000429,0.5,0.0995082855,0.1986487061,90.0,60.0,60.0,88.9994430542,117.96564483639999,118.72959136959999,38.450996398899996,15.685667038,73.90999603270001,2,-1,10,1,200,67
6,1532114379686,525686, AUTO,0,40.0434592604,-88.2344147,0,-108.25743620520001,433.7016307353,447.0086990162,-111.7133519807,433.6497912437,0.22633078690000002,0.0,-110.3779598211,434.80066460300003,1.35444224,-21.7052554077,0.0,0.0,1350,1750,40.0473591667,-88.2331023333,0.0,0.0,0.0,0.0,0.0,0.0,0.0,0.0,0.0,0.0,0.0,0.0,0.0,0,-0.30000001190000003,0.5,0.1802553087,0.2724062502,90.0,60.0,60.0,90.9729614258,117.5200195312,120.76677703860001,38.450996398899996,15.6855115891,76.0,2,-1,10,1,258,77
7,1532114379887,525887, AUTO,0,40.0434592604,-88.2344147,0,-108.5332222761,433.1135609358,446.50511419699995,-111.8977892818,433.2606090003,0.2634854317,0.0,-110.653745892,434.2125948035,1.4197155097,-21.4229369873,0.0,0.0,1460,1750,40.0473556667,-88.2331001667,0.0,0.0,0.0,0.0,0.0,0.0,0.0,0.0,0.0,0.0,0.0,0.0,0.0,0,-0.07999998330000001,0.5,0.1603904366,0.3665804267,90.0,60.0,60.0,90.9729614258,119.3025436401,119.2388916016,38.450996398899996,15.6855115891,76.0,2,-1,10,1,255,86
8,1532114380087,526087, AUTO,0,40.0434592604,-88.2344147,0,-108.5332222761,433.1135609358,446.50511419699995,-111.8977892818,433.2606090003,0.22633078690000002,0.0,-110.653745892,434.2125948035,1.4197155097,-21.4229369873,0.0,0.0,1730,1750,40.0473556667,-88.2331001667,0.0,0.0,0.0,0.0,0.0,0.0,0.0,0.0,0.0,0.0,0.0,0.0,0.0,0,0.4600000381,0.5,0.1342718154,0.3183897436,90.0,60.0,60.0,89.44507598879999,121.0214157104,117.2017059326,38.450996398899996,15.6855115891,76.0,2,-1,10,1,288,95
9,1532114380287,526287, AUTO,0,40.0434592604,-88.2344147,0,-108.5332222761,433.1135609358,446.50511419699995,-111.8977892818,433.2606090003,0.2273424268,0.0,-110.653745892,434.2125948035,1.4197155097,-21.4229369873,0.0,0.0,1540,1750,40.0473556667,-88.2331001667,0.0,0.0,0.0,0.0,0.0,0.0,0.0,0.0,0.0,0.0,0.0,0.0,0.0,0,0.0800000429,0.5,0.1412613094,0.3134235442,90.0,60.0,60.0,88.8721160889,120.76677703860001,117.77465820309999,38.450996398899996,15.6855115891,76.0,2,-1,10,1,269,104
10,1532114380488,526488, AUTO,0,40.0434592604,-88.2344147,0,-108.5332222761,433.1135609358,446.50511419699995,-111.8977892818,433.2606090003,0.2776483595,0.0,-110.653745892,434.2125948035,1.4197155097,-21.4229369873,0.0,0.0,1530,1750,40.0473556667,-88.2331001667,0.0,0.0,0.0,0.0,0.0,0.0,0.0,0.0,0.0,0.0,0.0,0.0,0.0,0,0.059999942800000004,0.5,0.1631494462,0.3921472728,90.0,60.0,60.0,89.1904296875,119.81184387209998,119.2388916016,38.450996398899996,15.6969022751,56.309997558599996,2,-1,10,1,243,113
11,1532114380688,526688, AUTO,0,40.0434592604,-88.2344147,0,-108.5332222761,433.1135609358,446.50511419699995,-111.8977892818,433.2606090003,0.3142512441,0.0,-110.653745892,434.2125948035,1.4197155097,-21.4229369873,0.0,0.0,1540,1750,40.0473556667,-88.2331001667,0.0,0.0,0.0,0.0,0.0,0.0,0.0,0.0,0.0,0.0,0.0,0.0,0.0,0,0.0800000429,0.5,0.2054542601,0.4230481982,90.0,60.0,60.0,89.25408935549999,119.3025436401,117.4563446045,38.450996398899996,15.6969022751,56.309997558599996,2,-1,10,1,200,122
12,1532114380888,526888, AUTO,0,40.0434592604,-88.2344147,0,-108.94104704360001,433.04574432690004,446.5386527621,-111.7984836252,432.55637446519995,0.3464396596,0.0,-111.0615706595,434.1447781946,1.4822195913,-21.522243277199998,0.0,0.0,1570,1750,40.0473493333,-88.2331013333,0.0,0.0,0.0,0.0,0.0,0.0,0.0,0.0,0.0,0.0,0.0,0.0,0.0,0,0.1399999857,0.5,0.2278942168,0.4649851322,90.0,60.0,60.0,88.8084564209,119.939163208,118.7932434082,38.450996398899996,15.6969022751,56.309997558599996,2,-1,10,1,267,131
13,1532114381089,527089, AUTO,0,40.0434592604,-88.2344147,0,-108.94104704360001,433.04574432690004,446.5386527621,-111.7984836252,432.55637446519995,0.3134235144,0.0,-111.0615706595,434.1447781946,1.4822195913,-21.522243277199998,0.0,0.0,1640,1750,40.0473493333,-88.2331013333,0.0,0.0,0.0,0.0,0.0,0.0,0.0,0.0,0.0,0.0,0.0,0.0,0.0,0,0.2799999714,0.5,0.21998505289999998,0.4068619907,90.0,60.0,60.0,91.0366287231,120.2574768066,118.0293045044,38.450996398899996,15.6969022751,56.309997558599996,2,-1,10,1,284,140
14,1532114381289,527289, AUTO,0,40.0434592604,-88.2344147,0,-108.94104704360001,433.04574432690004,446.5386527621,-111.7984836252,432.55637446519995,0.31186008449999997,0.0,-111.0615706595,434.1447781946,1.4822195913,-21.522243277199998,0.0,0.0,1640,1750,40.0473493333,-88.2331013333,0.0,0.0,0.0,0.0,0.0,0.0,0.0,0.0,0.0,0.0,0.0,0.0,0.0,0,0.2799999714,0.5,0.1964415014,0.42727866770000006,90.0,60.0,60.0,88.36282348629999,119.81184387209998,119.62085723879999,38.450996398899996,15.6969022751,56.309997558599996,2,-1,10,1,292,149
15,1532114381489,527489, AUTO,0,40.0434592604,-88.2344147,0,-108.94104704360001,433.04574432690004,446.5386527621,-111.7984836252,432.55637446519995,0.2876727581,0.0,-111.0615706595,434.1447781946,1.4822195913,-21.522243277199998,0.0,0.0,1580,1750,40.0473493333,-88.2331013333,0.0,0.0,0.0,0.0,0.0,0.0,0.0,0.0,0.0,0.0,0.0,0.0,0.0,0,0.15999996660000002,0.5,0.2301014215,0.3452440798,90.0,60.0,60.0,89.6997299194,120.13014221190001,118.7932434082,38.450996398899996,15.6969022751,56.309997558599996,2,-1,10,1,88,158
16,1532114381690,527690, AUTO,0,40.0434592604,-88.2344147,0,-108.94104704360001,433.04574432690004,446.5386527621,-111.7984836252,432.55637446519995,0.281786859,0.0,-111.0615706595,434.1447781946,1.4822195913,-21.522243277199998,0.0,0.0,1650,1750,40.0473493333,-88.2331013333,0.0,0.0,0.0,0.0,0.0,0.0,0.0,0.0,0.0,0.0,0.0,0.0,0.0,0,0.2999999523,0.5,0.24297679960000002,0.3205969334,90.0,60.0,60.0,90.5273361206,119.1115570068,119.7481765747,38.450996398899996,15.7027645111,36.9000015259,2,-1,10,1,70,167
17,1532114381890,527890, AUTO,0,40.0434592604,-88.2344147,0,-109.1595102772,432.3556635643,445.9228840283,-112.635535964,432.05599729470003,0.3304374218,0.0,-111.2800338931,433.454697432,1.5567743472,-21.2553163858,0.0,0.0,1410,1750,40.0473448333,-88.2330915,0.0,0.0,0.0,0.0,0.0,0.0,0.0,0.0,0.0,0.0,0.0,0.0,0.0,0,-0.18000000719999998,0.5,0.1701389402,0.4907358885,90.0,60.0,60.0,89.25408935549999,118.856918335,119.3025436401,38.450996398899996,15.7027645111,36.9000015259,2,-1,10,1,67,176
18,1532114382091,528091, AUTO,0,40.0434592604,-88.2344147,0,-109.1595102772,432.3556635643,445.9228840283,-112.635535964,432.05599729470003,0.2883165479,0.0,-111.2800338931,433.454697432,1.5567743472,-21.2553163858,0.0,0.0,1550,1750,40.0473448333,-88.2330915,0.0,0.0,0.0,0.0,0.0,0.0,0.0,0.0,0.0,0.0,0.0,0.0,0.0,0,0.1000000238,0.5,0.1554242224,0.4212088585,90.0,60.0,60.0,90.40000915530001,119.2388916016,119.3025436401,38.450996398899996,15.7027645111,36.9000015259,2,-1,10,1,79,186
19,1532114382291,528291, AUTO,0,40.0434592604,-88.2344147,0,-109.1595102772,432.3556635643,445.9228840283,-112.635535964,432.05599729470003,0.3263908625,0.0,-111.2800338931,433.454697432,1.5567743472,-21.2553163858,0.0,0.0,1540,1750,40.0473448333,-88.2330915,0.0,0.0,0.0,0.0,0.0,0.0,0.0,0.0,0.0,0.0,0.0,0.0,0.0,0,0.0800000429,0.5,0.2074775398,0.44530418520000004,90.0,60.0,60.0,89.3814163208,119.3025436401,119.3025436401,38.450996398899996,15.7027645111,36.9000015259,2,-1,10,1,253,195
20,1532114382491,528491, AUTO,0,40.0434592604,-88.2344147,0,-109.1595102772,432.3556635643,445.9228840283,-112.635535964,432.05599729470003,0.3399100304,0.0,-111.2800338931,433.454697432,1.5567743472,-21.2553163858,0.0,0.0,1560,1750,40.0473448333,-88.2330915,0.0,0.0,0.0,0.0,0.0,0.0,0.0,0.0,0.0,0.0,0.0,0.0,0.0,0,0.1200000048,0.5,0.21317949890000001,0.46664053200000005,90.0,60.0,60.0,89.25408935549999,119.42987060549999,119.2388916016,38.450996398899996,15.6655902863,55.3700027466,2,-1,10,1,248,204
21,1532114382692,528692, AUTO,0,40.0434592604,-88.2344147,0,-109.1595102772,432.3556635643,445.9228840283,-112.635535964,432.05599729470003,0.3609704375,0.0,-111.2800338931,433.454697432,1.5567743472,-21.2553163858,0.0,0.0,1540,1750,40.0473448333,-88.2330915,0.0,0.0,0.0,0.0,0.0,0.0,0.0,0.0,0.0,0.0,0.0,0.0,0.0,0,0.0800000429,0.5,0.22016897800000002,0.5017719268999999,90.0,60.0,60.0,89.8907089233,118.856918335,119.939163208,38.450996398899996,15.6655902863,55.3700027466,2,-1,10,1,175,216
22,1532114382892,528892, AUTO,0,40.0434592604,-88.2344147,0,-109.92255903540001,432.2552649346,446.0129852915,-113.9833345193,430.9440480281,0.35683196780000004,0.0,-112.0430826513,433.35429880230004,1.6938883062999999,-21.4856941729,0.0,0.0,1490,1750,40.0473348333,-88.2330756667,0.0,0.0,0.0,0.0,0.0,0.0,0.0,0.0,0.0,0.0,0.0,0.0,0.0,0,-0.019999980900000002,0.5,0.240033865,0.47363004090000005,90.0,60.0,60.0,89.6997299194,120.57579040530001,118.4749450684,38.9899978638,15.6655902863,55.3700027466,2,-1,10,1,59,226
23,1532114383093,529093, AUTO,0,40.0434592604,-88.2344147,0,-109.92255903540001,432.2552649346,446.0129852915,-113.9833345193,430.9440480281,0.3933428228,0.0,-112.0430826513,433.35429880230004,1.6938883062999999,-21.4856941729,0.0,0.0,1550,1750,40.0473348333,-88.2330756667,0.0,0.0,0.0,0.0,0.0,0.0,0.0,0.0,0.0,0.0,0.0,0.0,0.0,0,0.1000000238,0.5,0.2907996178,0.4958860278,90.0,60.0,60.0,89.8907089233,118.9205703735,119.87550354,38.9899978638,15.6655902863,55.3700027466,2,-1,10,1,65,236
24,1532114383293,529293, AUTO,0,40.0434592604,-88.2344147,0,-109.92255903540001,432.2552649346,446.0129852915,-113.9833345193,430.9440480281,0.3923312128,0.0,-112.0430826513,433.35429880230004,1.6938883062999999,-21.4856941729,0.0,0.0,1520,1750,40.0473348333,-88.2330756667,0.0,0.0,0.0,0.0,0.0,0.0,0.0,0.0,0.0,0.0,0.0,0.0,0.0,0,0.0399999619,0.5,0.3025714159,0.4820910096,90.0,60.0,60.0,89.6997299194,119.81184387209998,119.3025436401,38.9899978638,15.6655902863,55.3700027466,2,-1,10,1,146,246
25,1532114383493,529493, AUTO,0,40.0434592604,-88.2344147,0,-109.92255903540001,432.2552649346,446.0129852915,-113.9833345193,430.9440480281,0.3553604782,0.0,-112.0430826513,433.35429880230004,1.6938883062999999,-21.4856941729,0.0,0.0,1530,1750,40.0473348333,-88.2330756667,0.0,0.0,0.0,0.0,0.0,0.0,0.0,0.0,0.0,0.0,0.0,0.0,0.0,0,0.059999942800000004,0.5,0.2578754425,0.45284551380000004,90.0,60.0,60.0,89.9543762207,118.6022567749,119.3025436401,38.9899978638,15.6305875778,42.7299995422,2,-1,10,1,90,255
26,1532114383694,529694, AUTO,0,40.0434592604,-88.2344147,0,-109.92255903540001,432.2552649346,446.0129852915,-113.9833345193,430.9440480281,0.350210309,0.0,-112.0430826513,433.35429880230004,1.6938883062999999,-21.4856941729,0.0,0.0,1550,1750,40.0473348333,-88.2330756667,0.0,0.0,0.0,0.0,0.0,0.0,0.0,0.0,0.0,0.0,0.0,0.0,0.0,0,0.1000000238,0.5,0.2413213849,0.459099263,90.0,60.0,60.0,90.0816955566,118.856918335,119.42987060549999,38.9899978638,15.6305875778,42.7299995422,2,-1,10,1,92,264
27,1532114383895,529895, AUTO,0,40.0434592604,-88.2344147,0,-109.97183843549999,431.12123929629996,444.9262053658,-113.81309205379999,430.3139434439,0.38258269429999997,0.0,-112.09236205139999,432.220273164,1.7968338425,-21.032969343199998,0.0,0.0,1530,1750,40.0473291667,-88.2330776667,0.0,0.0,0.0,0.0,0.0,0.0,0.0,0.0,0.0,0.0,0.0,0.0,0.0,0,0.059999942800000004,0.5,0.30109992620000003,0.4640654624,90.0,60.0,60.0,88.0445098877,119.6845169067,118.9842300415,38.450996398899996,15.6305875778,42.7299995422,2,-1,10,1,155,273
28,1532114384095,530095, AUTO,0,40.0434592604,-88.2344147,0,-109.97183843549999,431.12123929629996,444.9262053658,-113.81309205379999,430.3139434439,0.40060824159999997,0.0,-112.09236205139999,432.220273164,1.7968338425,-21.032969343199998,0.0,0.0,1550,1750,40.0473291667,-88.2330776667,0.0,0.0,0.0,0.0,0.0,0.0,0.0,0.0,0.0,0.0,0.0,0.0,0.0,0,0.1000000238,0.5,0.3079054952,0.49331095810000003,90.0,60.0,60.0,89.3814163208,118.856918335,119.939163208,38.450996398899996,15.6305875778,42.7299995422,2,-1,10,1,107,282
29,1532114384296,530296, AUTO,0,40.0434592604,-88.2344147,0,-109.97183843549999,431.12123929629996,444.9262053658,-113.81309205379999,430.3139434439,0.397113502,0.0,-112.09236205139999,432.220273164,1.7968338425,-21.032969343199998,0.0,0.0,1510,1750,40.0473291667,-88.2330776667,0.0,0.0,0.0,0.0,0.0,0.0,0.0,0.0,0.0,0.0,0.0,0.0,0.0,0,0.019999980900000002,0.5,0.3211487532,0.4730782211,90.0,60.0,60.0,89.5724029541,119.3025436401,119.1115570068,38.450996398899996,15.6305875778,42.7299995422,2,-1,10,1,108,291
30,1532114384496,530496, AUTO,0,40.0434592604,-88.2344147,0,-109.97183843549999,431.12123929629996,444.9262053658,-113.81309205379999,430.3139434439,0.3848818541,0.0,-112.09236205139999,432.220273164,1.7968338425,-21.032969343199998,0.0,0.0,1560,1750,40.0473291667,-88.2330776667,0.0,0.0,0.0,0.0,0.0,0.0,0.0,0.0,0.0,0.0,0.0,0.0,0.0,0,0.1200000048,0.5,0.3454280198,0.4243357182,90.0,60.0,60.0,89.12677001950001,118.6659317017,119.6845169067,38.450996398899996,15.6483402252,43.3200035095,2,-1,10,1,106,300
31,1532114384696,530696, AUTO,0,40.0434592604,-88.2344147,0,-109.97183843549999,431.12123929629996,444.9262053658,-113.81309205379999,430.3139434439,0.3132395744,0.0,-112.09236205139999,432.220273164,1.7968338425,-21.032969343199998,0.0,0.0,1610,1750,40.0473291667,-88.2330776667,0.0,0.0,0.0,0.0,0.0,0.0,0.0,0.0,0.0,0.0,0.0,0.0,0.0,0,0.22000002859999998,0.5,0.232676506,0.39380267259999996,90.0,60.0,60.0,88.9994430542,120.51211547850001,117.9019851685,38.450996398899996,15.6483402252,43.3200035095,2,-1,10,1,107,309
32,1532114384897,530897, AUTO,0,40.0434592604,-88.2344147,0,-110.90769999209999,431.17080088669996,445.20644363580004,-114.1535923189,429.5355789571,0.34561195969999997,0.0,-113.02822360799999,432.26983475440005,1.9277334593000002,-21.394039903099998,0.0,0.0,1620,1750,40.0473221667,-88.2330736667,0.0,0.0,0.0,0.0,0.0,0.0,0.0,0.0,0.0,0.0,0.0,0.0,0.0,0,0.2400000095,0.5,0.3056982756,0.38552564380000004,90.0,60.0,60.0,89.82704925540001,118.4749450684,120.13014221190001,38.9899978638,15.6483402252,43.3200035095,2,-1,10,1,84,318
33,1532114385097,531097, AUTO,0,40.0434592604,-88.2344147,0,-110.90769999209999,431.17080088669996,445.20644363580004,-114.1535923189,429.5355789571,0.3457958996,0.0,-113.02822360799999,432.26983475440005,1.9277334593000002,-21.394039903099998,0.0,0.0,1610,1750,40.0473221667,-88.2330736667,0.0,0.0,0.0,0.0,0.0,0.0,0.0,0.0,0.0,0.0,0.0,0.0,0.0,0,0.22000002859999998,0.5,0.3158146441,0.37577715520000005,90.0,60.0,60.0,88.93578338620001,118.34761810299999,119.0479049683,38.9899978638,15.6483402252,43.3200035095,2,-1,10,1,109,326
34,1532114385297,531297, AUTO,0,40.0434592604,-88.2344147,0,-110.90769999209999,431.17080088669996,445.20644363580004,-114.1535923189,429.5355789571,0.3603267074,0.0,-113.02822360799999,432.26983475440005,1.9277334593000002,-21.394039903099998,0.0,0.0,1480,1750,40.0473221667,-88.2330736667,0.0,0.0,0.0,0.0,0.0,0.0,0.0,0.0,0.0,0.0,0.0,0.0,0.0,0,-0.040000021499999996,0.5,0.350210309,0.37044307590000003,90.0,60.0,60.0,89.9543762207,119.939163208,119.3662033081,38.9899978638,15.6483402252,43.3200035095,2,-1,10,1,86,335
35,1532114385498,531498, AUTO,0,40.0434592604,-88.2344147,0,-110.90769999209999,431.17080088669996,445.20644363580004,-114.1535923189,429.5355789571,0.3444163799,0.0,-113.02822360799999,432.26983475440005,1.9277334593000002,-21.394039903099998,0.0,0.0,1610,1750,40.0473221667,-88.2330736667,0.0,0.0,0.0,0.0,0.0,0.0,0.0,0.0,0.0,0.0,0.0,0.0,0.0,0,0.22000002859999998,0.5,0.3172861338,0.3715466559,90.0,60.0,60.0,89.0631027222,119.7481765747,118.2839584351,38.9899978638,15.6351318359,48.280002593999995,2,-1,10,1,103,344
36,1532114385698,531698, AUTO,0,40.0434592604,-88.2344147,0,-110.90769999209999,431.17080088669996,445.20644363580004,-114.1535923189,429.5355789571,0.329793632,0.0,-113.02822360799999,432.26983475440005,1.9277334593000002,-21.394039903099998,0.0,0.0,1580,1750,40.0473221667,-88.2330736667,0.0,0.0,0.0,0.0,0.0,0.0,0.0,0.0,0.0,0.0,0.0,0.0,0.0,0,0.15999996660000002,0.5,0.2700150907,0.38957217340000005,90.0,60.0,60.0,90.01803588870001,119.0479049683,118.72959136959999,38.9899978638,15.6351318359,48.280002593999995,2,-1,10,1,91,353
37,1532114385899,531899, AUTO,0,40.0434592604,-88.2344147,0,-110.5667274892,429.7862097244,443.78056209910005,-114.33802917370001,429.22052666540003,0.21970915789999998,0.0,-112.6872511051,430.8852435921,1.9356458495,-20.8158284517,0.0,0.0,1580,1750,40.0473193333,-88.2330715,0.0,0.0,0.0,0.0,0.0,0.0,0.0,0.0,0.0,0.0,0.0,0.0,0.0,0,0.15999996660000002,0.5,0.2008559257,0.2385623902,90.0,60.0,60.0,88.6174697876,120.57579040530001,118.7932434082,38.9899978638,15.6351318359,48.280002593999995,2,-1,10,1,93,361
38,1532114386099,532099, AUTO,0,40.0434592604,-88.2344147,0,-110.5667274892,429.7862097244,443.78056209910005,-114.33802917370001,429.22052666540003,0.260266602,0.0,-112.6872511051,430.8852435921,1.9356458495,-20.8158284517,0.0,0.0,1640,1750,40.0473193333,-88.2330715,0.0,0.0,0.0,0.0,0.0,0.0,0.0,0.0,0.0,0.0,0.0,0.0,0.0,0,0.2799999714,0.5,0.2479430139,0.27259019019999997,90.0,60.0,60.0,92.50085449219999,120.32112884520001,118.9842300415,38.9899978638,15.6351318359,48.280002593999995,2,-1,10,1,88,370
39,1532114386299,532299, AUTO,0,40.0434592604,-88.2344147,0,-110.5667274892,429.7862097244,443.78056209910005,-114.33802917370001,429.22052666540003,0.23396402600000002,0.0,-112.6872511051,430.8852435921,1.9356458495,-20.8158284517,0.0,0.0,1470,1750,40.0473193333,-88.2330715,0.0,0.0,0.0,0.0,0.0,0.0,0.0,0.0,0.0,0.0,0.0,0.0,0.0,0,-0.0600000024,0.5,0.2006719857,0.2672560811,90.0,60.0,60.0,90.0816955566,118.6659317017,119.4935302734,38.9899978638,15.6351318359,48.280002593999995,2,-1,10,1,89,379
40,1532114386500,532500, AUTO,0,40.0434592604,-88.2344147,0,-110.5667274892,429.7862097244,443.78056209910005,-114.33802917370001,429.22052666540003,0.2870289981,0.0,-112.6872511051,430.8852435921,1.9356458495,-20.8158284517,0.0,0.0,1500,1750,40.0473193333,-88.2330715,0.0,0.0,0.0,0.0,0.0,0.0,0.0,0.0,0.0,0.0,0.0,0.0,0.0,0,0.0,0.5,0.2564039826,0.3176540136,90.0,60.0,60.0,90.0816955566,118.9205703735,119.62085723879999,38.9899978638,15.6290645599,30.2400016785,2,-1,10,1,108,387
41,1532114386700,532700, AUTO,0,40.0434592604,-88.2344147,0,-110.5667274892,429.7862097244,443.78056209910005,-114.33802917370001,429.22052666540003,0.2754411697,0.0,-112.6872511051,430.8852435921,1.9356458495,-20.8158284517,0.0,0.0,1600,1750,40.0473193333,-88.2330715,0.0,0.0,0.0,0.0,0.0,0.0,0.0,0.0,0.0,0.0,0.0,0.0,0.0,0,0.2000000477,0.5,0.21483491359999998,0.336047411,90.0,60.0,60.0,88.36282348629999,118.2202911377,119.2388916016,38.9899978638,15.6290645599,30.2400016785,2,-1,10,1,150,396
42,1532114386901,532901, AUTO,0,40.0434592604,-88.2344147,0,-112.05761182879999,430.10093294,444.4589079821,-115.5439503309,428.77574695839996,0.2668882012,0.0,-114.17813544469999,431.1999668077,1.953003126,-21.4227180627,0.0,0.0,1710,1750,40.0473153333,-88.2330573333,0.0,0.0,0.0,0.0,0.0,0.0,0.0,0.0,0.0,0.0,0.0,0.0,0.0,0,0.4199999571,0.5,0.2363551706,0.2974212468,90.0,60.0,60.0,90.8456420898,120.38480377200001,117.58367156979999,38.9899978638,15.6290645599,30.2400016785,2,-1,10,1,274,405
43,1532114387101,533101, AUTO,0,40.0434592604,-88.2344147,0,-112.05761182879999,430.10093294,444.4589079821,-115.5439503309,428.77574695839996,0.27350983019999997,0.0,-114.17813544469999,431.1999668077,1.953003126,-21.4227180627,0.0,0.0,1560,1750,40.0473153333,-88.2330573333,0.0,0.0,0.0,0.0,0.0,0.0,0.0,0.0,0.0,0.0,0.0,0.0,0.0,0,0.1200000048,0.5,0.2301014215,0.3169182539,90.0,60.0,60.0,90.3363494873,119.4935302734,118.53860473629999,38.9899978638,15.6290645599,30.2400016785,2,-1,10,1,232,414
44,1532114387301,533301, AUTO,0,40.0434592604,-88.2344147,0,-112.05761182879999,430.10093294,444.4589079821,-115.5439503309,428.77574695839996,0.29346668719999996,0.0,-114.17813544469999,431.1999668077,1.953003126,-21.4227180627,0.0,0.0,1520,1750,40.0473153333,-88.2330573333,0.0,0.0,0.0,0.0,0.0,0.0,0.0,0.0,0.0,0.0,0.0,0.0,0.0,0,0.0399999619,0.5,0.2438964695,0.34303691979999995,90.0,60.0,60.0,88.9994430542,119.0479049683,119.6845169067,38.9899978638,15.6290645599,30.2400016785,2,-1,10,1,255,422
45,1532114387502,533502, AUTO,0,40.0434592604,-88.2344147,0,-112.05761182879999,430.10093294,444.4589079821,-115.5439503309,428.77574695839996,0.2397579551,0.0,-114.17813544469999,431.1999668077,1.953003126,-21.4227180627,0.0,0.0,1350,1750,40.0473153333,-88.2330573333,0.0,0.0,0.0,0.0,0.0,0.0,0.0,0.0,0.0,0.0,0.0,0.0,0.0,0,-0.30000001190000003,0.5,0.2004880458,0.2790278792,90.0,60.0,60.0,91.5459213257,121.0214157104,119.1115570068,38.9899978638,15.634210586500002,53.780002593999995,2,-1,10,1,82,431
46,1532114387702,533702, AUTO,0,40.0434592604,-88.2344147,0,-112.05761182879999,430.10093294,444.4589079821,-115.5439503309,428.77574695839996,0.1798874438,0.0,-114.17813544469999,431.1999668077,1.953003126,-21.4227180627,0.0,0.0,1630,1750,40.0473153333,-88.2330573333,0.0,0.0,0.0,0.0,0.0,0.0,0.0,0.0,0.0,0.0,0.0,0.0,0.0,0,0.2599999905,0.5,0.1806231737,0.17915169890000002,90.0,60.0,60.0,90.9093093872,119.1115570068,119.4935302734,38.9899978638,15.634210586500002,53.780002593999995,2,-1,10,1,72,440
47,1532114387902,533902, AUTO,0,40.0434592604,-88.2344147,0,-111.3313288284,428.4030070503,442.6328063175,-115.7425793024,427.8305900818,0.12792609630000001,0.0,-113.4518524443,429.50204091800003,1.9529352416999999,-20.633300761300003,0.0,0.0,1650,1750,40.0473068333,-88.233055,0.0,0.0,0.0,0.0,0.0,0.0,0.0,0.0,0.0,0.0,0.0,0.0,0.0,0,0.2999999523,0.5,0.10079582779999999,0.1550563574,90.0,60.0,60.0,89.6997299194,118.6022567749,119.6845169067,39.5279998779,15.634210586500002,53.780002593999995,2,-1,10,1,85,448
48,1532114388103,534103, AUTO,0,40.0434592604,-88.2344147,0,-111.3313288284,428.4030070503,442.6328063175,-115.7425793024,427.8305900818,0.17630073429999998,0.0,-113.4518524443,429.50204091800003,1.9529352416999999,-20.633300761300003,0.0,0.0,1600,1750,40.0473068333,-88.233055,0.0,0.0,0.0,0.0,0.0,0.0,0.0,0.0,0.0,0.0,0.0,0.0,0.0,0,0.2000000477,0.5,0.2319407612,0.1206606925,90.0,60.0,60.0,90.7819747925,120.0664901733,119.1752166748,39.5279998779,15.634210586500002,53.780002593999995,2,-1,10,1,70,457
49,1532114388303,534303, AUTO,0,40.0434592604,-88.2344147,0,-111.3313288284,428.4030070503,442.6328063175,-115.7425793024,427.8305900818,0.2256869972,0.0,-113.4518524443,429.50204091800003,1.9529352416999999,-20.633300761300003,0.0,0.0,1600,1750,40.0473068333,-88.233055,0.0,0.0,0.0,0.0,0.0,0.0,0.0,0.0,0.0,0.0,0.0,0.0,0.0,0,0.2000000477,0.5,0.2830744088,0.1682996005,90.0,60.0,60.0,88.681137085,120.32112884520001,121.2124023438,39.5279998779,15.634210586500002,53.780002593999995,2,-1,10,1,44,466
50,1532114388503,534503, AUTO,0,40.0434592604,-88.2344147,0,-111.3313288284,428.4030070503,442.6328063175,-115.7425793024,427.8305900818,0.2369989455,0.0,-113.4518524443,429.50204091800003,1.9529352416999999,-20.633300761300003,0.0,0.0,1590,1750,40.0473068333,-88.233055,0.0,0.0,0.0,0.0,0.0,0.0,0.0,0.0,0.0,0.0,0.0,0.0,0.0,0,0.1799999475,0.5,0.3112163246,0.1627815813,90.0,60.0,60.0,87.47155761719999,123.6952209473,120.0664901733,39.5279998779,15.6226882935,27.8199996948,2,-1,10,1,64,474
51,1532114388704,534704, AUTO,0,40.0434592604,-88.2344147,0,-111.3313288284,428.4030070503,442.6328063175,-115.7425793024,427.8305900818,0.2799475193,0.0,-113.4518524443,429.50204091800003,1.9529352416999999,-20.633300761300003,0.0,0.0,1290,1750,40.0473068333,-88.233055,0.0,0.0,0.0,0.0,0.0,0.0,0.0,0.0,0.0,0.0,0.0,0.0,0.0,0,-0.42000001670000003,0.5,0.34873884920000003,0.21115621920000002,90.0,60.0,60.0,88.36282348629999,126.17803192139999,119.4935302734,39.5279998779,15.6226882935,27.8199996948,2,-1,10,1,166,483
52,1532114388905,534905, AUTO,0,40.0434592604,-88.2344147,0,-113.2710491668,428.8780935595,443.5839827075,-115.7000182009,427.7379276435,0.2798555493,0.0,-115.39157278270001,429.9771274272,1.9380899533000002,-21.541875228600002,0.0,0.0,1550,1750,40.047306,-88.2330555,0.0,0.0,0.0,0.0,0.0,0.0,0.0,0.0,0.0,0.0,0.0,0.0,0.0,0,0.1000000238,0.5,0.25070202350000004,0.309009105,90.0,60.0,60.0,95.23831939700001,119.1115570068,120.38480377200001,38.450996398899996,15.6226882935,27.8199996948,2,-1,10,1,157,492
53,1532114389105,535105, AUTO,0,40.0434592604,-88.2344147,0,-113.2710491668,428.8780935595,443.5839827075,-115.7000182009,427.7379276435,0.3679599464,0.0,-115.39157278270001,429.9771274272,1.9380899533000002,-21.541875228600002,0.0,0.0,1550,1750,40.047306,-88.2330555,0.0,0.0,0.0,0.0,0.0,0.0,0.0,0.0,0.0,0.0,0.0,0.0,0.0,0,0.1000000238,0.5,0.3102966547,0.4256232381,90.0,60.0,60.0,90.9093093872,122.6129760742,118.15663146969999,38.450996398899996,15.6226882935,27.8199996948,2,-1,10,1,262,501
54,1532114389306,535306, AUTO,0,40.0434592604,-88.2344147,0,-113.2710491668,428.8780935595,443.5839827075,-115.7000182009,427.7379276435,0.3670402765,0.0,-115.39157278270001,429.9771274272,1.9380899533000002,-21.541875228600002,0.0,0.0,1560,1750,40.047306,-88.2330555,0.0,0.0,0.0,0.0,0.0,0.0,0.0,0.0,0.0,0.0,0.0,0.0,0.0,0,0.1200000048,0.5,0.1846697181,0.54941082,90.0,60.0,60.0,89.3177566528,118.6022567749,119.5571899414,38.450996398899996,15.6226882935,27.8199996948,2,-1,10,1,269,510
55,1532114389506,535506, AUTO,0,40.0434592604,-88.2344147,0,-113.2710491668,428.8780935595,443.5839827075,-115.7000182009,427.7379276435,0.3183897436,0.0,-115.39157278270001,429.9771274272,1.9380899533000002,-21.541875228600002,0.0,0.0,1530,1750,40.047306,-88.2330555,0.0,0.0,0.0,0.0,0.0,0.0,0.0,0.0,0.0,0.0,0.0,0.0,0.0,0,0.059999942800000004,0.5,0.1416291744,0.4951502979,90.0,60.0,60.0,89.3814163208,119.1115570068,119.62085723879999,38.450996398899996,15.591888427699999,12.800000190699999,2,-1,10,1,158,519
56,1532114389706,535706, AUTO,0,40.0434592604,-88.2344147,0,-113.2710491668,428.8780935595,443.5839827075,-115.7000182009,427.7379276435,0.28022342920000004,0.0,-115.39157278270001,429.9771274272,1.9380899533000002,-21.541875228600002,0.0,0.0,1520,1750,40.047306,-88.2330555,0.0,0.0,0.0,0.0,0.0,0.0,0.0,0.0,0.0,0.0,0.0,0.0,0.0,0,0.0399999619,0.5,0.1554242224,0.405022651,90.0,60.0,60.0,89.1904296875,120.7031021118,118.0929718018,38.450996398899996,15.591888427699999,12.800000190699999,2,-1,10,1,171,527
57,1532114389907,535907, AUTO,0,40.0434592604,-88.2344147,0,-111.95828906,426.7902534182,441.23075471010003,-115.7000255552,426.7742382787,0.3086412251,0.0,-114.0788126759,427.88928728589997,1.8973808886,-20.3845599446,0.0,0.0,1520,1750,40.0472973333,-88.2330555,0.0,0.0,0.0,0.0,0.0,0.0,0.0,0.0,0.0,0.0,0.0,0.0,0.0,0,0.0399999619,0.5,0.18338218329999997,0.4339002669,90.0,60.0,60.0,89.1904296875,119.1752166748,119.7481765747,38.9899978638,15.591888427699999,12.800000190699999,2,-1,10,1,116,536
58,1532114390107,536107, AUTO,0,40.0434592604,-88.2344147,0,-111.95828906,426.7902534182,441.23075471010003,-115.7000255552,426.7742382787,0.3566480279,0.0,-114.0788126759,427.88928728589997,1.8973808886,-20.3845599446,0.0,0.0,1540,1750,40.0472973333,-88.2330555,0.0,0.0,0.0,0.0,0.0,0.0,0.0,0.0,0.0,0.0,0.0,0.0,0.0,0,0.0800000429,0.5,0.2253191471,0.4879768789,90.0,60.0,60.0,89.8907089233,119.2388916016,119.62085723879999,38.9899978638,15.591888427699999,12.800000190699999,2,-1,10,1,73,544
59,1532114390308,536308, AUTO,0,40.0434592604,-88.2344147,0,-111.95828906,426.7902534182,441.23075471010003,-115.7000255552,426.7742382787,0.3837782741,0.0,-114.0788126759,427.88928728589997,1.8973808886,-20.3845599446,0.0,0.0,1560,1750,40.0472973333,-88.2330555,0.0,0.0,0.0,0.0,0.0,0.0,0.0,0.0,0.0,0.0,0.0,0.0,0.0,0,0.1200000048,0.5,0.24242499469999998,0.5251315832,90.0,60.0,60.0,88.4264831543,118.856918335,119.2388916016,38.9899978638,15.591888427699999,12.800000190699999,2,-1,10,1,61,553
60,1532114390508,536508, AUTO,0,40.0434592604,-88.2344147,0,-111.95828906,426.7902534182,441.23075471010003,-115.7000255552,426.7742382787,0.38699710369999996,0.0,-114.0788126759,427.88928728589997,1.8973808886,-20.3845599446,0.0,0.0,1510,1750,40.0472973333,-88.2330555,0.0,0.0,0.0,0.0,0.0,0.0,0.0,0.0,0.0,0.0,0.0,0.0,0.0,0,0.019999980900000002,0.5,0.260266602,0.5137276053000001,90.0,60.0,60.0,90.7183227539,118.53860473629999,119.87550354,38.9899978638,15.571187972999999,53.5100021362,2,-1,10,1,102,562
61,1532114390708,536708, AUTO,0,40.0434592604,-88.2344147,0,-111.95828906,426.7902534182,441.23075471010003,-115.7000255552,426.7742382787,0.40318331119999995,0.0,-114.0788126759,427.88928728589997,1.8973808886,-20.3845599446,0.0,0.0,1540,1750,40.0472973333,-88.2330555,0.0,0.0,0.0,0.0,0.0,0.0,0.0,0.0,0.0,0.0,0.0,0.0,0.0,0,0.0800000429,0.5,0.2731419802,0.5332246423,90.0,60.0,60.0,88.681137085,120.13014221190001,117.96564483639999,38.9899978638,15.571187972999999,53.5100021362,2,-1,10,1,181,570
62,1532114390909,536909, AUTO,0,40.0434592604,-88.2344147,0,-114.2824656394,427.28849342769996,442.30751583980003,-115.11835254649999,426.10706871900004,0.4022636414,0.0,-116.40298925530001,428.3875272954,1.8620535391,-21.6958927787,0.0,0.0,1520,1750,40.0472913333,-88.2330623333,0.0,0.0,0.0,0.0,0.0,0.0,0.0,0.0,0.0,0.0,0.0,0.0,0.0,0,0.0399999619,0.5,0.28270652890000003,0.521820724,90.0,60.0,60.0,89.12677001950001,119.3025436401,120.4484634399,38.9899978638,15.571187972999999,53.5100021362,2,-1,10,1,82,579
63,1532114391109,537109, AUTO,0,40.0434592604,-88.2344147,0,-114.2824656394,427.28849342769996,442.30751583980003,-115.11835254649999,426.10706871900004,0.3999644518,0.0,-116.40298925530001,428.3875272954,1.8620535391,-21.6958927787,0.0,0.0,1500,1750,40.0472913333,-88.2330623333,0.0,0.0,0.0,0.0,0.0,0.0,0.0,0.0,0.0,0.0,0.0,0.0,0.0,0,0.0,0.5,0.28601735829999997,0.5139115453,90.0,60.0,60.0,89.82704925540001,119.1752166748,120.19381713870001,38.9899978638,15.571187972999999,53.5100021362,2,-1,10,1,102,587
64,1532114391309,537309, AUTO,0,40.0434592604,-88.2344147,0,-114.2824656394,427.28849342769996,442.30751583980003,-115.11835254649999,426.10706871900004,0.39968860149999996,0.0,-116.40298925530001,428.3875272954,1.8620535391,-21.6958927787,0.0,0.0,1520,1750,40.0472913333,-88.2330623333,0.0,0.0,0.0,0.0,0.0,0.0,0.0,0.0,0.0,0.0,0.0,0.0,0.0,0,0.0399999619,0.5,0.2615541518,0.5378230214,90.0,60.0,60.0,89.3814163208,117.9019851685,120.4484634399,38.9899978638,15.571187972999999,53.5100021362,2,-1,10,1,238,596
65,1532114391510,537510, AUTO,0,40.0434592604,-88.2344147,0,-114.2824656394,427.28849342769996,442.30751583980003,-115.11835254649999,426.10706871900004,0.3517737389,0.0,-116.40298925530001,428.3875272954,1.8620535391,-21.6958927787,0.0,0.0,1560,1750,40.0472913333,-88.2330623333,0.0,0.0,0.0,0.0,0.0,0.0,0.0,0.0,0.0,0.0,0.0,0.0,0.0,0,0.1200000048,0.5,0.24187320469999998,0.4616743028,90.0,60.0,60.0,88.8721160889,120.00283050540001,117.0743713379,38.9899978638,15.531778335599999,39.2599983215,2,-1,10,1,265,604
66,1532114391710,537710, AUTO,0,40.0434592604,-88.2344147,0,-114.2824656394,427.28849342769996,442.30751583980003,-115.11835254649999,426.10706871900004,0.3679599464,0.0,-116.40298925530001,428.3875272954,1.8620535391,-21.6958927787,0.0,0.0,1570,1750,40.0472913333,-88.2330623333,0.0,0.0,0.0,0.0,0.0,0.0,0.0,0.0,0.0,0.0,0.0,0.0,0.0,0,0.1399999857,0.5,0.2863852084,0.4495346844,90.0,60.0,60.0,89.3177566528,118.7932434082,119.2388916016,38.9899978638,15.531778335599999,39.2599983215,2,-1,10,1,200,612
67,1532114391910,537910, AUTO,0,40.0434592604,-88.2344147,0,-112.4643315892,425.0188932519,439.64677355910004,-115.4162829745,426.40358852410003,0.36391341689999995,0.0,-114.5848552051,426.1179271196,1.6328194635,-20.04969305,0.0,0.0,1620,1750,40.047294,-88.23305883329999,0.0,0.0,0.0,0.0,0.0,0.0,0.0,0.0,0.0,0.0,0.0,0.0,0.0,0,0.2400000095,0.5,0.2849137485,0.4429130554,90.0,60.0,60.0,89.82704925540001,119.3662033081,119.42987060549999,39.5279998779,15.531778335599999,39.2599983215,2,-1,10,1,172,621
68,1532114392111,538111, AUTO,0,40.0434592604,-88.2344147,0,-112.4643315892,425.0188932519,439.64677355910004,-115.4162829745,426.40358852410003,0.335863471,0.0,-114.5848552051,426.1179271196,1.6328194635,-20.04969305,0.0,0.0,1530,1750,40.047294,-88.23305883329999,0.0,0.0,0.0,0.0,0.0,0.0,0.0,0.0,0.0,0.0,0.0,0.0,0.0,0,0.059999942800000004,0.5,0.30441075559999997,0.3673161864,90.0,60.0,60.0,89.82704925540001,119.62085723879999,119.1752166748,39.5279998779,15.531778335599999,39.2599983215,2,-1,10,1,251,629
69,1532114392311,538311, AUTO,0,40.0434592604,-88.2344147,0,-112.4643315892,425.0188932519,439.64677355910004,-115.4162829745,426.40358852410003,0.2962256968,0.0,-114.5848552051,426.1179271196,1.6328194635,-20.04969305,0.0,0.0,1170,1750,40.047294,-88.23305883329999,0.0,0.0,0.0,0.0,0.0,0.0,0.0,0.0,0.0,0.0,0.0,0.0,0.0,0,-0.6599999665999999,0.5,0.2185135782,0.3739378154,90.0,60.0,60.0,89.8907089233,119.1752166748,119.3662033081,39.5279998779,15.531778335599999,39.2599983215,2,-1,10,1,255,637
70,1532114392511,538511, AUTO,0,40.0434592604,-88.2344147,0,-112.4643315892,425.0188932519,439.64677355910004,-115.4162829745,426.40358852410003,0.3128717244,0.0,-114.5848552051,426.1179271196,1.6328194635,-20.04969305,0.0,0.0,1620,1750,40.047294,-88.23305883329999,0.0,0.0,0.0,0.0,0.0,0.0,0.0,0.0,0.0,0.0,0.0,0.0,0.0,0,0.2400000095,0.5,0.21740998329999997,0.4083334804,90.0,60.0,60.0,89.82704925540001,118.2202911377,120.19381713870001,39.5279998779,15.5432538986,21.2700004578,2,-1,10,1,206,645
71,1532114392712,538712, AUTO,0,40.0434592604,-88.2344147,0,-112.4643315892,425.0188932519,439.64677355910004,-115.4162829745,426.40358852410003,0.336599201,0.0,-114.5848552051,426.1179271196,1.6328194635,-20.04969305,0.0,0.0,1690,1750,40.047294,-88.23305883329999,0.0,0.0,0.0,0.0,0.0,0.0,0.0,0.0,0.0,0.0,0.0,0.0,0.0,0,0.37999999520000005,0.5,0.3270346224,0.34616377950000005,90.0,60.0,60.0,89.82704925540001,120.9577560425,117.9019851685,39.5279998779,15.5432538986,21.2700004578,2,-1,10,1,186,653
72,1532114392912,538912, AUTO,0,40.0434592604,-88.2344147,0,-115.0665115691,425.6114636099,440.8916193815,-115.8135242857,426.7001083285,0.26238182190000003,0.0,-117.187035185,426.71049747760003,1.3722642153,-22.081589035500002,0.0,0.0,1600,1750,40.0472966667,-88.2330541667,0.0,0.0,0.0,0.0,0.0,0.0,0.0,0.0,0.0,0.0,0.0,0.0,0.0,0,0.2000000477,0.5,0.22899781170000003,0.29576584699999997,90.0,60.0,60.0,89.5724029541,118.2202911377,120.00283050540001,38.9899978638,15.5432538986,21.2700004578,2,-1,10,1,187,661
73,1532114393113,539113, AUTO,0,40.0434592604,-88.2344147,0,-115.0665115691,425.6114636099,440.8916193815,-115.8135242857,426.7001083285,0.24086155,0.0,-117.187035185,426.71049747760003,1.3722642153,-22.081589035500002,0.0,0.0,1600,1750,40.0472966667,-88.2330541667,0.0,0.0,0.0,0.0,0.0,0.0,0.0,0.0,0.0,0.0,0.0,0.0,0.0,0,0.2000000477,0.5,0.21170800920000002,0.2700150907,90.0,60.0,60.0,89.0631027222,118.6022567749,119.6845169067,38.9899978638,15.5432538986,21.2700004578,2,-1,10,1,173,669
74,1532114393313,539313, AUTO,0,40.0434592604,-88.2344147,0,-115.0665115691,425.6114636099,440.8916193815,-115.8135242857,426.7001083285,0.2714865804,0.0,-117.187035185,426.71049747760003,1.3722642153,-22.081589035500002,0.0,0.0,1620,1750,40.0472966667,-88.2330541667,0.0,0.0,0.0,0.0,0.0,0.0,0.0,0.0,0.0,0.0,0.0,0.0,0.0,0,0.2400000095,0.5,0.2361712456,0.3068019152,90.0,60.0,60.0,89.7633895874,120.38480377200001,117.58367156979999,38.9899978638,15.5432538986,21.2700004578,2,-1,10,1,153,678
75,1532114393513,539513, AUTO,0,40.0434592604,-88.2344147,0,-115.0665115691,425.6114636099,440.8916193815,-115.8135242857,426.7001083285,0.2438044995,0.0,-117.187035185,426.71049747760003,1.3722642153,-22.081589035500002,0.0,0.0,1620,1750,40.0472966667,-88.2330541667,0.0,0.0,0.0,0.0,0.0,0.0,0.0,0.0,0.0,0.0,0.0,0.0,0.0,0,0.2400000095,0.5,0.1916592121,0.2959497869,90.0,60.0,60.0,89.63606262209998,118.2839584351,119.62085723879999,38.9899978638,15.5378389359,41.0699996948,2,-1,10,1,100,686
76,1532114393714,539714, AUTO,0,40.0434592604,-88.2344147,0,-115.0665115691,425.6114636099,440.8916193815,-115.8135242857,426.7001083285,0.2596228123,0.0,-117.187035185,426.71049747760003,1.3722642153,-22.081589035500002,0.0,0.0,1620,1750,40.0472966667,-88.2330541667,0.0,0.0,0.0,0.0,0.0,0.0,0.0,0.0,0.0,0.0,0.0,0.0,0.0,0,0.2400000095,0.5,0.21299555899999997,0.3062500954,90.0,60.0,60.0,88.8084564209,120.19381713870001,119.1752166748,38.9899978638,15.5378389359,41.0699996948,2,-1,10,1,82,694
77,1532114393915,539915, AUTO,0,40.0434592604,-88.2344147,0,-113.65947590100001,424.1490368862,439.11374603129997,-115.2460253041,427.7749926189,0.1641610861,0.0,-115.7799995169,425.2480707539,0.8667552699,-19.5739787785,0.0,0.0,1620,1750,40.0473063333,-88.2330608333,0.0,0.0,0.0,0.0,0.0,0.0,0.0,0.0,0.0,0.0,0.0,0.0,0.0,0,0.2400000095,0.5,0.08902405199999999,0.2392981201,90.0,60.0,60.0,90.5909881592,118.2202911377,119.81184387209998,38.450996398899996,15.5378389359,41.0699996948,2,-1,10,1,60,702
78,1532114394115,540115, AUTO,0,40.0434592604,-88.2344147,0,-113.65947590100001,424.1490368862,439.11374603129997,-115.2460253041,427.7749926189,0.1117398888,0.0,-115.7799995169,425.2480707539,0.8667552699,-19.5739787785,0.0,0.0,1620,1750,40.0473063333,-88.2330608333,0.0,0.0,0.0,0.0,0.0,0.0,0.0,0.0,0.0,0.0,0.0,0.0,0.0,0,0.2400000095,0.5,0.0329241827,0.19055560230000002,90.0,60.0,60.0,89.3177566528,120.13014221190001,119.1115570068,38.450996398899996,15.5378389359,41.0699996948,2,-1,10,1,60,709
79,1532114394316,540316, AUTO,0,40.0434592604,-88.2344147,0,-113.65947590100001,424.1490368862,439.11374603129997,-115.2460253041,427.7749926189,0.09849665310000001,0.0,-115.7799995169,425.2480707539,0.8667552699,-19.5739787785,0.0,0.0,1620,1750,40.0473063333,-88.2330608333,0.0,0.0,0.0,0.0,0.0,0.0,0.0,0.0,0.0,0.0,0.0,0.0,0.0,0,0.2400000095,0.5,0.0198648702,0.17712843420000002,90.0,60.0,60.0,89.7633895874,117.13804626459999,120.57579040530001,38.450996398899996,15.5378389359,41.0699996948,2,-1,10,1,55,715
80,1532114394516,540516, AUTO,0,40.0434592604,-88.2344147,0,-113.65947590100001,424.1490368862,439.11374603129997,-115.2460253041,427.7749926189,0.2250432372,0.0,-115.7799995169,425.2480707539,0.8667552699,-19.5739787785,0.0,0.0,1550,1750,40.0473063333,-88.2330608333,0.0,0.0,0.0,0.0,0.0,0.0,0.0,0.0,0.0,0.0,0.0,0.0,0.0,0,0.1000000238,0.5,0.2427928746,0.2072936147,90.0,60.0,60.0,91.8642349243,117.13804626459999,120.2574768066,38.450996398899996,15.530321121199998,73.25,2,-1,10,1,40,723
81,1532114394716,540716, AUTO,0,40.0434592604,-88.2344147,0,-113.65947590100001,424.1490368862,439.11374603129997,-115.2460253041,427.7749926189,0.2369069755,0.0,-115.7799995169,425.2480707539,0.8667552699,-19.5739787785,0.0,0.0,1540,1750,40.0473063333,-88.2330608333,0.0,0.0,0.0,0.0,0.0,0.0,0.0,0.0,0.0,0.0,0.0,0.0,0.0,0,0.0800000429,0.5,0.2523574233,0.2214565277,90.0,60.0,60.0,91.0366287231,120.0664901733,118.6022567749,38.450996398899996,15.530321121199998,73.25,2,-1,10,1,37,730
82,1532114394917,540917, AUTO,0,40.0434592604,-88.2344147,0,-114.3971877651,424.5355991832,439.6785093025,-114.7778447188,427.8676550579,0.3249194026,0.0,-116.517711381,425.63463305089994,0.496434401,-23.0393093143,0.0,0.0,1590,1750,40.0473071667,-88.2330663333,0.0,0.0,0.0,0.0,0.0,0.0,0.0,0.0,0.0,0.0,0.0,0.0,0.0,0,0.1799999475,0.5,0.2992605865,0.35057818890000003,90.0,60.0,60.0,89.5087432861,120.76677703860001,118.411277771,38.9899978638,15.530321121199998,73.25,2,-1,10,1,40,737
83,1532114395117,541117, AUTO,0,40.0434592604,-88.2344147,0,-114.3971877651,424.5355991832,439.6785093025,-114.7778447188,427.8676550579,0.3659366667,0.0,-116.517711381,425.63463305089994,0.496434401,-23.0393093143,0.0,0.0,1580,1750,40.0473071667,-88.2330663333,0.0,0.0,0.0,0.0,0.0,0.0,0.0,0.0,0.0,0.0,0.0,0.0,0.0,0,0.15999996660000002,0.5,0.33991000060000004,0.3919633329,90.0,60.0,60.0,90.145362854,120.13014221190001,118.856918335,38.9899978638,15.530321121199998,73.25,2,-1,10,1,31,744
84,1532114395318,541318, AUTO,0,40.0434592604,-88.2344147,0,-114.3971877651,424.5355991832,439.6785093025,-114.7778447188,427.8676550579,0.280867219,0.0,-116.517711381,425.63463305089994,0.496434401,-23.0393093143,0.0,0.0,1560,1750,40.0473071667,-88.2330663333,0.0,0.0,0.0,0.0,0.0,0.0,0.0,0.0,0.0,0.0,0.0,0.0,0.0,0,0.1200000048,0.5,0.23580338059999997,0.3259310424,90.0,60.0,60.0,90.2726821899,119.81184387209998,118.6022567749,38.9899978638,15.530321121199998,73.25,2,-1,10,1,80,751
85,1532114395518,541518, AUTO,0,40.0434592604,-88.2344147,0,-114.3971877651,424.5355991832,439.6785093025,-114.7778447188,427.8676550579,0.3329205215,0.0,-116.517711381,425.63463305089994,0.496434401,-23.0393093143,0.0,0.0,1540,1750,40.0473071667,-88.2330663333,0.0,0.0,0.0,0.0,0.0,0.0,0.0,0.0,0.0,0.0,0.0,0.0,0.0,0,0.0800000429,0.5,0.2736937702,0.3921472728,90.0,60.0,60.0,89.63606262209998,119.2388916016,118.411277771,38.9899978638,15.5182781219,60.1100006104,2,-1,10,1,163,758
86,1532114395718,541718, AUTO,0,40.0434592604,-88.2344147,0,-114.3971877651,424.5355991832,439.6785093025,-114.7778447188,427.8676550579,0.3097448349,0.0,-116.517711381,425.63463305089994,0.496434401,-23.0393093143,0.0,0.0,1600,1750,40.0473071667,-88.2330663333,0.0,0.0,0.0,0.0,0.0,0.0,0.0,0.0,0.0,0.0,0.0,0.0,0.0,0,0.2000000477,0.5,0.23801058530000002,0.3814790845,90.0,60.0,60.0,90.0816955566,119.2388916016,118.9205703735,38.9899978638,15.5182781219,60.1100006104,2,-1,10,1,116,766
87,1532114395919,541919, AUTO,0,40.0434592604,-88.2344147,0,-114.5208661417,426.1039055732,441.22507536010005,-114.1677893551,428.2383048132,0.34929063920000003,0.0,-116.6413897576,427.20293944089997,0.0,-19.479996423299998,0.0,0.0,1670,1750,40.0473105,-88.2330735,0.0,0.0,0.0,0.0,0.0,0.0,0.0,0.0,0.0,0.0,0.0,0.0,0.0,0,0.3400000334,0.5,0.3172861338,0.3812951446,90.0,60.0,60.0,90.145362854,119.87550354,118.72959136959999,39.5279998779,15.5182781219,60.1100006104,2,-1,10,1,124,773
88,1532114396119,542119, AUTO,0,40.0434592604,-88.2344147,0,-114.5208661417,426.1039055732,441.22507536010005,-114.1677893551,428.2383048132,0.34358870979999995,0.0,-116.6413897576,427.20293944089997,0.0,-19.479996423299998,0.0,0.0,1600,1750,40.0473105,-88.2330735,0.0,0.0,0.0,0.0,0.0,0.0,0.0,0.0,0.0,0.0,0.0,0.0,0.0,0,0.2000000477,0.5,0.3200451434,0.3671322465,90.0,60.0,60.0,89.82704925540001,119.42987060549999,119.1752166748,39.5279998779,15.5182781219,60.1100006104,2,-1,10,1,97,780
89,1532114396320,542320, AUTO,0,40.0434592604,-88.2344147,0,-114.5208661417,426.1039055732,441.22507536010005,-114.1677893551,428.2383048132,0.35545241829999996,0.0,-116.6413897576,427.20293944089997,0.0,-19.479996423299998,0.0,0.0,1600,1750,40.0473105,-88.2330735,0.0,0.0,0.0,0.0,0.0,0.0,0.0,0.0,0.0,0.0,0.0,0.0,0.0,0,0.2000000477,0.5,0.36437323689999995,0.3465316296,90.0,60.0,60.0,90.20902252200001,119.42987060549999,119.1752166748,39.5279998779,15.5182781219,60.1100006104,2,-1,10,1,83,787
90,1532114396520,542520, AUTO,0,40.0434592604,-88.2344147,0,-114.5208661417,426.1039055732,441.22507536010005,-114.1677893551,428.2383048132,0.3498424292,0.0,-116.6413897576,427.20293944089997,0.0,-19.479996423299998,0.0,0.0,1610,1750,40.0473105,-88.2330735,0.0,0.0,0.0,0.0,0.0,0.0,0.0,0.0,0.0,0.0,0.0,0.0,0.0,0,0.22000002859999998,0.5,0.30128386620000003,0.39840102200000005,90.0,60.0,60.0,89.1904296875,119.1115570068,119.42987060549999,39.5279998779,15.5285739899,51.420001983599995,2,-1,10,1,75,794
91,1532114396720,542720, AUTO,0,40.0434592604,-88.2344147,0,-114.5208661417,426.1039055732,441.22507536010005,-114.1677893551,428.2383048132,0.3411055803,0.0,-116.6413897576,427.20293944089997,0.0,-19.479996423299998,0.0,0.0,1590,1750,40.0473105,-88.2330735,0.0,0.0,0.0,0.0,0.0,0.0,0.0,0.0,0.0,0.0,0.0,0.0,0.0,0,0.1799999475,0.5,0.2990766466,0.3831345141,90.0,60.0,60.0,89.9543762207,118.7932434082,119.6845169067,39.5279998779,15.5285739899,51.420001983599995,2,-1,10,1,69,801
92,1532114396921,542921, AUTO,0,40.0434592604,-88.2344147,0,-112.3995969466,427.1534150572,441.6941355608,-113.5861113356,428.2383048132,0.3458878696,0.0,-114.5201205625,428.25244892489997,0.4124167528,-19.4777515682,0.0,0.0,1540,1750,40.0473105,-88.2330803333,0.0,0.0,0.0,0.0,0.0,0.0,0.0,0.0,0.0,0.0,0.0,0.0,0.0,0,0.0800000429,0.5,0.2757170498,0.41605868939999996,90.0,60.0,60.0,88.74479675290002,118.72959136959999,119.62085723879999,39.5279998779,15.5285739899,51.420001983599995,2,-1,10,1,60,808
93,1532114397121,543121, AUTO,0,40.0434592604,-88.2344147,0,-112.3995969466,427.1534150572,441.6941355608,-113.5861113356,428.2383048132,0.38506579399999996,0.0,-114.5201205625,428.25244892489997,0.4124167528,-19.4777515682,0.0,0.0,1550,1750,40.0473105,-88.2330803333,0.0,0.0,0.0,0.0,0.0,0.0,0.0,0.0,0.0,0.0,0.0,0.0,0.0,0,0.1000000238,0.5,0.30018028620000003,0.46995133159999997,90.0,60.0,60.0,90.5273361206,119.7481765747,118.9205703735,39.5279998779,15.5285739899,51.420001983599995,2,-1,10,1,61,815
94,1532114397321,543321, AUTO,0,40.0434592604,-88.2344147,0,-112.3995969466,427.1534150572,441.6941355608,-113.5861113356,428.2383048132,0.40704593060000005,0.0,-114.5201205625,428.25244892489997,0.4124167528,-19.4777515682,0.0,0.0,1530,1750,40.0473105,-88.2330803333,0.0,0.0,0.0,0.0,0.0,0.0,0.0,0.0,0.0,0.0,0.0,0.0,0.0,0,0.059999942800000004,0.5,0.3198612332,0.49423062799999995,90.0,60.0,60.0,90.3363494873,118.9842300415,119.1752166748,39.5279998779,15.5285739899,51.420001983599995,2,-1,10,1,108,822
95,1532114397522,543522, AUTO,0,40.0434592604,-88.2344147,0,-112.3995969466,427.1534150572,441.6941355608,-113.5861113356,428.2383048132,0.42976179719999996,0.0,-114.5201205625,428.25244892489997,0.4124167528,-19.4777515682,0.0,0.0,1510,1750,40.0473105,-88.2330803333,0.0,0.0,0.0,0.0,0.0,0.0,0.0,0.0,0.0,0.0,0.0,0.0,0.0,0,0.019999980900000002,0.5,0.3174700737,0.5420535207,90.0,60.0,60.0,89.3814163208,119.3025436401,118.9205703735,39.5279998779,15.5180635452,51.7399978638,2,-1,10,1,87,829
96,1532114397722,543722, AUTO,0,40.0434592604,-88.2344147,0,-112.3995969466,427.1534150572,441.6941355608,-113.5861113356,428.2383048132,0.4014359415,0.0,-114.5201205625,428.25244892489997,0.4124167528,-19.4777515682,0.0,0.0,1510,1750,40.0473105,-88.2330803333,0.0,0.0,0.0,0.0,0.0,0.0,0.0,0.0,0.0,0.0,0.0,0.0,0.0,0,0.019999980900000002,0.5,0.2937425971,0.5091292857999999,90.0,60.0,60.0,89.9543762207,118.9842300415,119.2388916016,39.5279998779,15.5180635452,51.7399978638,2,-1,10,1,98,837
97,1532114397922,543922, AUTO,0,40.0434592604,-88.2344147,0,-112.4042464541,426.27757087230003,440.84836627769994,-112.6071957078,427.4414078391,0.37320208549999995,0.0,-114.52477007,427.37660474,0.4115672396,-21.2943590128,0.0,0.0,1460,1750,40.0473033333,-88.2330918333,0.0,0.0,0.0,0.0,0.0,0.0,0.0,0.0,0.0,0.0,0.0,0.0,0.0,0,-0.07999998330000001,0.5,0.23801058530000002,0.5083935857,90.0,60.0,60.0,89.63606262209998,118.6022567749,119.5571899414,39.5279998779,15.5180635452,51.7399978638,2,-1,10,1,128,844
98,1532114398123,544123, AUTO,0,40.0434592604,-88.2344147,0,-112.4042464541,426.27757087230003,440.84836627769994,-112.6071957078,427.4414078391,0.38396221399999997,0.0,-114.52477007,427.37660474,0.4115672396,-21.2943590128,0.0,0.0,1460,1750,40.0473033333,-88.2330918333,0.0,0.0,0.0,0.0,0.0,0.0,0.0,0.0,0.0,0.0,0.0,0.0,0.0,0,-0.07999998330000001,0.5,0.2297335416,0.5381909013,90.0,60.0,60.0,89.5724029541,118.9842300415,119.42987060549999,39.5279998779,15.5180635452,51.7399978638,2,-1,10,1,118,852
99,1532114398323,544323, AUTO,0,40.0434592604,-88.2344147,0,-112.4042464541,426.27757087230003,440.84836627769994,-112.6071957078,427.4414078391,0.41449525950000005,0.0,-114.52477007,427.37660474,0.4115672396,-21.2943590128,0.0,0.0,1380,1750,40.0473033333,-88.2330918333,0.0,0.0,0.0,0.0,0.0,0.0,0.0,0.0,0.0,0.0,0.0,0.0,0.0,0,-0.2400000095,0.5,0.267440021,0.561550498,90.0,60.0,60.0,89.44507598879999,119.5571899414,119.5571899414,39.5279998779,15.5180635452,51.7399978638,2,-1,10,1,28,859
100,1532114398524,544524, AUTO,0,40.0434592604,-88.2344147,0,-112.4042464541,426.27757087230003,440.84836627769994,-112.6071957078,427.4414078391,0.40851739049999997,0.0,-114.52477007,427.37660474,0.4115672396,-21.2943590128,0.0,0.0,1480,1750,40.0473033333,-88.2330918333,0.0,0.0,0.0,0.0,0.0,0.0,0.0,0.0,0.0,0.0,0.0,0.0,0.0,0,-0.040000021499999996,0.5,0.240033865,0.577000916,90.0,60.0,60.0,88.681137085,119.5571899414,119.2388916016,39.5279998779,15.5202236176,36.4599990845,2,-1,10,1,147,867
101,1532114398724,544724, AUTO,0,40.0434592604,-88.2344147,0,-112.4042464541,426.27757087230003,440.84836627769994,-112.6071957078,427.4414078391,0.4048387408,0.0,-114.52477007,427.37660474,0.4115672396,-21.2943590128,0.0,0.0,1500,1750,40.0473033333,-88.2330918333,0.0,0.0,0.0,0.0,0.0,0.0,0.0,0.0,0.0,0.0,0.0,0.0,0.0,0,0.0,0.5,0.2648649514,0.5448125005,90.0,60.0,60.0,90.5273361206,118.4749450684,120.51211547850001,39.5279998779,15.5202236176,36.4599990845,2,-1,10,1,145,875
102,1532114398925,544925, AUTO,0,40.0434592604,-88.2344147,0,-111.79723721459999,425.708373736,440.1434331189,-112.3376374488,427.45994032650003,0.4068619907,0.0,-113.91776083049999,426.8074076037,0.30032063670000003,-19.1464862541,0.0,0.0,1500,1750,40.0473035,-88.233095,0.0,0.0,0.0,0.0,0.0,0.0,0.0,0.0,0.0,0.0,0.0,0.0,0.0,0,0.0,0.5,0.2597147822,0.5540091991,90.0,60.0,60.0,88.681137085,120.83042907709999,118.34761810299999,39.5279998779,15.5202236176,36.4599990845,2,-1,10,1,192,883
103,1532114399125,545125, AUTO,0,40.0434592604,-88.2344147,0,-111.79723721459999,425.708373736,440.1434331189,-112.3376374488,427.45994032650003,0.41633462909999996,0.0,-113.91776083049999,426.8074076037,0.30032063670000003,-19.1464862541,0.0,0.0,1490,1750,40.0473035,-88.233095,0.0,0.0,0.0,0.0,0.0,0.0,0.0,0.0,0.0,0.0,0.0,0.0,0.0,0,-0.019999980900000002,0.5,0.27755641940000003,0.5551128386999999,90.0,60.0,60.0,89.0631027222,119.1752166748,118.7932434082,39.5279998779,15.5202236176,36.4599990845,2,-1,10,1,195,890
104,1532114399326,545326, AUTO,0,40.0434592604,-88.2344147,0,-111.79723721459999,425.708373736,440.1434331189,-112.3376374488,427.45994032650003,0.40897727009999996,0.0,-113.91776083049999,426.8074076037,0.30032063670000003,-19.1464862541,0.0,0.0,1470,1750,40.0473035,-88.233095,0.0,0.0,0.0,0.0,0.0,0.0,0.0,0.0,0.0,0.0,0.0,0.0,0.0,0,0.019999980900000002,0.5,0.28896030780000004,0.5289942026,90.0,60.0,60.0,88.4264831543,118.53860473629999,119.7481765747,39.5279998779,15.5202236176,36.4599990845,2,-1,10,1,241,898
105,1532114399526,545526, AUTO,0,40.0434592604,-88.2344147,0,-111.79723721459999,425.708373736,440.1434331189,-112.3376374488,427.45994032650003,0.4088853002,0.0,-113.91776083049999,426.8074076037,0.30032063670000003,-19.1464862541,0.0,0.0,1430,1750,40.0473035,-88.233095,0.0,0.0,0.0,0.0,0.0,0.0,0.0,0.0,0.0,0.0,0.0,0.0,0.0,0,-0.1399999857,0.5,0.26284170149999997,0.5549288988000001,90.0,60.0,60.0,91.0366287231,120.0664901733,119.1115570068,39.5279998779,15.544082641600001,68.2399978638,2,-1,10,1,56,905
106,1532114399726,545726, AUTO,0,40.0434592604,-88.2344147,0,-111.79723721459999,425.708373736,440.1434331189,-112.3376374488,427.45994032650003,0.4273706079,0.0,-113.91776083049999,426.8074076037,0.30032063670000003,-19.1464862541,0.0,0.0,1570,1750,40.0473035,-88.233095,0.0,0.0,0.0,0.0,0.0,0.0,0.0,0.0,0.0,0.0,0.0,0.0,0.0,0,0.1399999857,0.5,0.281419009,0.5733222365,90.0,60.0,60.0,89.5087432861,119.42987060549999,118.72959136959999,39.5279998779,15.544082641600001,68.2399978638,2,-1,10,1,58,913
107,1532114399927,545927, AUTO,0,40.0434592604,-88.2344147,0,-111.92159359600001,426.2641558208,440.71257487239995,-112.380207225,426.385056036,0.43086534740000004,0.0,-114.0421172119,427.3631896885,0.5419659239,-19.698138358199998,0.0,0.0,1530,1750,40.047293833299996,-88.2330945,0.0,0.0,0.0,0.0,0.0,0.0,0.0,0.0,0.0,0.0,0.0,0.0,0.0,0,0.059999942800000004,0.5,0.309560895,0.5521697997999999,90.0,60.0,60.0,89.8907089233,118.9205703735,119.7481765747,39.5279998779,15.544082641600001,68.2399978638,2,-1,10,1,233,921
108,1532114400127,546127, AUTO,0,40.0434592604,-88.2344147,0,-111.92159359600001,426.2641558208,440.71257487239995,-112.380207225,426.385056036,0.3878248334,0.0,-114.0421172119,427.3631896885,0.5419659239,-19.698138358199998,0.0,0.0,1480,1750,40.047293833299996,-88.2330945,0.0,0.0,0.0,0.0,0.0,0.0,0.0,0.0,0.0,0.0,0.0,0.0,0.0,0,-0.040000021499999996,0.5,0.2696472108,0.5060024261,90.0,60.0,60.0,89.6997299194,119.87550354,118.15663146969999,39.5279998779,15.544082641600001,68.2399978638,2,-1,10,1,229,928
109,1532114400328,546328, AUTO,0,40.0434592604,-88.2344147,0,-111.92159359600001,426.2641558208,440.71257487239995,-112.380207225,426.385056036,0.3835943341,0.0,-114.0421172119,427.3631896885,0.5419659239,-19.698138358199998,0.0,0.0,1520,1750,40.047293833299996,-88.2330945,0.0,0.0,0.0,0.0,0.0,0.0,0.0,0.0,0.0,0.0,0.0,0.0,0.0,0,0.0399999619,0.5,0.27461344,0.4925752282,90.0,60.0,60.0,88.9994430542,119.1752166748,119.6845169067,39.5279998779,15.544082641600001,68.2399978638,2,-1,10,1,230,936
110,1532114400528,546528, AUTO,0,40.0434592604,-88.2344147,0,-111.92159359600001,426.2641558208,440.71257487239995,-112.380207225,426.385056036,0.3912275732,0.0,-114.0421172119,427.3631896885,0.5419659239,-19.698138358199998,0.0,0.0,1560,1750,40.047293833299996,-88.2330945,0.0,0.0,0.0,0.0,0.0,0.0,0.0,0.0,0.0,0.0,0.0,0.0,0.0,0,0.1200000048,0.5,0.2565879226,0.5258672236999999,90.0,60.0,60.0,88.74479675290002,120.19381713870001,118.6659317017,39.5279998779,15.553835868800002,52.5199966431,2,-1,10,1,91,944
111,1532114400728,546728, AUTO,0,40.0434592604,-88.2344147,0,-111.92159359600001,426.2641558208,440.71257487239995,-112.380207225,426.385056036,0.3892962933,0.0,-114.0421172119,427.3631896885,0.5419659239,-19.698138358199998,0.0,0.0,1510,1750,40.047293833299996,-88.2330945,0.0,0.0,0.0,0.0,0.0,0.0,0.0,0.0,0.0,0.0,0.0,0.0,0.0,0,0.019999980900000002,0.5,0.308457315,0.4701352715,90.0,60.0,60.0,89.8907089233,119.0479049683,118.2202911377,39.5279998779,15.553835868800002,52.5199966431,2,-1,10,1,68,951
112,1532114400929,546929, AUTO,0,40.0434592604,-88.2344147,0,-110.8659021476,426.1845978574,440.36866340589995,-112.28089825290002,426.1256012071,0.40456283090000006,0.0,-112.98642576350001,427.2836317251,0.8252025363,-18.4013417327,0.0,0.0,1570,1750,40.0472915,-88.2330956667,0.0,0.0,0.0,0.0,0.0,0.0,0.0,0.0,0.0,0.0,0.0,0.0,0.0,0,0.1399999857,0.5,0.3020196259,0.5071060061,90.0,60.0,60.0,88.9994430542,119.3662033081,118.7932434082,39.5279998779,15.553835868800002,52.5199966431,2,-1,10,1,246,959
113,1532114401129,547129, AUTO,0,40.0434592604,-88.2344147,0,-110.8659021476,426.1845978574,440.36866340589995,-112.28089825290002,426.1256012071,0.4111844301,0.0,-112.98642576350001,427.2836317251,0.8252025363,-18.4013417327,0.0,0.0,1600,1750,40.0472915,-88.2330956667,0.0,0.0,0.0,0.0,0.0,0.0,0.0,0.0,0.0,0.0,0.0,0.0,0.0,0,0.2000000477,0.5,0.3253792226,0.4969896674,90.0,60.0,60.0,90.5273361206,119.0479049683,119.1115570068,39.5279998779,15.553835868800002,52.5199966431,2,-1,10,1,239,966
114,1532114401329,547329, AUTO,0,40.0434592604,-88.2344147,0,-110.8659021476,426.1845978574,440.36866340589995,-112.28089825290002,426.1256012071,0.3514978588,0.0,-112.98642576350001,427.2836317251,0.8252025363,-18.4013417327,0.0,0.0,1550,1750,40.0472915,-88.2330956667,0.0,0.0,0.0,0.0,0.0,0.0,0.0,0.0,0.0,0.0,0.0,0.0,0.0,0,0.1000000238,0.5,0.2575075924,0.44548812509999997,90.0,60.0,60.0,89.82704925540001,118.9842300415,119.1115570068,39.5279998779,15.553835868800002,52.5199966431,2,-1,10,1,239,974
115,1532114401530,547530, AUTO,0,40.0434592604,-88.2344147,0,-110.8659021476,426.1845978574,440.36866340589995,-112.28089825290002,426.1256012071,0.37513339520000005,0.0,-112.98642576350001,427.2836317251,0.8252025363,-18.4013417327,0.0,0.0,1570,1750,40.0472915,-88.2330956667,0.0,0.0,0.0,0.0,0.0,0.0,0.0,0.0,0.0,0.0,0.0,0.0,0.0,0,0.1399999857,0.5,0.2922711372,0.45799562340000005,90.0,60.0,60.0,89.9543762207,119.1752166748,119.2388916016,39.5279998779,15.566774368299999,31.010002136199997,2,-1,10,1,311,981
