,(0)linux time (ms),    (1)uptime  (ms),      (2)drive mode,(3)mpc step counter,(4)mpc origin latitude  (deg),(5)mpc origin longitude  (deg),(6)closest trajectory point index to robot,(7)mpc error x (W;E)  (m),(8)mpc error y (W;E)  (m),(9)abs mpc error (m),(10)input [x] for mhe (m),(11)input [y] for mhe (m),(12)input [speed] for mhe (m/s),(13)input [vyaw] for mhe (rad/s),(14)mhe output x  (m),(15)mhe output y  (m),(16)mhe output speed  (m/s),(17)mhe output yaw  (rad),(18)mpc reference heading (rad),(19)mpc turn rate command (rad/s),(20)turn rate command as PWM,(21)throttle command as PWM,(22)primary gps latitude (deg),(23)primary gps longitude (deg),(24)secondary gps latitude  (deg),(25)secondary gps longitude (deg),(26)accelerometer x (m/s^2),(27)accelerometer y (m/s^2),(28)accelerometer z (m/s^2),(29)gyro yaw rate (rad/s),(30)gyro pitch rate   (rad/s),(31)gyro roll rate (rad/s),      (32)yaw (rad),  (33)pitch   (rad),     (34)roll (rad),(35)sonar1 measurement (m),(36)ultrasonic sensor measurement (m),(37)primary gps time (s),(38)normalized turn rate command,(39)normalized throttle command,(40)speed calculation from encoder left (m/s),(41)speed calculation from encoder right (m/s),(42)front gimbal target angle (degrees from straight down),(43)left gimbal target angle  (degrees from straight down),(44)right gimbal target angle  (degrees from straight down),(45)front gimbal measured angle  (degrees from straight down),(46)left gimbal measured angle    (degrees from straight down),(47)right gimbal measured angle  (degrees from straight down),(48)internal temperature (C),(49)battery voltage (V),(50)primary gps type,(51)secondary gps type,    (52)MPC R value, (53)MPC Q[0] value,Unnamed: 54,weed_num,start
0,1532115359272,60272, RC,0,40.0434592604,-88.2344147,0,-108.5893015492,514.8586099044,526.1853519471,-110.27984021190001,515.8784394971,0.0013795048999999998,0.0,-110.7098251651,515.9576437721,0.34441558229999997,-1.2846242261,0.0,0.0,1500,1500,40.0480986667,-88.2331191667,0.0,0.0,0.0,0.0,0.0,0.0,0.0,0.0,0.0,0.0,0.0,0.0,0.0,0,0.0,0.0,-0.0023911418,-0.00036786800000000004,90.0,60.0,60.0,89.9543762207,119.1115570068,119.62085723879999,36.2999992371,16.057592392,1.1999999285,2,-1,10,1,23,0
1,1532115359473,60473, RC,0,40.0434592604,-88.2344147,0,-108.5893015492,514.8586099044,526.1853519471,-110.27984021190001,515.8784394971,0.0013795048999999998,0.0,-110.7098251651,515.9576437721,0.34441558229999997,-1.2846242261,0.0,0.0,1500,1500,40.0480986667,-88.2331191667,0.0,0.0,0.0,0.0,0.0,0.0,0.0,0.0,0.0,0.0,0.0,0.0,0.0,0,0.0,0.0,-0.0009196699,-0.0018393398,90.0,60.0,60.0,89.9543762207,119.1115570068,119.7481765747,36.2999992371,16.057592392,1.1999999285,2,-1,10,1,23,0
2,1532115359673,60673, RC,0,40.0434592604,-88.2344147,0,-108.5893015492,514.8586099044,526.1853519471,-110.27984021190001,515.8784394971,0.000643769,0.0,-110.7098251651,515.9576437721,0.34441558229999997,-1.2846242261,0.0,0.0,1500,1500,40.0480986667,-88.2331191667,0.0,0.0,0.0,0.0,0.0,0.0,0.0,0.0,0.0,0.0,0.0,0.0,0.0,0,0.0,0.0,-0.000551802,-0.0007357360000000001,90.0,60.0,60.0,89.9543762207,119.1115570068,119.81184387209998,36.2999992371,16.095092773399998,0.3100000024,2,-1,10,1,86,10
3,1532115359874,60874, RC,0,40.0434592604,-88.2344147,0,-108.4797196904,514.7917193741,526.0972951083,-110.2656538342,515.76724457,0.0013795048999999998,0.0,-110.60024330629999,515.8907532418,0.3652141296,-1.1350549282,0.0,0.0,1500,1500,40.0480976667,-88.2331193333,0.0,0.0,0.0,0.0,0.0,0.0,0.0,0.0,0.0,0.0,0.0,0.0,0.0,0,0.0,0.0,-0.001103604,-0.0016554058999999999,90.0,60.0,60.0,89.9543762207,119.3025436401,119.87550354,36.2999992371,16.095092773399998,0.3100000024,2,-1,10,1,241,19
4,1532115360074,61074, RC,0,40.0434592604,-88.2344147,0,-108.4797196904,514.7917193741,526.0972951083,-110.2656538342,515.76724457,0.001103604,0.0,-110.60024330629999,515.8907532418,0.3652141296,-1.1350549282,0.0,0.0,1500,1500,40.0480976667,-88.2331193333,0.0,0.0,0.0,0.0,0.0,0.0,0.0,0.0,0.0,0.0,0.0,0.0,0.0,0,0.0,0.0,-0.0016554058999999999,-0.000551802,90.0,60.0,60.0,89.9543762207,119.3025436401,120.00283050540001,36.2999992371,16.095092773399998,0.3100000024,2,-1,10,1,345,28
5,1532115360275,61275, RC,0,40.0434592604,-88.2344147,0,-108.4797196904,514.7917193741,526.0972951083,-110.2656538342,515.76724457,0.0011955709,0.0,-110.60024330629999,515.8907532418,0.3652141296,-1.1350549282,0.0,0.0,1500,1500,40.0480976667,-88.2331193333,0.0,0.0,0.0,0.0,0.0,0.0,0.0,0.0,0.0,0.0,0.0,0.0,0.0,0,0.0,0.0,-0.000551802,-0.0018393398,90.0,60.0,60.0,89.9543762207,119.3025436401,119.4935302734,36.2999992371,16.095092773399998,0.3100000024,2,-1,10,1,276,36
6,1532115360476,61476, RC,0,40.0434592604,-88.2344147,0,-108.4797196904,514.7917193741,526.0972951083,-110.2656538342,515.76724457,0.0006437689,0.0,-110.60024330629999,515.8907532418,0.3652141296,-1.1350549282,0.0,0.0,1500,1500,40.0480976667,-88.2331193333,0.0,0.0,0.0,0.0,0.0,0.0,0.0,0.0,0.0,0.0,0.0,0.0,0.0,0,0.0,0.0,-0.00036786800000000004,-0.0009196699,90.0,60.0,60.0,89.8907089233,119.3025436401,119.5571899414,36.2999992371,16.095092773399998,0.3100000024,2,-1,10,1,301,45
7,1532115360676,61676, RC,0,40.0434592604,-88.2344147,0,-108.4797196904,514.7917193741,526.0972951083,-110.2656538342,515.76724457,0.00018393400000000002,0.0,-110.60024330629999,515.8907532418,0.3652141296,-1.1350549282,0.0,0.0,1500,1500,40.0480976667,-88.2331193333,0.0,0.0,0.0,0.0,0.0,0.0,0.0,0.0,0.0,0.0,0.0,0.0,0.0,0,0.0,0.0,0.0,-0.00036786800000000004,90.0,60.0,60.0,89.8907089233,119.3025436401,119.5571899414,36.2999992371,16.1325778961,0.2699999809,2,-1,10,1,312,53
8,1532115360877,61877, RC,0,40.0434592604,-88.2344147,0,-108.37323809450001,514.6907924592,525.9765874802,-110.2372818866,515.4336597902,0.00018393400000000002,0.0,-110.49376171040001,515.7898263269,0.3970495408,-1.0103619093,0.0,0.0,1500,1500,40.0480946667,-88.2331196667,0.0,0.0,0.0,0.0,0.0,0.0,0.0,0.0,0.0,0.0,0.0,0.0,0.0,0,0.0,0.0,-0.00036786800000000004,0.0,90.0,60.0,60.0,89.82704925540001,119.3025436401,119.62085723879999,36.2999992371,16.1325778961,0.2699999809,2,-1,10,1,341,62
9,1532115361078,62078, RC,0,40.0434592604,-88.2344147,0,-108.37323809450001,514.6907924592,525.9765874802,-110.2372818866,515.4336597902,0.000551802,0.0,-110.49376171040001,515.7898263269,0.3970495408,-1.0103619093,0.0,0.0,1500,1500,40.0480946667,-88.2331196667,0.0,0.0,0.0,0.0,0.0,0.0,0.0,0.0,0.0,0.0,0.0,0.0,0.0,0,0.0,0.0,-0.001103604,0.0,90.0,60.0,60.0,89.82704925540001,119.3025436401,119.42987060549999,36.2999992371,16.1325778961,0.2699999809,2,-1,10,1,315,71
10,1532115361278,62278, RC,0,40.0434592604,-88.2344147,0,-108.37323809450001,514.6907924592,525.9765874802,-110.2372818866,515.4336597902,0.00018393400000000002,0.0,-110.49376171040001,515.7898263269,0.3970495408,-1.0103619093,0.0,0.0,1500,1500,40.0480946667,-88.2331196667,0.0,0.0,0.0,0.0,0.0,0.0,0.0,0.0,0.0,0.0,0.0,0.0,0.0,0,0.0,0.0,-0.00036786800000000004,0.0,90.0,60.0,60.0,89.7633895874,119.3025436401,119.42987060549999,36.2999992371,16.1325778961,0.2699999809,2,-1,10,1,315,79
11,1532115361479,62479, RC,0,40.0434592604,-88.2344147,0,-108.37323809450001,514.6907924592,525.9765874802,-110.2372818866,515.4336597902,0.00018393400000000002,0.0,-110.49376171040001,515.7898263269,0.3970495408,-1.0103619093,0.0,0.0,1500,1500,40.0480946667,-88.2331196667,0.0,0.0,0.0,0.0,0.0,0.0,0.0,0.0,0.0,0.0,0.0,0.0,0.0,0,0.0,0.0,-0.00036786800000000004,0.0,90.0,60.0,60.0,89.7633895874,119.3025436401,119.42987060549999,36.2999992371,16.1325778961,0.2699999809,2,-1,10,1,306,88
12,1532115361680,62680, RC,0,40.0434592604,-88.2344147,0,-108.37323809450001,514.6907924592,525.9765874802,-110.2372818866,515.4336597902,0.0,0.0,-110.49376171040001,515.7898263269,0.3970495408,-1.0103619093,0.0,0.0,1500,1500,40.0480946667,-88.2331196667,0.0,0.0,0.0,0.0,0.0,0.0,0.0,0.0,0.0,0.0,0.0,0.0,0.0,0,0.0,0.0,0.0,0.0,90.0,60.0,60.0,89.7633895874,119.3025436401,119.42987060549999,36.2999992371,16.1595249176,0.200000003,2,-1,10,1,328,96
13,1532115361880,62880, RC,0,40.0434592604,-88.2344147,0,-108.2930815126,514.5852722029,525.8568187935,-110.20890778120001,515.3965948147,0.0,0.0,-110.41360512850001,515.6843060706,0.4292345938,-0.9689554886,0.0,0.0,1500,1500,40.0480943333,-88.23312,0.0,0.0,0.0,0.0,0.0,0.0,0.0,0.0,0.0,0.0,0.0,0.0,0.0,0,0.0,0.0,0.0,0.0,90.0,60.0,60.0,89.7633895874,119.3025436401,119.42987060549999,35.7610015869,16.1595249176,0.200000003,2,-1,10,1,292,105
14,1532115362081,63081, RC,0,40.0434592604,-88.2344147,0,-108.2930815126,514.5852722029,525.8568187935,-110.20890778120001,515.3965948147,0.000551802,0.0,-110.41360512850001,515.6843060706,0.4292345938,-0.9689554886,0.0,0.0,1500,1500,40.0480943333,-88.23312,0.0,0.0,0.0,0.0,0.0,0.0,0.0,0.0,0.0,0.0,0.0,0.0,0.0,0,0.0,0.0,-0.00036786800000000004,-0.0007357360000000001,90.0,60.0,60.0,89.7633895874,119.3025436401,119.42987060549999,35.7610015869,16.1595249176,0.200000003,2,-1,10,1,314,114
15,1532115362281,63281, RC,0,40.0434592604,-88.2344147,0,-108.2930815126,514.5852722029,525.8568187935,-110.20890778120001,515.3965948147,0.000643769,0.0,-110.41360512850001,515.6843060706,0.4292345938,-0.9689554886,0.0,0.0,1500,1500,40.0480943333,-88.23312,0.0,0.0,0.0,0.0,0.0,0.0,0.0,0.0,0.0,0.0,0.0,0.0,0.0,0,0.0,0.0,-0.0007357360000000001,-0.000551802,90.0,60.0,60.0,89.7633895874,119.3025436401,119.1115570068,35.7610015869,16.1595249176,0.200000003,2,-1,10,1,293,122
16,1532115362482,63482, AUTO,0,40.0434592604,-88.2344147,0,-108.2930815126,514.5852722029,525.8568187935,-110.20890778120001,515.3965948147,0.00036786800000000004,0.0,-110.41360512850001,515.6843060706,0.4292345938,-0.9689554886,0.0,0.0,1690,1750,40.0480943333,-88.23312,0.0,0.0,0.0,0.0,0.0,0.0,0.0,0.0,0.0,0.0,0.0,0.0,0.0,0,0.37999999520000005,0.5,-0.00036786800000000004,-0.00036786800000000004,90.0,60.0,60.0,89.6997299194,119.3025436401,119.1752166748,35.7610015869,16.1595249176,0.200000003,2,-1,10,1,325,131
17,1532115362683,63683, AUTO,0,40.0434592604,-88.2344147,0,-108.2930815126,514.5852722029,525.8568187935,-110.20890778120001,515.3965948147,0.0230837166,0.0,-110.41360512850001,515.6843060706,0.4292345938,-0.9689554886,0.0,0.0,1530,1750,40.0480943333,-88.23312,0.0,0.0,0.0,0.0,0.0,0.0,0.0,0.0,0.0,0.0,0.0,0.0,0.0,0,0.0800000429,0.5,0.0152665218,0.030900910499999996,90.0,60.0,60.0,89.63606262209998,118.9205703735,119.6845169067,35.7610015869,16.1683921814,63.0199966431,2,-1,10,1,297,139
18,1532115362883,63883, AUTO,0,40.0434592604,-88.2344147,0,-108.2109343962,514.4527410282,525.7102139719,-110.1663481037,515.1371399858,0.0796434134,0.0,-110.33145801209999,515.5517748958999,0.472840121,-0.9484579909,0.0,0.0,1530,1750,40.048092,-88.2331205,0.0,0.0,0.0,0.0,0.0,0.0,0.0,0.0,0.0,0.0,0.0,0.0,0.0,0,0.059999942800000004,0.5,0.1092567891,0.0500300452,90.0,60.0,60.0,89.6997299194,119.4935302734,119.1115570068,35.7610015869,16.1683921814,63.0199966431,2,-1,10,1,286,148
19,1532115363084,64084, AUTO,0,40.0434592604,-88.2344147,0,-108.2109343962,514.4527410282,525.7102139719,-110.1663481037,515.1371399858,0.1856813729,0.0,-110.33145801209999,515.5517748958999,0.472840121,-0.9484579909,0.0,0.0,1550,1750,40.048092,-88.2331205,0.0,0.0,0.0,0.0,0.0,0.0,0.0,0.0,0.0,0.0,0.0,0.0,0.0,0,0.1000000238,0.5,0.2389302552,0.1324324757,90.0,60.0,60.0,89.3177566528,118.9205703735,119.6845169067,35.7610015869,16.1683921814,63.0199966431,2,-1,10,1,291,156
20,1532115363285,64285, AUTO,0,40.0434592604,-88.2344147,0,-108.2109343962,514.4527410282,525.7102139719,-110.1663481037,515.1371399858,0.1947861016,0.0,-110.33145801209999,515.5517748958999,0.472840121,-0.9484579909,0.0,0.0,1530,1750,40.048092,-88.2331205,0.0,0.0,0.0,0.0,0.0,0.0,0.0,0.0,0.0,0.0,0.0,0.0,0.0,0,0.059999942800000004,0.5,0.1673799306,0.2221922725,90.0,60.0,60.0,89.3814163208,118.2202911377,119.7481765747,35.7610015869,16.1683921814,63.0199966431,2,-1,10,1,273,165
21,1532115363485,64485, AUTO,0,40.0434592604,-88.2344147,0,-108.2109343962,514.4527410282,525.7102139719,-110.1663481037,515.1371399858,0.21281161899999998,0.0,-110.33145801209999,515.5517748958999,0.472840121,-0.9484579909,0.0,0.0,1510,1750,40.048092,-88.2331205,0.0,0.0,0.0,0.0,0.0,0.0,0.0,0.0,0.0,0.0,0.0,0.0,0.0,0,0.019999980900000002,0.5,0.17676056920000002,0.24886268379999998,90.0,60.0,60.0,89.1904296875,119.3025436401,119.1752166748,35.7610015869,16.1683921814,63.0199966431,2,-1,10,1,244,174
22,1532115363686,64686, AUTO,0,40.0434592604,-88.2344147,0,-108.2109343962,514.4527410282,525.7102139719,-110.1663481037,515.1371399858,0.2438044846,0.0,-110.33145801209999,515.5517748958999,0.472840121,-0.9484579909,0.0,0.0,1540,1750,40.048092,-88.2331205,0.0,0.0,0.0,0.0,0.0,0.0,0.0,0.0,0.0,0.0,0.0,0.0,0.0,0,0.0800000429,0.5,0.2567718327,0.2308371514,90.0,60.0,60.0,89.3814163208,119.87550354,118.4749450684,35.7610015869,16.151596069300002,44.9199981689,2,-1,10,1,293,182
23,1532115363886,64886, AUTO,0,40.0434592604,-88.2344147,0,-108.1304098915,514.3166953302,525.5605090174,-110.1521617244,515.0259450594,0.25907105210000003,0.0,-110.25093350739999,515.4157291979,0.5039289323,-0.932988052,0.0,0.0,1540,1750,40.048091,-88.2331206667,0.0,0.0,0.0,0.0,0.0,0.0,0.0,0.0,0.0,0.0,0.0,0.0,0.0,0,0.0800000429,0.5,0.2641292214,0.2540128529,90.0,60.0,60.0,89.25408935549999,120.0664901733,118.9842300415,36.2999992371,16.151596069300002,44.9199981689,2,-1,10,1,286,191
24,1532115364087,65087, AUTO,0,40.0434592604,-88.2344147,0,-108.1304098915,514.3166953302,525.5605090174,-110.1521617244,515.0259450594,0.2282620668,0.0,-110.25093350739999,515.4157291979,0.5039289323,-0.932988052,0.0,0.0,1540,1750,40.048091,-88.2331206667,0.0,0.0,0.0,0.0,0.0,0.0,0.0,0.0,0.0,0.0,0.0,0.0,0.0,0,0.0800000429,0.5,0.226790607,0.2297335416,90.0,60.0,60.0,89.82704925540001,118.9205703735,119.1752166748,36.2999992371,16.151596069300002,44.9199981689,2,-1,10,1,310,199
25,1532115364288,65288, AUTO,0,40.0434592604,-88.2344147,0,-108.1304098915,514.3166953302,525.5605090174,-110.1521617244,515.0259450594,0.2258709371,0.0,-110.25093350739999,515.4157291979,0.5039289323,-0.932988052,0.0,0.0,1540,1750,40.048091,-88.2331206667,0.0,0.0,0.0,0.0,0.0,0.0,0.0,0.0,0.0,0.0,0.0,0.0,0.0,0,0.0800000429,0.5,0.2025113255,0.24923056359999998,90.0,60.0,60.0,89.82704925540001,118.7932434082,119.2388916016,36.2999992371,16.151596069300002,44.9199981689,2,-1,10,1,314,208
26,1532115364488,65488, AUTO,0,40.0434592604,-88.2344147,0,-108.1304098915,514.3166953302,525.5605090174,-110.1521617244,515.0259450594,0.2217324227,0.0,-110.25093350739999,515.4157291979,0.5039289323,-0.932988052,0.0,0.0,1540,1750,40.048091,-88.2331206667,0.0,0.0,0.0,0.0,0.0,0.0,0.0,0.0,0.0,0.0,0.0,0.0,0.0,0,0.0800000429,0.5,0.1798874438,0.2635774016,90.0,60.0,60.0,89.3814163208,118.34761810299999,119.4935302734,36.2999992371,16.151596069300002,44.9199981689,2,-1,10,1,327,216
27,1532115364689,65689, AUTO,0,40.0434592604,-88.2344147,0,-108.1304098915,514.3166953302,525.5605090174,-110.1521617244,515.0259450594,0.18954397739999998,0.0,-110.25093350739999,515.4157291979,0.5039289323,-0.932988052,0.0,0.0,1540,1750,40.048091,-88.2331206667,0.0,0.0,0.0,0.0,0.0,0.0,0.0,0.0,0.0,0.0,0.0,0.0,0.0,0,0.0800000429,0.5,0.12286790460000001,0.2562200427,90.0,60.0,60.0,90.40000915530001,118.411277771,119.7481765747,36.2999992371,16.1509895325,81.83000183109999,2,-1,10,1,317,225
28,1532115364890,65890, AUTO,0,40.0434592604,-88.2344147,0,-108.0695478554,514.2162226654,525.4496653591,-110.25147176899999,515.0630100349,0.1774043441,0.0,-110.19007147129999,515.3152565331,0.5066260211,-0.9008837706999999,0.0,0.0,1540,1750,40.0480913333,-88.2331195,0.0,0.0,0.0,0.0,0.0,0.0,0.0,0.0,0.0,0.0,0.0,0.0,0.0,0,0.0800000429,0.5,0.1434685141,0.21134015920000002,90.0,60.0,60.0,90.4636688232,119.1752166748,119.42987060549999,35.7610015869,16.1509895325,81.83000183109999,2,-1,10,1,340,234
29,1532115365090,66090, AUTO,0,40.0434592604,-88.2344147,0,-108.0695478554,514.2162226654,525.4496653591,-110.25147176899999,515.0630100349,0.1837500632,0.0,-110.19007147129999,515.3152565331,0.5066260211,-0.9008837706999999,0.0,0.0,1540,1750,40.0480913333,-88.2331195,0.0,0.0,0.0,0.0,0.0,0.0,0.0,0.0,0.0,0.0,0.0,0.0,0.0,0,0.0800000429,0.5,0.1499062032,0.21759390829999997,90.0,60.0,60.0,90.7819747925,119.4935302734,119.3662033081,35.7610015869,16.1509895325,81.83000183109999,2,-1,10,1,329,242
30,1532115365291,66291, AUTO,0,40.0434592604,-88.2344147,0,-108.0695478554,514.2162226654,525.4496653591,-110.25147176899999,515.0630100349,0.21124818920000002,0.0,-110.19007147129999,515.3152565331,0.5066260211,-0.9008837706999999,0.0,0.0,1780,1750,40.0480913333,-88.2331195,0.0,0.0,0.0,0.0,0.0,0.0,0.0,0.0,0.0,0.0,0.0,0.0,0.0,0,0.5599999428,0.5,0.2150188237,0.2074775398,90.0,60.0,60.0,90.7183227539,119.62085723879999,119.2388916016,35.7610015869,16.1509895325,81.83000183109999,2,-1,10,1,331,251
31,1532115365491,66491, AUTO,0,40.0434592604,-88.2344147,0,-108.0695478554,514.2162226654,525.4496653591,-110.25147176899999,515.0630100349,0.1626896262,0.0,-110.19007147129999,515.3152565331,0.5066260211,-0.9008837706999999,0.0,0.0,1540,1750,40.0480913333,-88.2331195,0.0,0.0,0.0,0.0,0.0,0.0,0.0,0.0,0.0,0.0,0.0,0.0,0.0,0,0.0800000429,0.5,0.18779660760000003,0.1375826299,90.0,60.0,60.0,89.7633895874,119.5571899414,119.2388916016,35.7610015869,16.1509895325,81.83000183109999,2,-1,10,1,295,259
32,1532115365692,66692, AUTO,0,40.0434592604,-88.2344147,0,-108.0695478554,514.2162226654,525.4496653591,-110.25147176899999,515.0630100349,0.1831982434,0.0,-110.19007147129999,515.3152565331,0.5066260211,-0.9008837706999999,0.0,0.0,1520,1750,40.0480913333,-88.2331195,0.0,0.0,0.0,0.0,0.0,0.0,0.0,0.0,0.0,0.0,0.0,0.0,0.0,0,0.0399999619,0.5,0.19717723129999998,0.1692192703,90.0,60.0,60.0,89.9543762207,119.1752166748,119.6845169067,35.7610015869,16.144653320299998,29.3700008392,2,-1,10,1,281,268
33,1532115365893,66893, AUTO,0,40.0434592604,-88.2344147,0,-108.0261861799,514.1485331824,525.3745055426,-110.25147042120001,515.2483349129,0.20858114960000002,0.0,-110.14670979579999,515.2475670501,0.4822218223,-0.886169722,0.0,0.0,1530,1750,40.048093,-88.2331195,0.0,0.0,0.0,0.0,0.0,0.0,0.0,0.0,0.0,0.0,0.0,0.0,0.0,0,0.059999942800000004,0.5,0.19680938120000002,0.2203529179,90.0,60.0,60.0,90.01803588870001,118.0293045044,120.51211547850001,36.2999992371,16.144653320299998,29.3700008392,2,-1,10,1,276,277
34,1532115366093,67093, AUTO,0,40.0434592604,-88.2344147,0,-108.0261861799,514.1485331824,525.3745055426,-110.25147042120001,515.2483349129,0.2550244927,0.0,-110.14670979579999,515.2475670501,0.4822218223,-0.886169722,0.0,0.0,1540,1750,40.048093,-88.2331195,0.0,0.0,0.0,0.0,0.0,0.0,0.0,0.0,0.0,0.0,0.0,0.0,0.0,0,0.0800000429,0.5,0.2541967928,0.25585219260000003,90.0,60.0,60.0,89.82704925540001,119.62085723879999,118.856918335,36.2999992371,16.144653320299998,29.3700008392,2,-1,10,1,251,285
35,1532115366294,67294, AUTO,0,40.0434592604,-88.2344147,0,-108.0261861799,514.1485331824,525.3745055426,-110.25147042120001,515.2483349129,0.2667042911,0.0,-110.14670979579999,515.2475670501,0.4822218223,-0.886169722,0.0,0.0,1550,1750,40.048093,-88.2331195,0.0,0.0,0.0,0.0,0.0,0.0,0.0,0.0,0.0,0.0,0.0,0.0,0.0,0,0.1000000238,0.5,0.267440021,0.2779242396,90.0,60.0,60.0,90.145362854,120.6394424438,118.2202911377,36.2999992371,16.144653320299998,29.3700008392,2,-1,10,1,226,294
36,1532115366494,67494, AUTO,0,40.0434592604,-88.2344147,0,-108.0261861799,514.1485331824,525.3745055426,-110.25147042120001,515.2483349129,0.2661525011,0.0,-110.14670979579999,515.2475670501,0.4822218223,-0.886169722,0.0,0.0,1490,1750,40.048093,-88.2331195,0.0,0.0,0.0,0.0,0.0,0.0,0.0,0.0,0.0,0.0,0.0,0.0,0.0,0,-0.019999980900000002,0.5,0.240585655,0.2917193174,90.0,60.0,60.0,89.7633895874,118.53860473629999,119.81184387209998,36.2999992371,16.144653320299998,29.3700008392,2,-1,10,1,216,302
37,1532115366695,67695, AUTO,0,40.0434592604,-88.2344147,0,-108.0261861799,514.1485331824,525.3745055426,-110.25147042120001,515.2483349129,0.2624737918,0.0,-110.14670979579999,515.2475670501,0.4822218223,-0.886169722,0.0,0.0,1500,1750,40.048093,-88.2331195,0.0,0.0,0.0,0.0,0.0,0.0,0.0,0.0,0.0,0.0,0.0,0.0,0.0,0,0.0,0.5,0.2354355007,0.28951209780000003,90.0,60.0,60.0,90.2726821899,119.3025436401,119.3025436401,36.2999992371,16.135175705,38.4900016785,2,-1,10,1,305,311
38,1532115366896,67896, AUTO,0,40.0434592604,-88.2344147,0,-107.9660512008,514.1304496386,525.3444464897,-110.0670351015,515.5077897418,0.2576915324,0.0,-110.08657481670001,515.2294835063,0.4377516642,-0.86322323,0.0,0.0,1440,1750,40.0480953333,-88.2331216667,0.0,0.0,0.0,0.0,0.0,0.0,0.0,0.0,0.0,0.0,0.0,0.0,0.0,0,-0.1200000048,0.5,0.2168581784,0.2985248864,90.0,60.0,60.0,89.5087432861,120.13014221190001,118.53860473629999,35.223999023400005,16.135175705,38.4900016785,2,-1,10,1,311,320
39,1532115367096,68096, AUTO,0,40.0434592604,-88.2344147,0,-107.9660512008,514.1304496386,525.3444464897,-110.0670351015,515.5077897418,0.2508859634,0.0,-110.08657481670001,515.2294835063,0.4377516642,-0.86322323,0.0,0.0,1440,1750,40.0480953333,-88.2331216667,0.0,0.0,0.0,0.0,0.0,0.0,0.0,0.0,0.0,0.0,0.0,0.0,0.0,0,-0.1200000048,0.5,0.2118919492,0.2898799777,90.0,60.0,60.0,89.12677001950001,119.3025436401,119.3662033081,35.223999023400005,16.135175705,38.4900016785,2,-1,10,1,320,328
40,1532115367297,68297, AUTO,0,40.0434592604,-88.2344147,0,-107.9660512008,514.1304496386,525.3444464897,-110.0670351015,515.5077897418,0.2252271771,0.0,-110.08657481670001,515.2294835063,0.4377516642,-0.86322323,0.0,0.0,1490,1750,40.0480953333,-88.2331216667,0.0,0.0,0.0,0.0,0.0,0.0,0.0,0.0,0.0,0.0,0.0,0.0,0.0,0,-0.019999980900000002,0.5,0.2028791904,0.2475751489,90.0,60.0,60.0,89.12677001950001,118.53860473629999,119.2388916016,35.223999023400005,16.135175705,38.4900016785,2,-1,10,1,264,337
41,1532115367498,68498, AUTO,0,40.0434592604,-88.2344147,0,-107.9660512008,514.1304496386,525.3444464897,-110.0670351015,515.5077897418,0.2344238758,0.0,-110.08657481670001,515.2294835063,0.4377516642,-0.86322323,0.0,0.0,1530,1750,40.0480953333,-88.2331216667,0.0,0.0,0.0,0.0,0.0,0.0,0.0,0.0,0.0,0.0,0.0,0.0,0.0,0,0.059999942800000004,0.5,0.2198011279,0.2490466237,90.0,60.0,60.0,89.3177566528,120.2574768066,118.856918335,35.223999023400005,16.135175705,38.4900016785,2,-1,10,1,376,345
42,1532115367698,68698, AUTO,0,40.0434592604,-88.2344147,0,-107.9660512008,514.1304496386,525.3444464897,-110.0670351015,515.5077897418,0.2579674125,0.0,-110.08657481670001,515.2294835063,0.4377516642,-0.86322323,0.0,0.0,1530,1750,40.0480953333,-88.2331216667,0.0,0.0,0.0,0.0,0.0,0.0,0.0,0.0,0.0,0.0,0.0,0.0,0.0,0,0.059999942800000004,0.5,0.29245501760000003,0.2234797925,90.0,60.0,60.0,88.93578338620001,119.3662033081,119.62085723879999,35.223999023400005,16.0723609924,69.84000396729999,2,-1,10,1,378,354
43,1532115367899,68899, AUTO,0,40.0434592604,-88.2344147,0,-107.9597911342,514.0371618963,525.2518636922,-110.0386628801,515.2112699374,0.2410455048,0.0,-110.0803147501,515.136195764,0.416215661,-0.9918804998,0.0,0.0,1490,1750,40.0480926667,-88.233122,0.0,0.0,0.0,0.0,0.0,0.0,0.0,0.0,0.0,0.0,0.0,0.0,0.0,0,-0.019999980900000002,0.5,0.2541967928,0.2278942168,90.0,60.0,60.0,90.0816955566,118.856918335,119.62085723879999,36.2999992371,16.0723609924,69.84000396729999,2,-1,10,1,412,363
44,1532115368099,69099, AUTO,0,40.0434592604,-88.2344147,0,-107.9597911342,514.0371618963,525.2518636922,-110.0386628801,515.2112699374,0.2656006813,0.0,-110.0803147501,515.136195764,0.416215661,-0.9918804998,0.0,0.0,1480,1750,40.0480926667,-88.233122,0.0,0.0,0.0,0.0,0.0,0.0,0.0,0.0,0.0,0.0,0.0,0.0,0.0,0,-0.040000021499999996,0.5,0.321516633,0.2096847445,90.0,60.0,60.0,90.0816955566,119.1752166748,119.1752166748,36.2999992371,16.0723609924,69.84000396729999,2,-1,10,1,391,371
45,1532115368300,69300, AUTO,0,40.0434592604,-88.2344147,0,-107.9597911342,514.0371618963,525.2518636922,-110.0386628801,515.2112699374,0.2361712456,0.0,-110.0803147501,515.136195764,0.416215661,-0.9918804998,0.0,0.0,1290,1750,40.0480926667,-88.233122,0.0,0.0,0.0,0.0,0.0,0.0,0.0,0.0,0.0,0.0,0.0,0.0,0.0,0,-0.42000001670000003,0.5,0.253093183,0.21924930809999998,90.0,60.0,60.0,90.2726821899,119.81184387209998,118.72959136959999,36.2999992371,16.0723609924,69.84000396729999,2,-1,10,1,355,380
46,1532115368501,69501, AUTO,0,40.0434592604,-88.2344147,0,-107.9597911342,514.0371618963,525.2518636922,-110.0386628801,515.2112699374,0.2110642493,0.0,-110.0803147501,515.136195764,0.416215661,-0.9918804998,0.0,0.0,1530,1750,40.0480926667,-88.233122,0.0,0.0,0.0,0.0,0.0,0.0,0.0,0.0,0.0,0.0,0.0,0.0,0.0,0,0.059999942800000004,0.5,0.19018775219999998,0.2319407612,90.0,60.0,60.0,90.4636688232,118.9205703735,120.0664901733,36.2999992371,16.0723609924,69.84000396729999,2,-1,10,1,240,388
47,1532115368701,69701, AUTO,0,40.0434592604,-88.2344147,0,-107.9597911342,514.0371618963,525.2518636922,-110.0386628801,515.2112699374,0.2457358241,0.0,-110.0803147501,515.136195764,0.416215661,-0.9918804998,0.0,0.0,1520,1750,40.0480926667,-88.233122,0.0,0.0,0.0,0.0,0.0,0.0,0.0,0.0,0.0,0.0,0.0,0.0,0.0,0,0.0399999619,0.5,0.2321247011,0.2593469322,90.0,60.0,60.0,89.6997299194,119.2388916016,119.4935302734,36.2999992371,16.0203704834,53.229999542200005,2,-1,10,1,151,397
48,1532115368902,69902, AUTO,0,40.0434592604,-88.2344147,0,-107.8445485625,514.0649757865,525.2554102387,-109.7549171182,515.4892572537,0.2901558876,0.0,-109.9650721784,515.1640096542,0.3620101091,-0.8874155998000001,0.0,0.0,1490,1750,40.0480951667,-88.2331253333,0.0,0.0,0.0,0.0,0.0,0.0,0.0,0.0,0.0,0.0,0.0,0.0,0.0,0,-0.019999980900000002,0.5,0.2689115107,0.31140026449999997,90.0,60.0,60.0,90.0816955566,119.42987060549999,119.2388916016,36.2999992371,16.0203704834,53.229999542200005,2,-1,10,1,315,406
49,1532115369103,70103, AUTO,0,40.0434592604,-88.2344147,0,-107.8445485625,514.0649757865,525.2554102387,-109.7549171182,515.4892572537,0.2635774016,0.0,-109.9650721784,515.1640096542,0.3620101091,-0.8874155998000001,0.0,0.0,1370,1750,40.0480951667,-88.2331253333,0.0,0.0,0.0,0.0,0.0,0.0,0.0,0.0,0.0,0.0,0.0,0.0,0.0,0,-0.2599999905,0.5,0.240585655,0.28656914829999997,90.0,60.0,60.0,90.6546554565,119.87550354,119.2388916016,36.2999992371,16.0203704834,53.229999542200005,2,-1,10,1,267,415
50,1532115369303,70303, AUTO,0,40.0434592604,-88.2344147,0,-107.8445485625,514.0649757865,525.2554102387,-109.7549171182,515.4892572537,0.2232958674,0.0,-109.9650721784,515.1640096542,0.3620101091,-0.8874155998000001,0.0,0.0,1510,1750,40.0480951667,-88.2331253333,0.0,0.0,0.0,0.0,0.0,0.0,0.0,0.0,0.0,0.0,0.0,0.0,0.0,0,0.019999980900000002,0.5,0.2065578699,0.240033865,90.0,60.0,60.0,90.145362854,118.53860473629999,119.4935302734,36.2999992371,16.0203704834,53.229999542200005,2,-1,10,1,320,424
51,1532115369504,70504, AUTO,0,40.0434592604,-88.2344147,0,-107.8445485625,514.0649757865,525.2554102387,-109.7549171182,515.4892572537,0.24665549399999998,0.0,-109.9650721784,515.1640096542,0.3620101091,-0.8874155998000001,0.0,0.0,1500,1750,40.0480951667,-88.2331253333,0.0,0.0,0.0,0.0,0.0,0.0,0.0,0.0,0.0,0.0,0.0,0.0,0.0,0,0.0,0.5,0.2459197491,0.2473912239,90.0,60.0,60.0,89.63606262209998,119.2388916016,119.1752166748,36.2999992371,16.0203704834,53.229999542200005,2,-1,10,1,328,432
52,1532115369704,70704, AUTO,0,40.0434592604,-88.2344147,0,-107.8445485625,514.0649757865,525.2554102387,-109.7549171182,515.4892572537,0.27075085039999996,0.0,-109.9650721784,515.1640096542,0.3620101091,-0.8874155998000001,0.0,0.0,1520,1750,40.0480951667,-88.2331253333,0.0,0.0,0.0,0.0,0.0,0.0,0.0,0.0,0.0,0.0,0.0,0.0,0.0,0,0.0399999619,0.5,0.2641292214,0.27737247940000004,90.0,60.0,60.0,89.0631027222,119.42987060549999,118.9205703735,36.2999992371,15.955271720899999,39.9199981689,2,-1,10,1,313,441
53,1532115369905,70905, AUTO,0,40.0434592604,-88.2344147,0,-107.7319075833,514.0457094609,525.2134378771,-109.55629890889999,515.1556724732,0.2799475193,0.0,-109.8524311992,515.1447433286,0.3375647872,-0.7569062872,0.0,0.0,1260,1750,40.0480921667,-88.2331276667,0.0,0.0,0.0,0.0,0.0,0.0,0.0,0.0,0.0,0.0,0.0,0.0,0.0,0,-0.48000001909999995,0.5,0.2622898817,0.2976051867,90.0,60.0,60.0,88.681137085,119.2388916016,119.3025436401,35.223999023400005,15.955271720899999,39.9199981689,2,-1,10,1,285,450
54,1532115370106,71106, AUTO,0,40.0434592604,-88.2344147,0,-107.7319075833,514.0457094609,525.2134378771,-109.55629890889999,515.1556724732,0.2394820452,0.0,-109.8524311992,515.1447433286,0.3375647872,-0.7569062872,0.0,0.0,1480,1750,40.0480921667,-88.2331276667,0.0,0.0,0.0,0.0,0.0,0.0,0.0,0.0,0.0,0.0,0.0,0.0,0.0,0,-0.040000021499999996,0.5,0.21998505289999998,0.2589790523,90.0,60.0,60.0,89.25408935549999,119.0479049683,119.5571899414,35.223999023400005,15.955271720899999,39.9199981689,2,-1,10,1,306,458
55,1532115370306,71306, AUTO,0,40.0434592604,-88.2344147,0,-107.7319075833,514.0457094609,525.2134378771,-109.55629890889999,515.1556724732,0.2301014215,0.0,-109.8524311992,515.1447433286,0.3375647872,-0.7569062872,0.0,0.0,1550,1750,40.0480921667,-88.2331276667,0.0,0.0,0.0,0.0,0.0,0.0,0.0,0.0,0.0,0.0,0.0,0.0,0.0,0,0.1000000238,0.5,0.21262769399999998,0.2475751489,90.0,60.0,60.0,88.93578338620001,118.9842300415,119.62085723879999,35.223999023400005,15.955271720899999,39.9199981689,2,-1,10,1,271,467
56,1532115370507,71507, AUTO,0,40.0434592604,-88.2344147,0,-107.7319075833,514.0457094609,525.2134378771,-109.55629890889999,515.1556724732,0.2678998709,0.0,-109.8524311992,515.1447433286,0.3375647872,-0.7569062872,0.0,0.0,1500,1750,40.0480921667,-88.2331276667,0.0,0.0,0.0,0.0,0.0,0.0,0.0,0.0,0.0,0.0,0.0,0.0,0.0,0,0.0,0.5,0.2788439393,0.2569557726,90.0,60.0,60.0,90.20902252200001,119.1115570068,119.4935302734,35.223999023400005,15.955271720899999,39.9199981689,2,-1,10,1,245,476
57,1532115370708,71708, AUTO,0,40.0434592604,-88.2344147,0,-107.7319075833,514.0457094609,525.2134378771,-109.55629890889999,515.1556724732,0.2328604311,0.0,-109.8524311992,515.1447433286,0.3375647872,-0.7569062872,0.0,0.0,1480,1750,40.0480921667,-88.2331276667,0.0,0.0,0.0,0.0,0.0,0.0,0.0,0.0,0.0,0.0,0.0,0.0,0.0,0,-0.040000021499999996,0.5,0.1844857931,0.281235069,90.0,60.0,60.0,89.5087432861,119.4935302734,119.2388916016,35.223999023400005,15.908126831099999,51.690002441400004,2,-1,10,1,225,485
58,1532115370908,71908, AUTO,0,40.0434592604,-88.2344147,0,-107.677692819,514.0104196193,525.1677798647,-109.71235837409999,515.1000750103,0.23451584579999998,0.0,-109.7982164349,515.109453487,0.3056330086,-0.7225068808,0.0,0.0,1470,1750,40.0480916667,-88.2331258333,0.0,0.0,0.0,0.0,0.0,0.0,0.0,0.0,0.0,0.0,0.0,0.0,0.0,0,-0.0600000024,0.5,0.1936824918,0.2753491998,90.0,60.0,60.0,89.5087432861,119.62085723879999,118.9842300415,36.2999992371,15.908126831099999,51.690002441400004,2,-1,10,1,157,493
59,1532115371109,72109, AUTO,0,40.0434592604,-88.2344147,0,-107.677692819,514.0104196193,525.1677798647,-109.71235837409999,515.1000750103,0.2278942168,0.0,-109.7982164349,515.109453487,0.3056330086,-0.7225068808,0.0,0.0,1420,1750,40.0480916667,-88.2331258333,0.0,0.0,0.0,0.0,0.0,0.0,0.0,0.0,0.0,0.0,0.0,0.0,0.0,0,-0.16000002619999998,0.5,0.21042048929999999,0.24536794420000002,90.0,60.0,60.0,89.12677001950001,119.6845169067,118.9842300415,36.2999992371,15.908126831099999,51.690002441400004,2,-1,10,1,146,501
60,1532115371310,72310, AUTO,0,40.0434592604,-88.2344147,0,-107.677692819,514.0104196193,525.1677798647,-109.71235837409999,515.1000750103,0.2252271771,0.0,-109.7982164349,515.109453487,0.3056330086,-0.7225068808,0.0,0.0,1430,1750,40.0480916667,-88.2331258333,0.0,0.0,0.0,0.0,0.0,0.0,0.0,0.0,0.0,0.0,0.0,0.0,0.0,0,-0.1399999857,0.5,0.20784540469999999,0.24260893460000002,90.0,60.0,60.0,90.145362854,119.3025436401,119.3025436401,36.2999992371,15.908126831099999,51.690002441400004,2,-1,10,1,52,511
61,1532115371510,72510, AUTO,0,40.0434592604,-88.2344147,0,-107.677692819,514.0104196193,525.1677798647,-109.71235837409999,515.1000750103,0.20508641,0.0,-109.7982164349,515.109453487,0.3056330086,-0.7225068808,0.0,0.0,1430,1750,40.0480916667,-88.2331258333,0.0,0.0,0.0,0.0,0.0,0.0,0.0,0.0,0.0,0.0,0.0,0.0,0.0,0,-0.1399999857,0.5,0.1570796221,0.253093183,90.0,60.0,60.0,91.29127502440001,118.7932434082,120.00283050540001,36.2999992371,15.908126831099999,51.690002441400004,2,-1,10,1,82,520
62,1532115371711,72711, AUTO,0,40.0434592604,-88.2344147,0,-107.677692819,514.0104196193,525.1677798647,-109.71235837409999,515.1000750103,0.227250427,0.0,-109.7982164349,515.109453487,0.3056330086,-0.7225068808,0.0,0.0,1420,1750,40.0480916667,-88.2331258333,0.0,0.0,0.0,0.0,0.0,0.0,0.0,0.0,0.0,0.0,0.0,0.0,0.0,0,-0.16000002619999998,0.5,0.1701389402,0.2843619287,90.0,60.0,60.0,89.6997299194,119.0479049683,119.6845169067,36.2999992371,15.852865219100002,39.1500015259,2,-1,10,1,125,532
63,1532115371912,72912, AUTO,0,40.0434592604,-88.2344147,0,-107.637414636,513.9386328843,525.0892604124,-109.75492194819999,514.8220876933,0.24536794420000002,0.0,-109.7579382519,515.037666752,0.2858456183,-0.7330404889,0.0,0.0,1430,1750,40.0480891667,-88.2331253333,0.0,0.0,0.0,0.0,0.0,0.0,0.0,0.0,0.0,0.0,0.0,0.0,0.0,0,-0.1399999857,0.5,0.20361492039999998,0.2871209681,90.0,60.0,60.0,89.8907089233,119.7481765747,118.7932434082,36.2999992371,15.852865219100002,39.1500015259,2,-1,10,1,221,542
64,1532115372112,73112, AUTO,0,40.0434592604,-88.2344147,0,-107.637414636,513.9386328843,525.0892604124,-109.75492194819999,514.8220876933,0.2548405528,0.0,-109.7579382519,515.037666752,0.2858456183,-0.7330404889,0.0,0.0,1430,1750,40.0480891667,-88.2331253333,0.0,0.0,0.0,0.0,0.0,0.0,0.0,0.0,0.0,0.0,0.0,0.0,0.0,0,-0.1399999857,0.5,0.1868769377,0.322804153,90.0,60.0,60.0,89.9543762207,118.856918335,119.6845169067,36.2999992371,15.852865219100002,39.1500015259,2,-1,10,1,191,552
65,1532115372313,73313, AUTO,0,40.0434592604,-88.2344147,0,-107.637414636,513.9386328843,525.0892604124,-109.75492194819999,514.8220876933,0.2360792756,0.0,-109.7579382519,515.037666752,0.2858456183,-0.7330404889,0.0,0.0,1450,1750,40.0480891667,-88.2331253333,0.0,0.0,0.0,0.0,0.0,0.0,0.0,0.0,0.0,0.0,0.0,0.0,0.0,0,-0.1000000238,0.5,0.1934985667,0.2786599994,90.0,60.0,60.0,90.6546554565,119.1115570068,119.3025436401,36.2999992371,15.852865219100002,39.1500015259,2,-1,10,1,142,562
66,1532115372513,73513, AUTO,0,40.0434592604,-88.2344147,0,-107.637414636,513.9386328843,525.0892604124,-109.75492194819999,514.8220876933,0.260818392,0.0,-109.7579382519,515.037666752,0.2858456183,-0.7330404889,0.0,0.0,1450,1750,40.0480891667,-88.2331253333,0.0,0.0,0.0,0.0,0.0,0.0,0.0,0.0,0.0,0.0,0.0,0.0,0.0,0,-0.1000000238,0.5,0.206006065,0.3156307042,90.0,60.0,60.0,90.3363494873,120.0664901733,118.6659317017,36.2999992371,15.852865219100002,39.1500015259,2,-1,10,1,154,572
67,1532115372714,73714, AUTO,0,40.0434592604,-88.2344147,0,-107.637414636,513.9386328843,525.0892604124,-109.75492194819999,514.8220876933,0.26127824190000004,0.0,-109.7579382519,515.037666752,0.2858456183,-0.7330404889,0.0,0.0,1410,1750,40.0480891667,-88.2331253333,0.0,0.0,0.0,0.0,0.0,0.0,0.0,0.0,0.0,0.0,0.0,0.0,0.0,0,-0.18000000719999998,0.5,0.20159165559999997,0.3209648132,90.0,60.0,60.0,89.44507598879999,119.1752166748,119.2388916016,36.2999992371,15.811750412,58.559997558599996,2,-1,10,1,116,582
68,1532115372915,73915, AUTO,0,40.0434592604,-88.2344147,0,-107.59023112,513.9429685221,525.0838339976999,-109.7974806931,515.2112699374,0.27121067050000003,0.0,-109.7107547359,515.0420023898,0.2617376777,-0.6590642406,0.0,0.0,1420,1750,40.0480926667,-88.2331248333,0.0,0.0,0.0,0.0,0.0,0.0,0.0,0.0,0.0,0.0,0.0,0.0,0.0,0,-0.16000002619999998,0.5,0.2069257349,0.3354955912,90.0,60.0,60.0,89.5087432861,119.4935302734,118.856918335,35.7610015869,15.811750412,58.559997558599996,2,-1,10,1,127,592
69,1532115373115,74115, AUTO,0,40.0434592604,-88.2344147,0,-107.59023112,513.9429685221,525.0838339976999,-109.7974806931,515.2112699374,0.2678079009,0.0,-109.7107547359,515.0420023898,0.2617376777,-0.6590642406,0.0,0.0,1440,1750,40.0480926667,-88.2331248333,0.0,0.0,0.0,0.0,0.0,0.0,0.0,0.0,0.0,0.0,0.0,0.0,0.0,0,-0.1200000048,0.5,0.2008559257,0.3347598612,90.0,60.0,60.0,90.3363494873,118.9205703735,119.42987060549999,35.7610015869,15.811750412,58.559997558599996,2,-1,10,1,131,602
70,1532115373316,74316, AUTO,0,40.0434592604,-88.2344147,0,-107.59023112,513.9429685221,525.0838339976999,-109.7974806931,515.2112699374,0.26183003190000004,0.0,-109.7107547359,515.0420023898,0.2617376777,-0.6590642406,0.0,0.0,1400,1750,40.0480926667,-88.2331248333,0.0,0.0,0.0,0.0,0.0,0.0,0.0,0.0,0.0,0.0,0.0,0.0,0.0,0,-0.1999999881,0.5,0.19276282190000002,0.3308972418,90.0,60.0,60.0,90.01803588870001,118.9205703735,119.42987060549999,35.7610015869,15.811750412,58.559997558599996,2,-1,10,1,95,612
71,1532115373517,74517, AUTO,0,40.0434592604,-88.2344147,0,-107.59023112,513.9429685221,525.0838339976999,-109.7974806931,515.2112699374,0.23111306129999998,0.0,-109.7107547359,515.0420023898,0.2617376777,-0.6590642406,0.0,0.0,1420,1750,40.0480926667,-88.2331248333,0.0,0.0,0.0,0.0,0.0,0.0,0.0,0.0,0.0,0.0,0.0,0.0,0.0,0,-0.16000002619999998,0.5,0.1815428436,0.280683279,90.0,60.0,60.0,90.20902252200001,119.1752166748,119.3662033081,35.7610015869,15.811750412,58.559997558599996,2,-1,10,1,90,621
72,1532115373717,74717, AUTO,0,40.0434592604,-88.2344147,0,-107.59023112,513.9429685221,525.0838339976999,-109.7974806931,515.2112699374,0.2435286045,0.0,-109.7107547359,515.0420023898,0.2617376777,-0.6590642406,0.0,0.0,1380,1750,40.0480926667,-88.2331248333,0.0,0.0,0.0,0.0,0.0,0.0,0.0,0.0,0.0,0.0,0.0,0.0,0.0,0,-0.2400000095,0.5,0.19257889690000002,0.294478327,90.0,60.0,60.0,89.7633895874,119.42987060549999,119.1115570068,35.7610015869,15.803853035,53.3300018311,2,-1,10,1,100,631
73,1532115373918,74918, AUTO,0,40.0434592604,-88.2344147,0,-107.5546000668,513.9337851437,525.0675456621,-109.7974804246,515.2483349129,0.2474831641,0.0,-109.6751236827,515.0328190114,0.25859416739999996,-0.6495633408,0.0,0.0,1420,1750,40.048093,-88.2331248333,0.0,0.0,0.0,0.0,0.0,0.0,0.0,0.0,0.0,0.0,0.0,0.0,0.0,0,-0.16000002619999998,0.5,0.18117497859999998,0.3137913644,90.0,60.0,60.0,89.82704925540001,119.3025436401,119.1115570068,36.2999992371,15.803853035,53.3300018311,2,-1,10,1,76,640
74,1532115374119,75119, AUTO,0,40.0434592604,-88.2344147,0,-107.5546000668,513.9337851437,525.0675456621,-109.7974804246,515.2483349129,0.22706651690000001,0.0,-109.6751236827,515.0328190114,0.25859416739999996,-0.6495633408,0.0,0.0,1400,1750,40.048093,-88.2331248333,0.0,0.0,0.0,0.0,0.0,0.0,0.0,0.0,0.0,0.0,0.0,0.0,0.0,0,-0.1999999881,0.5,0.1552402824,0.2988927364,90.0,60.0,60.0,89.82704925540001,119.1115570068,119.3025436401,36.2999992371,15.803853035,53.3300018311,2,-1,10,1,104,650
75,1532115374319,75319, AUTO,0,40.0434592604,-88.2344147,0,-107.5546000668,513.9337851437,525.0675456621,-109.7974804246,515.2483349129,0.21225982899999998,0.0,-109.6751236827,515.0328190114,0.25859416739999996,-0.6495633408,0.0,0.0,1400,1750,40.048093,-88.2331248333,0.0,0.0,0.0,0.0,0.0,0.0,0.0,0.0,0.0,0.0,0.0,0.0,0.0,0,-0.1999999881,0.5,0.1524812877,0.2720383704,90.0,60.0,60.0,89.7633895874,118.856918335,119.5571899414,36.2999992371,15.803853035,53.3300018311,2,-1,10,1,48,661
76,1532115374520,75520, AUTO,0,40.0434592604,-88.2344147,0,-107.5546000668,513.9337851437,525.0675456621,-109.7974804246,515.2483349129,0.21934127809999998,0.0,-109.6751236827,515.0328190114,0.25859416739999996,-0.6495633408,0.0,0.0,1430,1750,40.048093,-88.2331248333,0.0,0.0,0.0,0.0,0.0,0.0,0.0,0.0,0.0,0.0,0.0,0.0,0.0,0,-0.1399999857,0.5,0.14917047320000001,0.28951209780000003,90.0,60.0,60.0,89.63606262209998,119.0479049683,119.2388916016,36.2999992371,15.803853035,53.3300018311,2,-1,10,1,49,672
77,1532115374720,75720, AUTO,0,40.0434592604,-88.2344147,0,-107.5546000668,513.9337851437,525.0675456621,-109.7974804246,515.2483349129,0.2245834172,0.0,-109.6751236827,515.0328190114,0.25859416739999996,-0.6495633408,0.0,0.0,1400,1750,40.048093,-88.2331248333,0.0,0.0,0.0,0.0,0.0,0.0,0.0,0.0,0.0,0.0,0.0,0.0,0.0,0,-0.1999999881,0.5,0.1493544132,0.2998124063,90.0,60.0,60.0,90.3363494873,119.81184387209998,118.6659317017,36.2999992371,15.770017623900001,26.489997863800003,2,-1,10,1,50,682
78,1532115374921,75921, AUTO,0,40.0434592604,-88.2344147,0,-107.5027294166,513.9133786873,525.0369488196,-109.7407336875,514.9703475959,0.23626320059999997,0.0,-109.6232530325,515.012412555,0.2519363142,-0.5570800817,0.0,0.0,1400,1750,40.0480905,-88.2331255,0.0,0.0,0.0,0.0,0.0,0.0,0.0,0.0,0.0,0.0,0.0,0.0,0.0,0,-0.1999999881,0.5,0.144020319,0.3285060823,90.0,60.0,60.0,89.8907089233,119.0479049683,118.7932434082,35.7610015869,15.770017623900001,26.489997863800003,2,-1,10,1,54,692
79,1532115375122,76122, AUTO,0,40.0434592604,-88.2344147,0,-107.5027294166,513.9133786873,525.0369488196,-109.7407336875,514.9703475959,0.2175939232,0.0,-109.6232530325,515.012412555,0.2519363142,-0.5570800817,0.0,0.0,1400,1750,40.0480905,-88.2331255,0.0,0.0,0.0,0.0,0.0,0.0,0.0,0.0,0.0,0.0,0.0,0.0,0.0,0,-0.1999999881,0.5,0.1449399889,0.2902478576,90.0,60.0,60.0,90.3363494873,119.1752166748,118.856918335,35.7610015869,15.770017623900001,26.489997863800003,2,-1,10,1,37,701
80,1532115375322,76322, AUTO,0,40.0434592604,-88.2344147,0,-107.5027294166,513.9133786873,525.0369488196,-109.7407336875,514.9703475959,0.2299174964,0.0,-109.6232530325,515.012412555,0.2519363142,-0.5570800817,0.0,0.0,1400,1750,40.0480905,-88.2331255,0.0,0.0,0.0,0.0,0.0,0.0,0.0,0.0,0.0,0.0,0.0,0.0,0.0,0,-0.1999999881,0.5,0.151193738,0.3086412549,90.0,60.0,60.0,90.0816955566,118.72959136959999,119.81184387209998,35.7610015869,15.770017623900001,26.489997863800003,2,-1,10,1,8,711
81,1532115375523,76523, AUTO,0,40.0434592604,-88.2344147,0,-107.5027294166,513.9133786873,525.0369488196,-109.7407336875,514.9703475959,0.21088032420000002,0.0,-109.6232530325,515.012412555,0.2519363142,-0.5570800817,0.0,0.0,1400,1750,40.0480905,-88.2331255,0.0,0.0,0.0,0.0,0.0,0.0,0.0,0.0,0.0,0.0,0.0,0.0,0.0,0,-0.1999999881,0.5,0.1412613094,0.2804993391,90.0,60.0,60.0,88.8084564209,119.87550354,119.1115570068,35.7610015869,15.770017623900001,26.489997863800003,2,-1,10,1,21,722
82,1532115375724,76724, AUTO,0,40.0434592604,-88.2344147,0,-107.5027294166,513.9133786873,525.0369488196,-109.7407336875,514.9703475959,0.2211806178,0.0,-109.6232530325,515.012412555,0.2519363142,-0.5570800817,0.0,0.0,1400,1750,40.0480905,-88.2331255,0.0,0.0,0.0,0.0,0.0,0.0,0.0,0.0,0.0,0.0,0.0,0.0,0.0,0,-0.1999999881,0.5,0.1504579931,0.2919032574,90.0,60.0,60.0,90.5909881592,118.6659317017,119.42987060549999,35.7610015869,15.7590847015,45.6399993896,2,-1,10,1,30,731
83,1532115375924,76924, AUTO,0,40.0434592604,-88.2344147,0,-107.42895665889999,513.89781096,525.0066102805,-109.5563007838,514.8962176457,0.21695014829999998,0.0,-109.54948027479999,514.9968448277,0.2575514846,-0.4411850049,0.0,0.0,1400,1750,40.0480898333,-88.2331276667,0.0,0.0,0.0,0.0,0.0,0.0,0.0,0.0,0.0,0.0,0.0,0.0,0.0,0,-0.1999999881,0.5,0.1482508034,0.2856495082,90.0,60.0,60.0,90.2726821899,118.6022567749,119.5571899414,36.2999992371,15.7590847015,45.6399993896,2,-1,10,1,36,741
84,1532115376125,77125, AUTO,0,40.0434592604,-88.2344147,0,-107.42895665889999,513.89781096,525.0066102805,-109.5563007838,514.8962176457,0.2178698182,0.0,-109.54948027479999,514.9968448277,0.2575514846,-0.4411850049,0.0,0.0,1400,1750,40.0480898333,-88.2331276667,0.0,0.0,0.0,0.0,0.0,0.0,0.0,0.0,0.0,0.0,0.0,0.0,0.0,0,-0.1999999881,0.5,0.15027406810000002,0.28546556829999997,90.0,60.0,60.0,90.01803588870001,118.4749450684,119.6845169067,36.2999992371,15.7590847015,45.6399993896,2,-1,10,1,59,751
85,1532115376325,77325, AUTO,0,40.0434592604,-88.2344147,0,-107.42895665889999,513.89781096,525.0066102805,-109.5563007838,514.8962176457,0.2340559959,0.0,-109.54948027479999,514.9968448277,0.2575514846,-0.4411850049,0.0,0.0,1400,1750,40.0480898333,-88.2331276667,0.0,0.0,0.0,0.0,0.0,0.0,0.0,0.0,0.0,0.0,0.0,0.0,0.0,0,-0.1999999881,0.5,0.1581832319,0.30992877480000003,90.0,60.0,60.0,89.6997299194,119.2388916016,119.4935302734,36.2999992371,15.7590847015,45.6399993896,2,-1,10,1,49,761
86,1532115376526,77526, AUTO,0,40.0434592604,-88.2344147,0,-107.42895665889999,513.89781096,525.0066102805,-109.5563007838,514.8962176457,0.2467474341,0.0,-109.54948027479999,514.9968448277,0.2575514846,-0.4411850049,0.0,0.0,1400,1750,40.0480898333,-88.2331276667,0.0,0.0,0.0,0.0,0.0,0.0,0.0,0.0,0.0,0.0,0.0,0.0,0.0,0,-0.1999999881,0.5,0.1649888009,0.3285060823,90.0,60.0,60.0,89.1904296875,119.3662033081,119.42987060549999,36.2999992371,15.7590847015,45.6399993896,2,-1,10,1,91,771
87,1532115376727,77727, AUTO,0,40.0434592604,-88.2344147,0,-107.42895665889999,513.89781096,525.0066102805,-109.5563007838,514.8962176457,0.2522654533,0.0,-109.54948027479999,514.9968448277,0.2575514846,-0.4411850049,0.0,0.0,1400,1750,40.0480898333,-88.2331276667,0.0,0.0,0.0,0.0,0.0,0.0,0.0,0.0,0.0,0.0,0.0,0.0,0.0,0,-0.1999999881,0.5,0.1670120656,0.3375188708,90.0,60.0,60.0,89.0631027222,118.9205703735,119.4935302734,36.2999992371,15.7506532669,44.7600021362,2,-1,10,1,9,781
88,1532115376927,77927, AUTO,0,40.0434592604,-88.2344147,0,-107.3756884556,513.8364753498,524.9356740318,-109.55630198909999,514.729425255,0.21805372829999997,0.0,-109.4962120715,514.9355092175,0.27521367690000004,-0.46942065990000004,0.0,0.0,1400,1750,40.0480883333,-88.2331276667,0.0,0.0,0.0,0.0,0.0,0.0,0.0,0.0,0.0,0.0,0.0,0.0,0.0,0,-0.1999999881,0.5,0.1563438922,0.2797635794,90.0,60.0,60.0,88.2991638184,120.6394424438,117.58367156979999,35.223999023400005,15.7506532669,44.7600021362,2,-1,10,1,36,791
89,1532115377128,78128, AUTO,0,40.0434592604,-88.2344147,0,-107.3756884556,513.8364753498,524.9356740318,-109.55630198909999,514.729425255,0.2114321291,0.0,-109.4962120715,514.9355092175,0.27521367690000004,-0.46942065990000004,0.0,0.0,1400,1750,40.0480883333,-88.2331276667,0.0,0.0,0.0,0.0,0.0,0.0,0.0,0.0,0.0,0.0,0.0,0.0,0.0,0,-0.1999999881,0.5,0.1497222632,0.2731419802,90.0,60.0,60.0,88.9994430542,119.3025436401,119.42987060549999,35.223999023400005,15.7506532669,44.7600021362,2,-1,10,1,70,801
90,1532115377329,78329, AUTO,0,40.0434592604,-88.2344147,0,-107.3756884556,513.8364753498,524.9356740318,-109.55630198909999,514.729425255,0.2248592973,0.0,-109.4962120715,514.9355092175,0.27521367690000004,-0.46942065990000004,0.0,0.0,1400,1750,40.0480883333,-88.2331276667,0.0,0.0,0.0,0.0,0.0,0.0,0.0,0.0,0.0,0.0,0.0,0.0,0.0,0,-0.1999999881,0.5,0.1570796221,0.2926389575,90.0,60.0,60.0,91.6095809937,117.6473312378,121.0850753784,35.223999023400005,15.7506532669,44.7600021362,2,-1,10,1,37,811
91,1532115377529,78529, AUTO,0,40.0434592604,-88.2344147,0,-107.3756884556,513.8364753498,524.9356740318,-109.55630198909999,514.729425255,0.24187320469999998,0.0,-109.4962120715,514.9355092175,0.27521367690000004,-0.46942065990000004,0.0,0.0,1400,1750,40.0480883333,-88.2331276667,0.0,0.0,0.0,0.0,0.0,0.0,0.0,0.0,0.0,0.0,0.0,0.0,0.0,0,-0.1999999881,0.5,0.1649888009,0.3187575936,90.0,60.0,60.0,89.3177566528,119.81184387209998,119.1752166748,35.223999023400005,15.7506532669,44.7600021362,2,-1,10,1,40,821
92,1532115377730,78730, AUTO,0,40.0434592604,-88.2344147,0,-107.3756884556,513.8364753498,524.9356740318,-109.55630198909999,514.729425255,0.23755075039999998,0.0,-109.4962120715,514.9355092175,0.27521367690000004,-0.46942065990000004,0.0,0.0,1290,1750,40.0480883333,-88.2331276667,0.0,0.0,0.0,0.0,0.0,0.0,0.0,0.0,0.0,0.0,0.0,0.0,0.0,0,-0.42000001670000003,0.5,0.16333338619999999,0.31176811460000003,90.0,60.0,60.0,89.82704925540001,119.81184387209998,118.7932434082,35.223999023400005,15.749795913699998,46.4100036621,2,-1,10,1,182,831
93,1532115377931,78931, AUTO,0,40.0434592604,-88.2344147,0,-107.3389722224,513.7958939465,524.8884410939,-109.62723699200001,514.8591526695,0.2289058566,0.0,-109.4594958383,514.8949278142,0.2784532551,-0.48175672280000004,0.0,0.0,1390,1750,40.0480895,-88.2331268333,0.0,0.0,0.0,0.0,0.0,0.0,0.0,0.0,0.0,0.0,0.0,0.0,0.0,0,-0.22000002859999998,0.5,0.1556081623,0.302203536,90.0,60.0,60.0,89.3177566528,119.1115570068,119.3662033081,36.2999992371,15.749795913699998,46.4100036621,2,-1,10,1,82,841
94,1532115378131,79131, AUTO,0,40.0434592604,-88.2344147,0,-107.3389722224,513.7958939465,524.8884410939,-109.62723699200001,514.8591526695,0.2339640409,0.0,-109.4594958383,514.8949278142,0.2784532551,-0.48175672280000004,0.0,0.0,1390,1750,40.0480895,-88.2331268333,0.0,0.0,0.0,0.0,0.0,0.0,0.0,0.0,0.0,0.0,0.0,0.0,0.0,0,-0.22000002859999998,0.5,0.1706907451,0.2972373366,90.0,60.0,60.0,89.6997299194,119.4935302734,118.9205703735,36.2999992371,15.749795913699998,46.4100036621,2,-1,10,1,75,851
95,1532115378332,79332, AUTO,0,40.0434592604,-88.2344147,0,-107.3389722224,513.7958939465,524.8884410939,-109.62723699200001,514.8591526695,0.22697454690000002,0.0,-109.4594958383,514.8949278142,0.2784532551,-0.48175672280000004,0.0,0.0,1390,1750,40.0480895,-88.2331268333,0.0,0.0,0.0,0.0,0.0,0.0,0.0,0.0,0.0,0.0,0.0,0.0,0.0,0,-0.22000002859999998,0.5,0.17032288010000002,0.2836262286,90.0,60.0,60.0,90.0816955566,120.32112884520001,117.96564483639999,36.2999992371,15.749795913699998,46.4100036621,2,-1,10,1,115,861
96,1532115378533,79533, AUTO,0,40.0434592604,-88.2344147,0,-107.3389722224,513.7958939465,524.8884410939,-109.62723699200001,514.8591526695,0.2174099982,0.0,-109.4594958383,514.8949278142,0.2784532551,-0.48175672280000004,0.0,0.0,1390,1750,40.0480895,-88.2331268333,0.0,0.0,0.0,0.0,0.0,0.0,0.0,0.0,0.0,0.0,0.0,0.0,0.0,0,-0.22000002859999998,0.5,0.1721622199,0.2626577616,90.0,60.0,60.0,89.5724029541,118.856918335,118.9842300415,36.2999992371,15.749795913699998,46.4100036621,2,-1,10,1,69,871
97,1532115378733,79733, AUTO,0,40.0434592604,-88.2344147,0,-107.3389722224,513.7958939465,524.8884410939,-109.62723699200001,514.8591526695,0.2346997559,0.0,-109.4594958383,514.8949278142,0.2784532551,-0.48175672280000004,0.0,0.0,1390,1750,40.0480895,-88.2331268333,0.0,0.0,0.0,0.0,0.0,0.0,0.0,0.0,0.0,0.0,0.0,0.0,0.0,0,-0.22000002859999998,0.5,0.17694449420000002,0.29245501760000003,90.0,60.0,60.0,89.25408935549999,118.6659317017,119.1752166748,36.2999992371,15.737874031099999,45.5400009155,2,-1,10,1,102,881
98,1532115378934,79934, AUTO,0,40.0434592604,-88.2344147,0,-107.3172453385,513.7478315477999,524.8369514116,-109.6414239113,514.8962176457,0.2574156225,0.0,-109.4377689544,514.8468654155,0.2833339596,-0.5574075264,0.0,0.0,1390,1750,40.0480898333,-88.2331266667,0.0,0.0,0.0,0.0,0.0,0.0,0.0,0.0,0.0,0.0,0.0,0.0,0.0,0,-0.22000002859999998,0.5,0.1721622199,0.34266904,90.0,60.0,60.0,89.63606262209998,118.411277771,120.4484634399,36.2999992371,15.737874031099999,45.5400009155,2,-1,10,1,85,891
99,1532115379134,80134, AUTO,0,40.0434592604,-88.2344147,0,-107.3172453385,513.7478315477999,524.8369514116,-109.6414239113,514.8962176457,0.2480349839,0.0,-109.4377689544,514.8468654155,0.2833339596,-0.5574075264,0.0,0.0,1390,1750,40.0480898333,-88.2331266667,0.0,0.0,0.0,0.0,0.0,0.0,0.0,0.0,0.0,0.0,0.0,0.0,0.0,0,-0.22000002859999998,0.5,0.17712843420000002,0.3189415336,90.0,60.0,60.0,89.5724029541,120.19381713870001,118.411277771,36.2999992371,15.737874031099999,45.5400009155,2,-1,10,1,61,901
100,1532115379335,80335, AUTO,0,40.0434592604,-88.2344147,0,-107.3172453385,513.7478315477999,524.8369514116,-109.6414239113,514.8962176457,0.2555762827,0.0,-109.4377689544,514.8468654155,0.2833339596,-0.5574075264,0.0,0.0,1390,1750,40.0480898333,-88.2331266667,0.0,0.0,0.0,0.0,0.0,0.0,0.0,0.0,0.0,0.0,0.0,0.0,0.0,0,-0.22000002859999998,0.5,0.1751051545,0.336047411,90.0,60.0,60.0,89.63606262209998,119.939163208,118.9842300415,36.2999992371,15.737874031099999,45.5400009155,2,-1,10,1,51,911
101,1532115379536,80536, AUTO,0,40.0434592604,-88.2344147,0,-107.3172453385,513.7478315477999,524.8369514116,-109.6414239113,514.8962176457,0.2451840043,0.0,-109.4377689544,514.8468654155,0.2833339596,-0.5574075264,0.0,0.0,1390,1750,40.0480898333,-88.2331266667,0.0,0.0,0.0,0.0,0.0,0.0,0.0,0.0,0.0,0.0,0.0,0.0,0.0,0,-0.22000002859999998,0.5,0.1692192703,0.3211487532,90.0,60.0,60.0,89.63606262209998,119.2388916016,119.7481765747,36.2999992371,15.737874031099999,45.5400009155,2,-1,10,1,146,921
102,1532115379736,80736, AUTO,0,40.0434592604,-88.2344147,0,-107.3172453385,513.7478315477999,524.8369514116,-109.6414239113,514.8962176457,0.2205368578,0.0,-109.4377689544,514.8468654155,0.2833339596,-0.5574075264,0.0,0.0,1390,1750,40.0480898333,-88.2331266667,0.0,0.0,0.0,0.0,0.0,0.0,0.0,0.0,0.0,0.0,0.0,0.0,0.0,0,-0.22000002859999998,0.5,0.1418131143,0.2992605865,90.0,60.0,60.0,90.0816955566,118.411277771,120.13014221190001,36.2999992371,15.7413816452,53.9500007629,2,-1,10,1,50,931
103,1532115379937,80937, AUTO,0,40.0434592604,-88.2344147,0,-107.3089005208,513.69794136,524.7864090166,-109.5846750267,514.914750133,0.20812129969999998,0.0,-109.4294241367,514.7969752276999,0.2841892165,-0.666871456,0.0,0.0,1390,1750,40.04809,-88.2331273333,0.0,0.0,0.0,0.0,0.0,0.0,0.0,0.0,0.0,0.0,0.0,0.0,0.0,0,-0.22000002859999998,0.5,0.1399737597,0.2762688398,90.0,60.0,60.0,89.8907089233,118.7932434082,119.62085723879999,35.7610015869,15.7413816452,53.9500007629,2,-1,10,1,68,941
104,1532115380138,81138, AUTO,0,40.0434592604,-88.2344147,0,-107.3089005208,513.69794136,524.7864090166,-109.5846750267,514.914750133,0.2181457132,0.0,-109.4294241367,514.7969752276999,0.2841892165,-0.666871456,0.0,0.0,1390,1750,40.04809,-88.2331273333,0.0,0.0,0.0,0.0,0.0,0.0,0.0,0.0,0.0,0.0,0.0,0.0,0.0,0,-0.22000002859999998,0.5,0.14567571880000002,0.2906157076,90.0,60.0,60.0,90.0816955566,118.6659317017,119.7481765747,35.7610015869,15.7413816452,53.9500007629,2,-1,10,1,107,951
105,1532115380338,81338, AUTO,0,40.0434592604,-88.2344147,0,-107.3089005208,513.69794136,524.7864090166,-109.5846750267,514.914750133,0.2388382852,0.0,-109.4294241367,514.7969752276999,0.2841892165,-0.666871456,0.0,0.0,1390,1750,40.04809,-88.2331273333,0.0,0.0,0.0,0.0,0.0,0.0,0.0,0.0,0.0,0.0,0.0,0.0,0.0,0,-0.22000002859999998,0.5,0.1521134079,0.3255631626,90.0,60.0,60.0,89.6997299194,118.9842300415,119.5571899414,35.7610015869,15.7413816452,53.9500007629,2,-1,10,1,131,961
106,1532115380539,81539, AUTO,0,40.0434592604,-88.2344147,0,-107.3089005208,513.69794136,524.7864090166,-109.5846750267,514.914750133,0.22633077199999999,0.0,-109.4294241367,514.7969752276999,0.2841892165,-0.666871456,0.0,0.0,1390,1750,40.04809,-88.2331273333,0.0,0.0,0.0,0.0,0.0,0.0,0.0,0.0,0.0,0.0,0.0,0.0,0.0,0,-0.22000002859999998,0.5,0.14677932859999998,0.3058822155,90.0,60.0,60.0,89.82704925540001,118.7932434082,119.87550354,35.7610015869,15.7413816452,53.9500007629,2,-1,10,1,74,971
107,1532115380739,81739, AUTO,0,40.0434592604,-88.2344147,0,-107.3089005208,513.69794136,524.7864090166,-109.5846750267,514.914750133,0.1954298615,0.0,-109.4294241367,514.7969752276999,0.2841892165,-0.666871456,0.0,0.0,1390,1750,40.04809,-88.2331273333,0.0,0.0,0.0,0.0,0.0,0.0,0.0,0.0,0.0,0.0,0.0,0.0,0.0,0,-0.22000002859999998,0.5,0.1407095045,0.25015023350000004,90.0,60.0,60.0,90.3363494873,119.1115570068,119.5571899414,35.7610015869,15.7206344604,28.6999988556,2,-1,10,1,84,981
108,1532115380940,81940, AUTO,0,40.0434592604,-88.2344147,0,-107.3135181613,513.6379634725,524.7286429197001,-109.5704881062,514.8776851576,0.2144670337,0.0,-109.4340417772,514.7369973402,0.2802727655,-0.8122268968,0.0,0.0,1390,1750,40.0480896667,-88.2331275,0.0,0.0,0.0,0.0,0.0,0.0,0.0,0.0,0.0,0.0,0.0,0.0,0.0,0,-0.22000002859999998,0.5,0.1686674654,0.260266602,90.0,60.0,60.0,90.8456420898,119.7481765747,118.9205703735,35.7610015869,15.7206344604,28.6999988556,2,-1,10,1,155,991
109,1532115381141,82141, AUTO,0,40.0434592604,-88.2344147,0,-107.3135181613,513.6379634725,524.7286429197001,-109.5704881062,514.8776851576,0.2064659297,0.0,-109.4340417772,514.7369973402,0.2802727655,-0.8122268968,0.0,0.0,1390,1750,40.0480896667,-88.2331275,0.0,0.0,0.0,0.0,0.0,0.0,0.0,0.0,0.0,0.0,0.0,0.0,0.0,0,-0.22000002859999998,0.5,0.1419970542,0.2709347904,90.0,60.0,60.0,89.3814163208,119.81184387209998,118.7932434082,35.7610015869,15.7206344604,28.6999988556,2,-1,10,1,167,1001
110,1532115381341,82341, AUTO,0,40.0434592604,-88.2344147,0,-107.3135181613,513.6379634725,524.7286429197001,-109.5704881062,514.8776851576,0.1954298764,0.0,-109.4340417772,514.7369973402,0.2802727655,-0.8122268968,0.0,0.0,1390,1750,40.0480896667,-88.2331275,0.0,0.0,0.0,0.0,0.0,0.0,0.0,0.0,0.0,0.0,0.0,0.0,0.0,0,-0.22000002859999998,0.5,0.1366629601,0.2541967928,90.0,60.0,60.0,89.7633895874,118.9842300415,119.62085723879999,35.7610015869,15.7206344604,28.6999988556,2,-1,10,1,71,1011
111,1532115381542,82542, AUTO,0,40.0434592604,-88.2344147,0,-107.3135181613,513.6379634725,524.7286429197001,-109.5704881062,514.8776851576,0.1954298615,0.0,-109.4340417772,514.7369973402,0.2802727655,-0.8122268968,0.0,0.0,1390,1750,40.0480896667,-88.2331275,0.0,0.0,0.0,0.0,0.0,0.0,0.0,0.0,0.0,0.0,0.0,0.0,0.0,0,-0.22000002859999998,0.5,0.1348236054,0.2560361028,90.0,60.0,60.0,89.6997299194,119.42987060549999,119.1752166748,35.7610015869,15.7206344604,28.6999988556,2,-1,10,1,33,1021
112,1532115381743,82743, AUTO,0,40.0434592604,-88.2344147,0,-107.3135181613,513.6379634725,524.7286429197001,-109.5704881062,514.8776851576,0.21557064350000002,0.0,-109.4340417772,514.7369973402,0.2802727655,-0.8122268968,0.0,0.0,1390,1750,40.0480896667,-88.2331275,0.0,0.0,0.0,0.0,0.0,0.0,0.0,0.0,0.0,0.0,0.0,0.0,0.0,0,-0.22000002859999998,0.5,0.15229734779999998,0.2788439393,90.0,60.0,60.0,89.7633895874,119.4935302734,119.1115570068,35.7610015869,15.7077198029,27.489997863800003,2,-1,10,1,35,1031
113,1532115381943,82943, AUTO,0,40.0434592604,-88.2344147,0,-107.3297693018,513.5903286713,524.6853391158,-109.58467529469999,514.8776851576,0.24527598920000002,0.0,-109.45029291770001,514.6893625390001,0.2649841978,-0.9417984440999999,0.0,0.0,1390,1750,40.0480896667,-88.2331273333,0.0,0.0,0.0,0.0,0.0,0.0,0.0,0.0,0.0,0.0,0.0,0.0,0.0,0,-0.22000002859999998,0.5,0.1688514054,0.321700573,90.0,60.0,60.0,89.8907089233,119.87550354,118.6022567749,35.223999023400005,15.7077198029,27.489997863800003,2,-1,10,1,140,1041
114,1532115382144,83144, AUTO,0,40.0434592604,-88.2344147,0,-107.3297693018,513.5903286713,524.6853391158,-109.58467529469999,514.8776851576,0.2594388723,0.0,-109.45029291770001,514.6893625390001,0.2649841978,-0.9417984440999999,0.0,0.0,1390,1750,40.0480896667,-88.2331273333,0.0,0.0,0.0,0.0,0.0,0.0,0.0,0.0,0.0,0.0,0.0,0.0,0.0,0,-0.22000002859999998,0.5,0.17712843420000002,0.34174934030000004,90.0,60.0,60.0,90.145362854,119.5571899414,119.3025436401,35.223999023400005,15.7077198029,27.489997863800003,2,-1,10,1,73,1051
115,1532115382344,83344, AUTO,0,40.0434592604,-88.2344147,0,-107.3297693018,513.5903286713,524.6853391158,-109.58467529469999,514.8776851576,0.26008266210000003,0.0,-109.45029291770001,514.6893625390001,0.2649841978,-0.9417984440999999,0.0,0.0,1390,1750,40.0480896667,-88.2331273333,0.0,0.0,0.0,0.0,0.0,0.0,0.0,0.0,0.0,0.0,0.0,0.0,0.0,0,-0.22000002859999998,0.5,0.17712843420000002,0.34303691979999995,90.0,60.0,60.0,89.7633895874,119.1752166748,119.42987060549999,35.223999023400005,15.7077198029,27.489997863800003,2,-1,10,1,32,1061
116,1532115382545,83545, AUTO,0,40.0434592604,-88.2344147,0,-107.3297693018,513.5903286713,524.6853391158,-109.58467529469999,514.8776851576,0.2391141802,0.0,-109.45029291770001,514.6893625390001,0.2649841978,-0.9417984440999999,0.0,0.0,1390,1750,40.0480896667,-88.2331273333,0.0,0.0,0.0,0.0,0.0,0.0,0.0,0.0,0.0,0.0,0.0,0.0,0.0,0,-0.22000002859999998,0.5,0.1541366875,0.3240916729,90.0,60.0,60.0,89.5724029541,119.3662033081,119.1752166748,35.223999023400005,15.7077198029,27.489997863800003,2,-1,10,1,40,1071
117,1532115382746,83746, AUTO,0,40.0434592604,-88.2344147,0,-107.3297693018,513.5903286713,524.6853391158,-109.58467529469999,514.8776851576,0.22347980739999998,0.0,-109.45029291770001,514.6893625390001,0.2649841978,-0.9417984440999999,0.0,0.0,1390,1750,40.0480896667,-88.2331273333,0.0,0.0,0.0,0.0,0.0,0.0,0.0,0.0,0.0,0.0,0.0,0.0,0.0,0,-0.22000002859999998,0.5,0.1368468851,0.3101127148,90.0,60.0,60.0,89.44507598879999,118.9205703735,119.5571899414,35.223999023400005,15.7012586594,32.7200012207,2,-1,10,1,89,1081
